{"ts_recv_utc": "2025-06-24T07:05:02.442Z", "data": {"ts": 1750748697.0, "accel": {"ax": -0.157, "ay": -0.447, "az": 0.888}, "gyro": {"gx": -1.6, "gy": 2.1, "gz": -0.9}, "angle": {"roll": -26.8, "pitch": 9.0, "yaw": -4.5}, "gps": {"lat": 37.69744873046875, "lon": 126.49708557128906, "altitude": 0.0}}, "meta": {"recv_frame_seq": 4, "latency_ms": 5439, "rssi_dbm": -100}}
{"ts_recv_utc": "2025-06-24T07:05:21.365Z", "data": {"ts": 1750748716.0, "accel": {"ax": -0.154, "ay": -0.446, "az": 0.901}, "gyro": {"gx": -0.3, "gy": 3.3, "gz": -0.4}, "angle": {"roll": -26.8, "pitch": 9.1, "yaw": -4.6}, "gps": {"lat": 33.02555847167969, "lon": 127.10955047607422, "altitude": 48.0}}, "meta": {"recv_frame_seq": 7, "latency_ms": 5362, "rssi_dbm": -100}}
{"ts_recv_utc": "2025-06-24T07:05:40.292Z", "data": {"ts": 1750748735.0, "accel": {"ax": -0.153, "ay": -0.447, "az": 0.906}, "gyro": {"gx": 0.6, "gy": 1.2, "gz": 0.0}, "angle": {"roll": -26.8, "pitch": 9.1, "yaw": -4.6}, "gps": {"lat": 33.95083999633789, "lon": 126.9974365234375, "altitude": 78.5}}, "meta": {"recv_frame_seq": 10, "latency_ms": 5287, "rssi_dbm": -100}}
{"ts_recv_utc": "2025-06-24T07:05:59.215Z", "data": {"ts": 1750748754.0, "accel": {"ax": -0.156, "ay": -0.443, "az": 0.897}, "gyro": {"gx": 0.7, "gy": -1.5, "gz": 1.7}, "angle": {"roll": -26.8, "pitch": 9.1, "yaw": -4.6}, "gps": {"lat": 35.467193603515625, "lon": 127.66790771484375, "altitude": 0.0}}, "meta": {"recv_frame_seq": 13, "latency_ms": 5211, "rssi_dbm": -100}}
{"ts_recv_utc": "2025-06-24T07:06:18.141Z", "data": {"ts": 1750748773.0, "accel": {"ax": -0.154, "ay": -0.444, "az": 0.899}, "gyro": {"gx": 2.6, "gy": -0.9, "gz": 1.5}, "angle": {"roll": -26.7, "pitch": 9.1, "yaw": -4.6}, "gps": {"lat": 37.44867706298828, "lon": 129.5657958984375, "altitude": 0.0}}, "meta": {"recv_frame_seq": 16, "latency_ms": 5139, "rssi_dbm": -100}}
{"ts_recv_utc": "2025-06-24T07:06:37.063Z", "data": {"ts": 1750748792.0, "accel": {"ax": -0.157, "ay": -0.45, "az": 0.899}, "gyro": {"gx": 3.0, "gy": -2.1, "gz": 2.8}, "angle": {"roll": -26.6, "pitch": 9.1, "yaw": -4.5}, "gps": {"lat": 36.000118255615234, "lon": 127.51134490966797, "altitude": 0.0}}, "meta": {"recv_frame_seq": 19, "latency_ms": 5059, "rssi_dbm": -100}}
{"ts_recv_utc": "2025-06-24T07:06:55.987Z", "data": {"ts": 1750748811.0, "accel": {"ax": -0.165, "ay": -0.455, "az": 0.889}, "gyro": {"gx": 3.2, "gy": -1.2, "gz": 1.0}, "angle": {"roll": -26.5, "pitch": 9.1, "yaw": -4.4}, "gps": {"lat": 37.410499572753906, "lon": 128.44374084472656, "altitude": 0.0}}, "meta": {"recv_frame_seq": 22, "latency_ms": 4983, "rssi_dbm": -101}}
{"ts_recv_utc": "2025-06-24T07:07:14.914Z", "data": {"ts": 1750748830.0, "accel": {"ax": -0.166, "ay": -0.459, "az": 0.904}, "gyro": {"gx": 2.1, "gy": 0.0, "gz": 1.0}, "angle": {"roll": -26.4, "pitch": 9.1, "yaw": -4.4}, "gps": {"lat": 34.649784088134766, "lon": 127.46499633789062, "altitude": 99.6}}, "meta": {"recv_frame_seq": 25, "latency_ms": 4911, "rssi_dbm": -100}}
{"ts_recv_utc": "2025-06-24T07:07:33.828Z", "data": {"ts": 1750748849.0, "accel": {"ax": -0.166, "ay": -0.458, "az": 0.899}, "gyro": {"gx": 0.1, "gy": -0.7, "gz": 0.3}, "angle": {"roll": -26.4, "pitch": 9.1, "yaw": -4.3}, "gps": {"lat": 37.6573600769043, "lon": 127.25647735595703, "altitude": 0.0}}, "meta": {"recv_frame_seq": 28, "latency_ms": 4826, "rssi_dbm": -99}}
{"ts_recv_utc": "2025-06-24T07:07:52.751Z", "data": {"ts": 1750748868.0, "accel": {"ax": -0.16, "ay": -0.454, "az": 0.894}, "gyro": {"gx": -0.8, "gy": 1.0, "gz": -1.4}, "angle": {"roll": -26.4, "pitch": 9.1, "yaw": -4.3}, "gps": {"lat": 33.90072250366211, "lon": 128.03085327148438, "altitude": 62.5}}, "meta": {"recv_frame_seq": 31, "latency_ms": 4747, "rssi_dbm": -100}}
{"ts_recv_utc": "2025-06-24T07:08:11.678Z", "data": {"ts": 1750748886.0, "accel": {"ax": -0.155, "ay": -0.455, "az": 0.903}, "gyro": {"gx": -2.0, "gy": 1.5, "gz": -0.4}, "angle": {"roll": -26.5, "pitch": 9.1, "yaw": -4.4}, "gps": {"lat": 36.19021224975586, "lon": 127.34626770019531, "altitude": 19.9}}, "meta": {"recv_frame_seq": 34, "latency_ms": 5675, "rssi_dbm": -100}}
{"ts_recv_utc": "2025-06-24T07:08:30.602Z", "data": {"ts": 1750748905.0, "accel": {"ax": -0.157, "ay": -0.451, "az": 0.896}, "gyro": {"gx": -2.8, "gy": 0.3, "gz": -2.3}, "angle": {"roll": -26.5, "pitch": 9.1, "yaw": -4.4}, "gps": {"lat": 33.283939361572266, "lon": 128.57286071777344, "altitude": 0.0}}, "meta": {"recv_frame_seq": 37, "latency_ms": 5599, "rssi_dbm": -100}}
{"ts_recv_utc": "2025-06-24T07:08:49.526Z", "data": {"ts": 1750748924.0, "accel": {"ax": -0.158, "ay": -0.447, "az": 0.896}, "gyro": {"gx": -3.1, "gy": 0.1, "gz": -1.2}, "angle": {"roll": -26.6, "pitch": 9.1, "yaw": -4.5}, "gps": {"lat": 33.18534851074219, "lon": 129.0155487060547, "altitude": 0.0}}, "meta": {"recv_frame_seq": 40, "latency_ms": 5522, "rssi_dbm": -100}}
{"ts_recv_utc": "2025-06-24T07:09:08.447Z", "data": {"ts": 1750748943.0, "accel": {"ax": -0.159, "ay": -0.448, "az": 0.898}, "gyro": {"gx": -2.1, "gy": 0.1, "gz": -0.4}, "angle": {"roll": -26.7, "pitch": 9.1, "yaw": -4.5}, "gps": {"lat": 37.3536491394043, "lon": 128.10989379882812, "altitude": 0.0}}, "meta": {"recv_frame_seq": 43, "latency_ms": 5443, "rssi_dbm": -100}}
{"ts_recv_utc": "2025-06-24T07:09:27.367Z", "data": {"ts": 1750748962.0, "accel": {"ax": -0.159, "ay": -0.447, "az": 0.903}, "gyro": {"gx": -1.4, "gy": -0.1, "gz": -1.5}, "angle": {"roll": -26.8, "pitch": 9.0, "yaw": -4.5}, "gps": {"lat": 37.37298583984375, "lon": 126.84746551513672, "altitude": 31.7}}, "meta": {"recv_frame_seq": 46, "latency_ms": 5366, "rssi_dbm": -99}}
{"ts_recv_utc": "2025-06-24T07:09:46.286Z", "data": {"ts": 1750748981.0, "accel": {"ax": -0.16, "ay": -0.446, "az": 0.898}, "gyro": {"gx": -1.0, "gy": -1.2, "gz": -0.3}, "angle": {"roll": -26.8, "pitch": 9.0, "yaw": -4.6}, "gps": {"lat": 34.13819122314453, "lon": 127.28593444824219, "altitude": 0.0}}, "meta": {"recv_frame_seq": 49, "latency_ms": 5282, "rssi_dbm": -103}}
{"ts_recv_utc": "2025-06-24T07:59:02.992Z", "data": {"error": "BAM payload size mismatch"}, "meta": {"recv_frame_seq": 3, "latency_ms": -1, "rssi_dbm": -100}}
{"ts_recv_utc": "2025-06-24T07:59:21.940Z", "data": {"error": "BAM payload size mismatch"}, "meta": {"recv_frame_seq": 6, "latency_ms": -1, "rssi_dbm": -100}}
{"ts_recv_utc": "2025-06-24T07:59:40.866Z", "data": {"error": "BAM payload size mismatch"}, "meta": {"recv_frame_seq": 9, "latency_ms": -1, "rssi_dbm": -100}}
{"ts_recv_utc": "2025-06-24T07:59:59.811Z", "data": {"error": "BAM payload size mismatch"}, "meta": {"recv_frame_seq": 12, "latency_ms": -1, "rssi_dbm": -100}}
{"ts_recv_utc": "2025-06-24T08:06:54.755Z", "data": {"error": "BAM payload size mismatch"}, "meta": {"recv_frame_seq": 2, "latency_ms": -1, "rssi_dbm": -101}}
{"ts_recv_utc": "2025-06-24T08:07:13.697Z", "data": {"error": "BAM payload size mismatch"}, "meta": {"recv_frame_seq": 5, "latency_ms": -1, "rssi_dbm": -100}}
{"ts_recv_utc": "2025-06-24T08:07:32.625Z", "data": {"error": "BAM payload size mismatch"}, "meta": {"recv_frame_seq": 8, "latency_ms": -1, "rssi_dbm": -98}}
{"ts_recv_utc": "2025-06-24T08:07:40.662Z", "data": {"error": "BAM payload size mismatch"}, "meta": {"recv_frame_seq": 10, "latency_ms": -1, "rssi_dbm": -100}}
{"ts_recv_utc": "2025-06-24T08:07:59.595Z", "data": {"error": "BAM payload size mismatch"}, "meta": {"recv_frame_seq": 13, "latency_ms": -1, "rssi_dbm": -100}}
{"ts_recv_utc": "2025-06-24T08:08:18.531Z", "data": {"error": "BAM payload size mismatch"}, "meta": {"recv_frame_seq": 16, "latency_ms": -1, "rssi_dbm": -95}}
{"ts_recv_utc": "2025-06-24T08:08:48.489Z", "data": {"error": "BAM payload size mismatch"}, "meta": {"recv_frame_seq": 20, "latency_ms": -1, "rssi_dbm": -95}}
{"ts_recv_utc": "2025-06-24T08:10:07.620Z", "data": {"error": "BAM payload size mismatch"}, "meta": {"recv_frame_seq": 3, "latency_ms": -1, "rssi_dbm": -100}}
{"ts_recv_utc": "2025-06-24T08:10:26.542Z", "data": {"error": "BAM payload size mismatch"}, "meta": {"recv_frame_seq": 6, "latency_ms": -1, "rssi_dbm": -101}}
{"ts_recv_utc": "2025-06-24T08:10:45.469Z", "data": {"error": "BAM payload size mismatch"}, "meta": {"recv_frame_seq": 9, "latency_ms": -1, "rssi_dbm": -100}}
{"ts_recv_utc": "2025-06-24T08:11:04.396Z", "data": {"error": "BAM payload size mismatch"}, "meta": {"recv_frame_seq": 12, "latency_ms": -1, "rssi_dbm": -100}}
{"ts_recv_utc": "2025-06-24T08:54:35.041Z", "data": {"ts": 1750755328.0, "accel": {"ax": 0.4004263811398208, "ay": -0.6523872470836214, "az": 0.8854050599510914}, "gyro": {"gx": 66.9416729626129, "gy": -16.62695918792213, "gz": 36.165794928489056}, "angle": {"roll": -29.432160528536585, "pitch": -26.930155780705057, "yaw": -117.05919084233618}, "gps": {"lat": 0.26130582003697667, "lon": 0.007934570312500028, "altitude": 95.78526755757888}}, "meta": {"recv_frame_seq": 3, "latency_ms": -52960, "rssi_dbm": -100}}
{"ts_recv_utc": "2025-06-24T08:54:54.205Z", "data": {"ts": 1750755328.0, "accel": {"ax": 0.4004263811398208, "ay": -0.6523872470836214, "az": 0.8854050599510914}, "gyro": {"gx": 66.9416729626129, "gy": -16.62695918792213, "gz": 36.165794928489056}, "angle": {"roll": -29.432160528536585, "pitch": -26.930155780705057, "yaw": -117.05919084233618}, "gps": {"lat": 0.26130582003697667, "lon": 0.007934570312500028, "altitude": 95.78526755757888}}, "meta": {"recv_frame_seq": 6, "latency_ms": -33798, "rssi_dbm": -101}}
{"ts_recv_utc": "2025-06-24T08:55:07.640Z", "data": {"ts": 1750755328.0, "accel": {"ax": 0.4004263811398208, "ay": -0.6523872470836214, "az": 0.8854050599510914}, "gyro": {"gx": 66.9416729626129, "gy": -16.62695918792213, "gz": 36.165794928489056}, "angle": {"roll": -29.432160528536585, "pitch": -26.930155780705057, "yaw": -117.05919084233618}, "gps": {"lat": 0.26130582003697667, "lon": 0.007934570312500028, "altitude": 95.78526755757888}}, "meta": {"recv_frame_seq": 7, "latency_ms": -20362, "rssi_dbm": -101}}
{"ts_recv_utc": "2025-06-24T08:55:21.067Z", "data": {"ts": 1750755328.0, "accel": {"ax": 0.4004263811398208, "ay": -0.6523872470836214, "az": 0.8854050599510914}, "gyro": {"gx": 66.9416729626129, "gy": -16.62695918792213, "gz": 36.165794928489056}, "angle": {"roll": -29.432160528536585, "pitch": -26.930155780705057, "yaw": -117.05919084233618}, "gps": {"lat": 0.26130582003697667, "lon": 0.007934570312500028, "altitude": 95.78526755757888}}, "meta": {"recv_frame_seq": 8, "latency_ms": -6935, "rssi_dbm": -100}}
{"ts_recv_utc": "2025-06-24T08:55:34.512Z", "data": {"ts": 1750755328.0, "accel": {"ax": 0.4004263811398208, "ay": -0.6523872470836214, "az": 0.8854050599510914}, "gyro": {"gx": 66.9416729626129, "gy": -16.62695918792213, "gz": 36.165794928489056}, "angle": {"roll": -29.432160528536585, "pitch": -26.930155780705057, "yaw": -117.05919084233618}, "gps": {"lat": 0.26130582003697667, "lon": 0.007934570312500028, "altitude": 95.78526755757888}}, "meta": {"recv_frame_seq": 9, "latency_ms": 6509, "rssi_dbm": -101}}
{"ts_recv_utc": "2025-06-24T08:55:53.740Z", "data": {"ts": 1750755328.0, "accel": {"ax": 0.4004263811398208, "ay": -0.6523872470836214, "az": 0.8854050599510914}, "gyro": {"gx": 66.9416729626129, "gy": -16.62695918792213, "gz": 36.165794928489056}, "angle": {"roll": -29.432160528536585, "pitch": -26.930155780705057, "yaw": -117.05919084233618}, "gps": {"lat": 0.26130582003697667, "lon": 0.007934570312500028, "altitude": 95.78526755757888}}, "meta": {"recv_frame_seq": 12, "latency_ms": 25737, "rssi_dbm": -101}}
{"ts_recv_utc": "2025-06-24T08:56:12.944Z", "data": {"ts": 1750755328.0, "accel": {"ax": 0.4004263811398208, "ay": -0.6523872470836214, "az": 0.8854050599510914}, "gyro": {"gx": 66.9416729626129, "gy": -16.62695918792213, "gz": 36.165794928489056}, "angle": {"roll": -29.432160528536585, "pitch": -26.930155780705057, "yaw": -117.05919084233618}, "gps": {"lat": 0.26130582003697667, "lon": 0.007934570312500028, "altitude": 95.78526755757888}}, "meta": {"recv_frame_seq": 15, "latency_ms": 44941, "rssi_dbm": -101}}
{"ts_recv_utc": "2025-06-24T08:56:32.180Z", "data": {"ts": 1750755328.0, "accel": {"ax": 0.4004263811398208, "ay": -0.6523872470836214, "az": 0.8854050599510914}, "gyro": {"gx": 66.9416729626129, "gy": -16.62695918792213, "gz": 36.165794928489056}, "angle": {"roll": -29.432160528536585, "pitch": -26.930155780705057, "yaw": -117.05919084233618}, "gps": {"lat": 0.26130582003697667, "lon": 0.007934570312500028, "altitude": 95.78526755757888}}, "meta": {"recv_frame_seq": 18, "latency_ms": 64177, "rssi_dbm": -101}}
{"ts_recv_utc": "2025-06-24T08:56:51.357Z", "data": {"ts": 1750755456.0, "accel": {"ax": 0.4004263811398208, "ay": -0.6523872470836214, "az": 0.8854050599510914}, "gyro": {"gx": 66.9416729626129, "gy": -16.62695918792213, "gz": 36.165794928489056}, "angle": {"roll": -29.432160528536585, "pitch": -26.930155780705057, "yaw": -117.05919084233618}, "gps": {"lat": 0.26130582003697667, "lon": 0.007934570312500028, "altitude": 95.78526755757888}}, "meta": {"recv_frame_seq": 21, "latency_ms": -44646, "rssi_dbm": -101}}
{"ts_recv_utc": "2025-06-24T08:57:10.556Z", "data": {"ts": 1750755456.0, "accel": {"ax": 0.4004263811398208, "ay": -0.6523872470836214, "az": 0.8854050599510914}, "gyro": {"gx": 66.9416729626129, "gy": -16.62695918792213, "gz": 36.165794928489056}, "angle": {"roll": -29.432160528536585, "pitch": -26.930155780705057, "yaw": -117.05919084233618}, "gps": {"lat": 0.26130582003697667, "lon": 0.007934570312500028, "altitude": 95.78526755757888}}, "meta": {"recv_frame_seq": 24, "latency_ms": -25444, "rssi_dbm": -100}}
{"ts_recv_utc": "2025-06-24T08:57:29.796Z", "data": {"ts": 1750755456.0, "accel": {"ax": 0.4004263811398208, "ay": -0.6523872470836214, "az": 0.8854050599510914}, "gyro": {"gx": 66.9416729626129, "gy": -16.62695918792213, "gz": 36.165794928489056}, "angle": {"roll": -29.432160528536585, "pitch": -26.930155780705057, "yaw": -117.05919084233618}, "gps": {"lat": 0.26130582003697667, "lon": 0.007934570312500028, "altitude": 95.78526755757888}}, "meta": {"recv_frame_seq": 27, "latency_ms": -6206, "rssi_dbm": -101}}
{"ts_recv_utc": "2025-06-24T08:57:48.960Z", "data": {"ts": 1750755456.0, "accel": {"ax": 0.4004263811398208, "ay": -0.6523872470836214, "az": 0.8854050599510914}, "gyro": {"gx": 66.9416729626129, "gy": -16.62695918792213, "gz": 36.165794928489056}, "angle": {"roll": -29.432160528536585, "pitch": -26.930155780705057, "yaw": -117.05919084233618}, "gps": {"lat": 0.26130582003697667, "lon": 0.007934570312500028, "altitude": 95.78526755757888}}, "meta": {"recv_frame_seq": 30, "latency_ms": 12957, "rssi_dbm": -101}}
{"ts_recv_utc": "2025-06-24T08:58:24.478Z", "data": {"ts": 1750755456.0, "accel": {"ax": 0.4004263811398208, "ay": -0.6523872470836214, "az": 0.8854050599510914}, "gyro": {"gx": 66.9416729626129, "gy": -16.62695918792213, "gz": 36.165794928489056}, "angle": {"roll": -29.432160528536585, "pitch": -26.930155780705057, "yaw": -117.05919084233618}, "gps": {"lat": 0.26130582003697667, "lon": 0.007934570312500028, "altitude": 95.78526755757888}}, "meta": {"recv_frame_seq": 33, "latency_ms": 48474, "rssi_dbm": -100}}
{"ts_recv_utc": "2025-06-24T08:58:43.643Z", "data": {"ts": 1750755456.0, "accel": {"ax": 0.4004263811398208, "ay": -0.6523872470836214, "az": 0.8854050599510914}, "gyro": {"gx": 66.9416729626129, "gy": -16.62695918792213, "gz": 36.165794928489056}, "angle": {"roll": -29.432160528536585, "pitch": -26.930155780705057, "yaw": -117.05919084233618}, "gps": {"lat": 0.26130582003697667, "lon": 0.007934570312500028, "altitude": 95.78526755757888}}, "meta": {"recv_frame_seq": 36, "latency_ms": 67641, "rssi_dbm": -101}}
{"ts_recv_utc": "2025-06-24T08:59:08.126Z", "data": {"ts": 1750755584.0, "accel": {"ax": 0.4004263811398208, "ay": -0.6523872470836214, "az": 0.8854050599510914}, "gyro": {"gx": 66.9416729626129, "gy": -16.62695918792213, "gz": 36.165794928489056}, "angle": {"roll": -29.432160528536585, "pitch": -26.930155780705057, "yaw": -117.05919084233618}, "gps": {"lat": 0.26130582003697667, "lon": 0.007934570312500028, "altitude": 95.78526755757888}}, "meta": {"recv_frame_seq": 38, "latency_ms": -35877, "rssi_dbm": -101}}
{"ts_recv_utc": "2025-06-24T08:59:21.571Z", "data": {"ts": 1750755584.0, "accel": {"ax": 0.4004263811398208, "ay": -0.6523872470836214, "az": 0.8854050599510914}, "gyro": {"gx": 66.9416729626129, "gy": -16.62695918792213, "gz": 36.165794928489056}, "angle": {"roll": -29.432160528536585, "pitch": -26.930155780705057, "yaw": -117.05919084233618}, "gps": {"lat": 0.26130582003697667, "lon": 0.007934570312500028, "altitude": 95.78526755757888}}, "meta": {"recv_frame_seq": 39, "latency_ms": -22430, "rssi_dbm": -101}}
{"ts_recv_utc": "2025-06-24T08:59:46.046Z", "data": {"ts": 1750755584.0, "accel": {"ax": 0.4004263811398208, "ay": -0.6523872470836214, "az": 0.8854050599510914}, "gyro": {"gx": 66.9416729626129, "gy": -16.62695918792213, "gz": 36.165794928489056}, "angle": {"roll": -29.432160528536585, "pitch": -26.930155780705057, "yaw": -117.05919084233618}, "gps": {"lat": 0.26130582003697667, "lon": 0.007934570312500028, "altitude": 95.78526755757888}}, "meta": {"recv_frame_seq": 41, "latency_ms": 2041, "rssi_dbm": -101}}
{"ts_recv_utc": "2025-06-24T09:00:05.226Z", "data": {"ts": 1750755584.0, "accel": {"ax": 0.4004263811398208, "ay": -0.6523872470836214, "az": 0.8854050599510914}, "gyro": {"gx": 66.9416729626129, "gy": -16.62695918792213, "gz": 36.165794928489056}, "angle": {"roll": -29.432160528536585, "pitch": -26.930155780705057, "yaw": -117.05919084233618}, "gps": {"lat": 0.26130582003697667, "lon": 0.007934570312500028, "altitude": 95.78526755757888}}, "meta": {"recv_frame_seq": 44, "latency_ms": 21221, "rssi_dbm": -101}}
{"ts_recv_utc": "2025-06-24T09:00:24.382Z", "data": {"ts": 1750755584.0, "accel": {"ax": 0.4004263811398208, "ay": -0.6523872470836214, "az": 0.8854050599510914}, "gyro": {"gx": 66.9416729626129, "gy": -16.62695918792213, "gz": 36.165794928489056}, "angle": {"roll": -29.432160528536585, "pitch": -26.930155780705057, "yaw": -117.05919084233618}, "gps": {"lat": 0.26130582003697667, "lon": 0.007934570312500028, "altitude": 95.78526755757888}}, "meta": {"recv_frame_seq": 47, "latency_ms": 40377, "rssi_dbm": -101}}
{"ts_recv_utc": "2025-06-24T09:00:48.891Z", "data": {"ts": 1750755584.0, "accel": {"ax": 0.4004263811398208, "ay": -0.6523872470836214, "az": 0.8854050599510914}, "gyro": {"gx": 66.9416729626129, "gy": -16.62695918792213, "gz": 36.165794928489056}, "angle": {"roll": -29.432160528536585, "pitch": -26.930155780705057, "yaw": -117.05919084233618}, "gps": {"lat": 0.26130582003697667, "lon": 0.007934570312500028, "altitude": 95.78526755757888}}, "meta": {"recv_frame_seq": 49, "latency_ms": 64889, "rssi_dbm": -101}}
{"ts_recv_utc": "2025-06-24T09:12:51.842Z", "data": {"error": "BAM payload size mismatch"}, "meta": {"recv_frame_seq": 3, "latency_ms": -1, "rssi_dbm": -101}}
{"ts_recv_utc": "2025-06-24T09:13:10.847Z", "data": {"error": "BAM payload size mismatch"}, "meta": {"recv_frame_seq": 6, "latency_ms": -1, "rssi_dbm": -101}}
{"ts_recv_utc": "2025-06-24T09:13:29.875Z", "data": {"error": "BAM payload size mismatch"}, "meta": {"recv_frame_seq": 9, "latency_ms": -1, "rssi_dbm": -101}}
{"ts_recv_utc": "2025-06-24T09:13:48.935Z", "data": {"error": "BAM payload size mismatch"}, "meta": {"recv_frame_seq": 12, "latency_ms": -1, "rssi_dbm": -101}}
{"ts_recv_utc": "2025-06-24T09:14:07.979Z", "data": {"error": "BAM payload size mismatch"}, "meta": {"recv_frame_seq": 15, "latency_ms": -1, "rssi_dbm": -101}}
{"ts_recv_utc": "2025-06-24T09:14:27.034Z", "data": {"error": "BAM payload size mismatch"}, "meta": {"recv_frame_seq": 18, "latency_ms": -1, "rssi_dbm": -101}}
{"ts_recv_utc": "2025-06-24T09:14:46.087Z", "data": {"error": "BAM payload size mismatch"}, "meta": {"recv_frame_seq": 21, "latency_ms": -1, "rssi_dbm": -101}}
{"ts_recv_utc": "2025-06-24T09:15:05.131Z", "data": {"error": "BAM payload size mismatch"}, "meta": {"recv_frame_seq": 24, "latency_ms": -1, "rssi_dbm": -101}}
{"ts_recv_utc": "2025-06-24T09:15:24.171Z", "data": {"error": "BAM payload size mismatch"}, "meta": {"recv_frame_seq": 27, "latency_ms": -1, "rssi_dbm": -101}}
{"ts_recv_utc": "2025-06-24T09:15:54.280Z", "data": {"error": "BAM payload size mismatch"}, "meta": {"recv_frame_seq": 31, "latency_ms": -1, "rssi_dbm": -101}}
{"ts_recv_utc": "2025-06-24T09:16:24.399Z", "data": {"error": "BAM payload size mismatch"}, "meta": {"recv_frame_seq": 35, "latency_ms": -1, "rssi_dbm": -102}}
{"ts_recv_utc": "2025-06-24T09:16:43.476Z", "data": {"error": "BAM payload size mismatch"}, "meta": {"recv_frame_seq": 38, "latency_ms": -1, "rssi_dbm": -101}}
{"ts_recv_utc": "2025-06-24T09:17:02.540Z", "data": {"error": "BAM payload size mismatch"}, "meta": {"recv_frame_seq": 41, "latency_ms": -1, "rssi_dbm": -101}}
{"ts_recv_utc": "2025-06-24T09:17:21.571Z", "data": {"error": "BAM payload size mismatch"}, "meta": {"recv_frame_seq": 44, "latency_ms": -1, "rssi_dbm": -101}}
{"ts_recv_utc": "2025-06-24T09:17:40.598Z", "data": {"error": "BAM payload size mismatch"}, "meta": {"recv_frame_seq": 47, "latency_ms": -1, "rssi_dbm": -101}}
{"ts_recv_utc": "2025-06-24T09:28:11.976Z", "data": {"ts": 1750757248.0, "accel": {"ax": -0.25078867984458725, "ay": -0.44743837745095283, "az": 0.8455068352571894}, "gyro": {"gx": -8.361213196477957, "gy": 6.0820956930693955, "gz": 7.500825202858055}, "angle": {"roll": -28.247432763913185, "pitch": 14.17195962297441, "yaw": 95.25887359502276}, "gps": {"lat": 0.14279479660188998, "lon": 0.12104833021421137, "altitude": 16.39550353293996}}, "meta": {"recv_frame_seq": 4, "latency_ms": 43973, "rssi_dbm": -101}}
{"ts_recv_utc": "2025-06-24T09:28:31.181Z", "data": {"ts": 1750757248.0, "accel": {"ax": -0.24129821236692842, "ay": -0.4526915282947633, "az": 0.8440844766553246}, "gyro": {"gx": -7.601933931357228, "gy": 5.374819126825536, "gz": 6.726708839547616}, "angle": {"roll": -28.78220603033374, "pitch": 13.930766988296474, "yaw": 92.80990910106688}, "gps": {"lat": 0.14890928936522943, "lon": 0.12588986765458907, "altitude": 15.764198996756516}}, "meta": {"recv_frame_seq": 7, "latency_ms": 63177, "rssi_dbm": -101}}
{"ts_recv_utc": "2025-06-24T09:28:50.336Z", "data": {"ts": 1750757376.0, "accel": {"ax": -0.24143892972346132, "ay": -0.4489811680213113, "az": 0.8473101589610502}, "gyro": {"gx": -7.040400877268412, "gy": 4.907936984790169, "gz": 6.068432306575128}, "angle": {"roll": -28.581695390664592, "pitch": 14.24287379303257, "yaw": 91.63779501398493}, "gps": {"lat": 0.15273916939278692, "lon": 0.13139754964593556, "altitude": 15.412395341885505}}, "meta": {"recv_frame_seq": 10, "latency_ms": -45666, "rssi_dbm": -101}}
{"ts_recv_utc": "2025-06-24T09:29:03.772Z", "data": {"ts": 1750757376.0, "accel": {"ax": -0.23308644876419807, "ay": -0.45413125763611717, "az": 0.8413210419702313}, "gyro": {"gx": -6.625063332005703, "gy": 4.748370285288271, "gz": 6.293074766563825}, "angle": {"roll": -29.103711771763013, "pitch": 13.654461107880186, "yaw": 91.3678784436556}, "gps": {"lat": 0.15447790894623886, "lon": 0.13083852502495122, "altitude": 15.007030412115176}}, "meta": {"recv_frame_seq": 11, "latency_ms": -32230, "rssi_dbm": -101}}
{"ts_recv_utc": "2025-06-24T09:29:22.980Z", "data": {"ts": 1750757376.0, "accel": {"ax": -0.23906615687650304, "ay": -0.4592642088751022, "az": 0.8434306382654209}, "gyro": {"gx": -7.248643532090325, "gy": 5.174934194757586, "gz": 6.586918351614526}, "angle": {"roll": -28.967234992586288, "pitch": 13.944508694045588, "yaw": 92.64695134180833}, "gps": {"lat": 0.15332982859105618, "lon": 0.12585836866726688, "altitude": 15.748693027848178}}, "meta": {"recv_frame_seq": 14, "latency_ms": -13022, "rssi_dbm": -101}}
{"ts_recv_utc": "2025-06-24T09:29:36.392Z", "data": {"ts": 1750757376.0, "accel": {"ax": -0.23797382885939047, "ay": -0.4648180662966537, "az": 0.8417790361106963}, "gyro": {"gx": -7.570207865278555, "gy": 5.3203796902374325, "gz": 6.713210577199723}, "angle": {"roll": -29.290526153398584, "pitch": 13.806646582312428, "yaw": 92.5411173408407}, "gps": {"lat": 0.15266328412709695, "lon": 0.12343803493324824, "altitude": 15.864962243038688}}, "meta": {"recv_frame_seq": 15, "latency_ms": 391, "rssi_dbm": -100}}
{"ts_recv_utc": "2025-06-24T09:29:55.584Z", "data": {"ts": 1750757376.0, "accel": {"ax": -0.2404901971996787, "ay": -0.46488943862141907, "az": 0.8460091834327896}, "gyro": {"gx": -8.932959471597988, "gy": 5.494935354771998, "gz": 5.722151423820565}, "angle": {"roll": -29.148154404527105, "pitch": 14.1882119765414, "yaw": 92.89025760792647}, "gps": {"lat": 0.1519482197170145, "lon": 0.12480238019730554, "altitude": 15.972142293289998}}, "meta": {"recv_frame_seq": 18, "latency_ms": 19581, "rssi_dbm": -101}}
{"ts_recv_utc": "2025-06-24T09:30:14.776Z", "data": {"ts": 1750757376.0, "accel": {"ax": -0.2467931392655507, "ay": -0.46217534855039955, "az": 0.847136915950241}, "gyro": {"gx": -10.922116589937277, "gy": 6.3391014037937605, "gz": 5.722874606527897}, "angle": {"roll": -28.90348392430798, "pitch": 14.339177893713387, "yaw": 95.28139985876356}, "gps": {"lat": 0.1443672008057667, "lon": 0.12071883803949399, "altitude": 16.415685480884}}, "meta": {"recv_frame_seq": 21, "latency_ms": 38773, "rssi_dbm": -101}}
{"ts_recv_utc": "2025-06-24T09:30:33.972Z", "data": {"ts": 1750757376.0, "accel": {"ax": -0.24893557102400227, "ay": -0.449744878975644, "az": 0.847823874241628}, "gyro": {"gx": -12.55782738420181, "gy": 7.005416078842052, "gz": 5.665964086421885}, "angle": {"roll": -28.35781860100301, "pitch": 14.195986255957886, "yaw": 97.71230339775575}, "gps": {"lat": 0.13545556441057346, "lon": 0.11925418085115123, "altitude": 16.613880186255727}}, "meta": {"recv_frame_seq": 24, "latency_ms": 57971, "rssi_dbm": -99}}
{"ts_recv_utc": "2025-06-24T09:30:53.104Z", "data": {"ts": 1750757504.0, "accel": {"ax": -0.24718794757094092, "ay": -0.44692663774016417, "az": 0.8484737573486932}, "gyro": {"gx": -12.789098117790418, "gy": 6.951527412633687, "gz": 5.320067031474321}, "angle": {"roll": -28.29425472440387, "pitch": 14.154177354272871, "yaw": 97.70231414950898}, "gps": {"lat": 0.1349342634476725, "lon": 0.12081678056917092, "altitude": 16.52969901802167}}, "meta": {"recv_frame_seq": 27, "latency_ms": -50898, "rssi_dbm": -101}}
{"ts_recv_utc": "2025-06-24T09:31:12.302Z", "data": {"ts": 1750757504.0, "accel": {"ax": -0.24339591194734142, "ay": -0.44520199075082656, "az": 0.8526691871403732}, "gyro": {"gx": -12.64890621551244, "gy": 6.347732085431914, "gz": 3.9928135526225783}, "angle": {"roll": -28.256633058993266, "pitch": 14.40870738420373, "yaw": 95.93602331199774}, "gps": {"lat": 0.1396986611904291, "lon": 0.1276971620920147, "altitude": 16.142630814005486}}, "meta": {"recv_frame_seq": 30, "latency_ms": -31702, "rssi_dbm": -101}}
{"ts_recv_utc": "2025-06-24T09:31:31.472Z", "data": {"ts": 1750757504.0, "accel": {"ax": -0.23634891777465872, "ay": -0.44618314872657655, "az": 0.852167262351063}, "gyro": {"gx": -11.31442291771794, "gy": 5.402891543459918, "gz": 3.1789249873553826}, "angle": {"roll": -28.703189616722632, "pitch": 14.374383254163803, "yaw": 92.64392000610232}, "gps": {"lat": 0.14669569787387582, "lon": 0.13625494013766606, "altitude": 15.14069576446865}}, "meta": {"recv_frame_seq": 33, "latency_ms": -12530, "rssi_dbm": -101}}
{"ts_recv_utc": "2025-06-24T09:31:44.909Z", "data": {"ts": 1750757504.0, "accel": {"ax": -0.2354277834136453, "ay": -0.44856774966501695, "az": 0.8507714099323426}, "gyro": {"gx": -10.077953307808887, "gy": 5.019765373576024, "gz": 3.4846302854250637}, "angle": {"roll": -28.87930071082649, "pitch": 14.371337765182345, "yaw": 91.67340005157509}, "gps": {"lat": 0.15058222110764016, "lon": 0.13791261203107022, "altitude": 14.912070083636054}}, "meta": {"recv_frame_seq": 34, "latency_ms": 905, "rssi_dbm": -101}}
{"ts_recv_utc": "2025-06-24T09:32:04.108Z", "data": {"ts": 1750757504.0, "accel": {"ax": -0.2407962305053963, "ay": -0.45282053421641805, "az": 0.8437479818841161}, "gyro": {"gx": -7.788634467546009, "gy": 5.19503304361822, "gz": 6.151739699238196}, "angle": {"roll": -29.081798660170836, "pitch": 14.05370827786654, "yaw": 92.0778181259227}, "gps": {"lat": 0.14962992577405312, "lon": 0.13013508734820456, "altitude": 15.2591025777651}}, "meta": {"recv_frame_seq": 37, "latency_ms": 20105, "rssi_dbm": -101}}
{"ts_recv_utc": "2025-06-24T09:32:23.319Z", "data": {"ts": 1750757504.0, "accel": {"ax": -0.2395785625654525, "ay": -0.4444047744203808, "az": 0.8446204000584404}, "gyro": {"gx": -7.13713301544626, "gy": 5.348539856033088, "gz": 7.077537424521834}, "angle": {"roll": -28.348893865030192, "pitch": 13.710131377391471, "yaw": 93.78104654238614}, "gps": {"lat": 0.14680363043503952, "lon": 0.12553852786330788, "altitude": 16.140837184038432}}, "meta": {"recv_frame_seq": 40, "latency_ms": 39317, "rssi_dbm": -101}}
{"ts_recv_utc": "2025-06-24T09:33:04.644Z", "data": {"ts": 1750757632.0, "accel": {"ax": 0.410663346980708, "ay": -0.6633735869768533, "az": 0.882112011038775}, "gyro": {"gx": 67.17012018066555, "gy": -16.692795957776017, "gz": 36.19175410885825}, "angle": {"roll": -29.77817716704904, "pitch": -27.35099941526751, "yaw": -114.57953771107867}, "gps": {"lat": 0.26516700975383684, "lon": 0.007934570312500028, "altitude": 98.01569637907154}}, "meta": {"recv_frame_seq": 45, "latency_ms": -47358, "rssi_dbm": -101}}
{"ts_recv_utc": "2025-06-24T09:33:23.848Z", "data": {"ts": 1750757632.0, "accel": {"ax": 0.40903267450506575, "ay": -0.6616494819440989, "az": 0.8826404241200835}, "gyro": {"gx": 67.13485844735595, "gy": -16.68189954764145, "gz": 36.189391084284985}, "angle": {"roll": -29.723295384728058, "pitch": -27.2844509733113, "yaw": -114.98179157096993}, "gps": {"lat": 0.26455217233145634, "lon": 0.007934570312500028, "altitude": 97.66232532825946}}, "meta": {"recv_frame_seq": 48, "latency_ms": -28154, "rssi_dbm": -101}}
{"ts_recv_utc": "2025-06-24T09:49:58.327Z", "data": {"ts": 1750758594.0, "accel": {"ax": 0.4044796733488033, "ay": -0.6567811984195325, "az": 0.8841113312032242}, "gyro": {"gx": 67.03400519689892, "gy": -16.65221452713247, "gz": 36.17946156016351}, "angle": {"roll": -29.569521824496494, "pitch": -27.097780951108003, "yaw": -116.08916191322496}, "gps": {"lat": 0.26282742089526306, "lon": 0.007934570312500028, "altitude": 96.67245947551775}}, "meta": {"recv_frame_seq": 3, "latency_ms": 4324, "rssi_dbm": -101}}
{"ts_recv_utc": "2025-06-24T09:50:16.837Z", "data": {"ts": 1750758612.0, "accel": {"ax": -0.2612419558442533, "ay": -0.4524060399184808, "az": 0.8616924168400526}, "gyro": {"gx": -8.405896722068658, "gy": 5.607245282111336, "gz": 7.419571377594107}, "angle": {"roll": -29.091136071037816, "pitch": 14.528182149503014, "yaw": 68.76508421948222}, "gps": {"lat": 0.13408687376986908, "lon": 0.11616146786355105, "altitude": 14.231068840903818}}, "meta": {"recv_frame_seq": 6, "latency_ms": 4833, "rssi_dbm": -101}}
{"ts_recv_utc": "2025-06-24T09:50:35.361Z", "data": {"ts": 1750758631.0, "accel": {"ax": 0.4044475055661859, "ay": -0.6567405101267307, "az": 0.8841223115711119}, "gyro": {"gx": 67.03283002262415, "gy": -16.652036164203743, "gz": 36.17875547945317}, "angle": {"roll": -29.567760323456053, "pitch": -27.096330830362184, "yaw": -116.09656666186241}, "gps": {"lat": 0.2628209015818404, "lon": 0.007934570312500028, "altitude": 96.66324895752294}}, "meta": {"recv_frame_seq": 9, "latency_ms": 4359, "rssi_dbm": -99}}
{"ts_recv_utc": "2025-06-24T09:51:15.980Z", "data": {"ts": 1750758671.0, "accel": {"ax": 0.40419983132204584, "ay": -0.6564712270723905, "az": 0.8841998806722803}, "gyro": {"gx": 67.02783118797109, "gy": -16.650548660638076, "gz": 36.17857243266287}, "angle": {"roll": -29.559503946324188, "pitch": -27.086367801625254, "yaw": -116.16172061246833}, "gps": {"lat": 0.2627284064553313, "lon": 0.007934570312500028, "altitude": 96.60779247619773}}, "meta": {"recv_frame_seq": 14, "latency_ms": 4977, "rssi_dbm": -105}}
{"ts_recv_utc": "2025-06-24T09:51:56.612Z", "data": {"ts": 1750758712.0, "accel": {"ax": -0.26126046688675447, "ay": -0.4502596737065478, "az": 0.8615030481583016}, "gyro": {"gx": -8.266599834838576, "gy": 5.583831926141031, "gz": 7.489391434687583}, "angle": {"roll": -29.011520386501047, "pitch": 14.504335190952668, "yaw": 68.78627281511375}, "gps": {"lat": 0.1338390880499097, "lon": 0.1166737829297218, "altitude": 14.138698153037948}}, "meta": {"recv_frame_seq": 19, "latency_ms": 4609, "rssi_dbm": -101}}
{"ts_recv_utc": "2025-06-24T09:52:15.112Z", "data": {"ts": 1750758730.0, "accel": {"ax": 0.4044974053499427, "ay": -0.6568001001755844, "az": 0.8841049568789836}, "gyro": {"gx": 67.03374856634402, "gy": -16.652427455930845, "gz": 36.178658755861775}, "angle": {"roll": -29.569972419520596, "pitch": -27.098250185385456, "yaw": -116.08469042281781}, "gps": {"lat": 0.2628411512407999, "lon": 0.007934570312500028, "altitude": 96.67378665861327}}, "meta": {"recv_frame_seq": 22, "latency_ms": 5109, "rssi_dbm": -101}}
{"ts_recv_utc": "2025-06-24T09:52:33.661Z", "data": {"ts": 1750758749.0, "accel": {"ax": 0.40499300753801143, "ay": -0.6573354614730512, "az": 0.8839470851045397}, "gyro": {"gx": 67.04484741006729, "gy": -16.65558525588504, "gz": 36.180098155738804}, "angle": {"roll": -29.586913976706015, "pitch": -27.11856827292447, "yaw": -115.96857204471277}, "gps": {"lat": 0.263027090740958, "lon": 0.007934570312500028, "altitude": 96.7847467222592}}, "meta": {"recv_frame_seq": 25, "latency_ms": 4659, "rssi_dbm": -100}}
{"ts_recv_utc": "2025-06-24T09:52:47.090Z", "data": {"ts": 1750758762.0, "accel": {"ax": 0.4047482249806473, "ay": -0.6570824550266392, "az": 0.8840181259442104}, "gyro": {"gx": 67.04135001001599, "gy": -16.654062843533655, "gz": 36.18033505197913}, "angle": {"roll": -29.578520078426813, "pitch": -27.108588275833124, "yaw": -116.02413994057022}, "gps": {"lat": 0.26294920285429196, "lon": 0.007934570312500028, "altitude": 96.73194472523751}}, "meta": {"recv_frame_seq": 26, "latency_ms": 5086, "rssi_dbm": -101}}
{"ts_recv_utc": "2025-06-24T09:53:16.666Z", "data": {"ts": 1750758792.0, "accel": {"ax": 0.40441187648707955, "ay": -0.6567042353844545, "az": 0.8841335765611312}, "gyro": {"gx": 67.03144618628632, "gy": -16.65185503686973, "gz": 36.17864751676574}, "angle": {"roll": -29.56748512942346, "pitch": -27.094926297055316, "yaw": -116.11018729919446}, "gps": {"lat": 0.2628005009897039, "lon": 0.007934570312500028, "altitude": 96.65505168747319}}, "meta": {"recv_frame_seq": 30, "latency_ms": 4662, "rssi_dbm": -101}}
{"ts_recv_utc": "2025-06-24T09:53:30.093Z", "data": {"ts": 1750758805.0, "accel": {"ax": 0.40437015416280997, "ay": -0.6566743280790345, "az": 0.8841413985739183}, "gyro": {"gx": 67.03168339860902, "gy": -16.65153441589328, "gz": 36.179349350009815}, "angle": {"roll": -29.566840309163073, "pitch": -27.0932616231155, "yaw": -116.11638827592014}, "gps": {"lat": 0.2627878401967648, "lon": 0.007934570312500028, "altitude": 96.6488240697844}}, "meta": {"recv_frame_seq": 31, "latency_ms": 5089, "rssi_dbm": -101}}
{"ts_recv_utc": "2025-06-24T09:53:59.625Z", "data": {"ts": 1750758835.0, "accel": {"ax": -0.26339241374776956, "ay": -0.4518098031151533, "az": 0.8625246150534287}, "gyro": {"gx": -8.695495365119918, "gy": 5.783460072694964, "gz": 7.514913183371197}, "angle": {"roll": -28.96753611479849, "pitch": 14.602170373464977, "yaw": 69.28442383901046}, "gps": {"lat": 0.13271741740124596, "lon": 0.11482257661848773, "altitude": 14.440378992491533}}, "meta": {"recv_frame_seq": 35, "latency_ms": 4621, "rssi_dbm": -101}}
{"ts_recv_utc": "2025-06-24T09:54:18.120Z", "data": {"ts": 1750758853.0, "accel": {"ax": -0.26280521570922843, "ay": -0.45141225224159837, "az": 0.8624765099460862}, "gyro": {"gx": -8.857005416321599, "gy": 5.779246416320737, "gz": 7.360581364452145}, "angle": {"roll": -28.9858002503531, "pitch": 14.593999005000336, "yaw": 69.28674717103516}, "gps": {"lat": 0.13262905210066242, "lon": 0.11544705579321556, "altitude": 14.346576079621297}}, "meta": {"recv_frame_seq": 38, "latency_ms": 5117, "rssi_dbm": -101}}
{"ts_recv_utc": "2025-06-24T09:54:31.541Z", "data": {"ts": 1750758867.0, "accel": {"ax": 0.40416966847325464, "ay": -0.6564576081957724, "az": 0.8842029637218769}, "gyro": {"gx": 67.02739419742444, "gy": -16.650178709774107, "gz": 36.17902629718327}, "angle": {"roll": -29.559957848420254, "pitch": -27.085135948529544, "yaw": -116.16511335645718}, "gps": {"lat": 0.2627146264986073, "lon": 0.007934570312500028, "altitude": 96.60477044806873}}, "meta": {"recv_frame_seq": 39, "latency_ms": 4539, "rssi_dbm": -99}}
{"ts_recv_utc": "2025-06-24T09:54:50.000Z", "data": {"ts": 1750758885.0, "accel": {"ax": 0.404391447525759, "ay": -0.6566784831414425, "az": 0.8841415000353915}, "gyro": {"gx": 67.03224843129584, "gy": -16.651797930588717, "gz": 36.179296574107305}, "angle": {"roll": -29.566160953133732, "pitch": -27.094258616000765, "yaw": -116.1152292275068}, "gps": {"lat": 0.26279475431361043, "lon": 0.007934570312500028, "altitude": 96.65118205907375}}, "meta": {"recv_frame_seq": 42, "latency_ms": 4998, "rssi_dbm": -101}}
{"ts_recv_utc": "2025-06-24T09:55:19.532Z", "data": {"ts": 1750758915.0, "accel": {"ax": -0.26334337488636106, "ay": -0.45020839529443113, "az": 0.8625183801447227}, "gyro": {"gx": -8.814919909053376, "gy": 5.776568186911263, "gz": 7.388797626699113}, "angle": {"roll": -28.965113633442787, "pitch": 14.611896046876074, "yaw": 69.2310779037587}, "gps": {"lat": 0.13221103546397553, "lon": 0.11585701372578674, "altitude": 14.300996755427093}}, "meta": {"recv_frame_seq": 46, "latency_ms": 4529, "rssi_dbm": -101}}
{"ts_recv_utc": "2025-06-24T09:55:32.952Z", "data": {"ts": 1750758928.0, "accel": {"ax": -0.2631230088448805, "ay": -0.44915503694034387, "az": 0.8622847688328099}, "gyro": {"gx": -8.745746965140265, "gy": 5.765588904889761, "gz": 7.428861942403689}, "angle": {"roll": -28.93186474796241, "pitch": 14.582581577196805, "yaw": 69.2838521972418}, "gps": {"lat": 0.1320702455045459, "lon": 0.11608104661422015, "altitude": 14.254059996183496}}, "meta": {"recv_frame_seq": 47, "latency_ms": 4949, "rssi_dbm": -101}}
{"ts_recv_utc": "2025-06-24T09:55:57.393Z", "data": {"ts": 1750758953.0, "accel": {"ax": -0.2634628291059151, "ay": -0.44916658629478584, "az": 0.8625367594805918}, "gyro": {"gx": -8.61273020405636, "gy": 5.746203957316285, "gz": 7.501550269221563}, "angle": {"roll": -28.907865418230674, "pitch": 14.59859562359451, "yaw": 69.21726758264178}, "gps": {"lat": 0.13221391551612285, "lon": 0.11587328531295979, "altitude": 14.32280921318223}}, "meta": {"recv_frame_seq": 49, "latency_ms": 4389, "rssi_dbm": -101}}
{"ts_recv_utc": "2025-06-24T10:28:27.428Z", "data": {"ts": 1750760903.0, "accel": {"ax": 0.40042234324587156, "ay": -0.6523926922853833, "az": 0.8854090789281333}, "gyro": {"gx": 66.94025890481507, "gy": -16.626782667719336, "gz": 36.16534213432104}, "angle": {"roll": -29.432630211348954, "pitch": -26.92974919609427, "yaw": -117.06144855692473}, "gps": {"lat": 0.261300768523603, "lon": 0.007934570312500028, "altitude": 95.78555243510837}}, "meta": {"recv_frame_seq": 3, "latency_ms": 4424, "rssi_dbm": -101}}
{"ts_recv_utc": "2025-06-24T10:28:45.972Z", "data": {"ts": 1750760921.0, "accel": {"ax": 0.40042234324587156, "ay": -0.6523926922853833, "az": 0.8854090789281333}, "gyro": {"gx": 66.94025890481507, "gy": -16.626782667719336, "gz": 36.16534213432104}, "angle": {"roll": -29.432630211348954, "pitch": -26.92974919609427, "yaw": -117.06144855692473}, "gps": {"lat": 0.261300768523603, "lon": 0.007934570312500028, "altitude": 95.78555243510837}}, "meta": {"recv_frame_seq": 6, "latency_ms": 4968, "rssi_dbm": -101}}
{"ts_recv_utc": "2025-06-24T10:29:04.455Z", "data": {"ts": 1750760940.0, "accel": {"ax": 0.40042234324587156, "ay": -0.6523926922853833, "az": 0.8854090789281333}, "gyro": {"gx": 66.94025890481507, "gy": -16.626782667719336, "gz": 36.16534213432104}, "angle": {"roll": -29.432630211348954, "pitch": -26.92974919609427, "yaw": -117.06144855692473}, "gps": {"lat": 0.261300768523603, "lon": 0.007934570312500028, "altitude": 95.78555243510837}}, "meta": {"recv_frame_seq": 9, "latency_ms": 4452, "rssi_dbm": -101}}
{"ts_recv_utc": "2025-06-24T10:29:45.083Z", "data": {"ts": 1750760980.0, "accel": {"ax": 0.40042234324587156, "ay": -0.6523926922853833, "az": 0.8854090789281333}, "gyro": {"gx": 66.94025890481507, "gy": -16.626782667719336, "gz": 36.16534213432104}, "angle": {"roll": -29.432630211348954, "pitch": -26.92974919609427, "yaw": -117.06144855692473}, "gps": {"lat": 0.261300768523603, "lon": 0.007934570312500028, "altitude": 95.78555243510837}}, "meta": {"recv_frame_seq": 14, "latency_ms": 5080, "rssi_dbm": -101}}
{"ts_recv_utc": "2025-06-24T10:30:03.615Z", "data": {"ts": 1750760999.0, "accel": {"ax": 0.40042234324587156, "ay": -0.6523926922853833, "az": 0.8854090789281333}, "gyro": {"gx": 66.94025890481507, "gy": -16.626782667719336, "gz": 36.16534213432104}, "angle": {"roll": -29.432630211348954, "pitch": -26.92974919609427, "yaw": -117.06144855692473}, "gps": {"lat": 0.261300768523603, "lon": 0.007934570312500028, "altitude": 95.78555243510837}}, "meta": {"recv_frame_seq": 17, "latency_ms": 4612, "rssi_dbm": -101}}
{"ts_recv_utc": "2025-06-24T10:30:22.148Z", "data": {"ts": 1750761017.0, "accel": {"ax": 0.40042234324587156, "ay": -0.6523926922853833, "az": 0.8854090789281333}, "gyro": {"gx": 66.94025890481507, "gy": -16.626782667719336, "gz": 36.16534213432104}, "angle": {"roll": -29.432630211348954, "pitch": -26.92974919609427, "yaw": -117.06144855692473}, "gps": {"lat": 0.261300768523603, "lon": 0.007934570312500028, "altitude": 95.78555243510837}}, "meta": {"recv_frame_seq": 20, "latency_ms": 5144, "rssi_dbm": -101}}
{"ts_recv_utc": "2025-06-24T10:30:40.675Z", "data": {"ts": 1750761036.0, "accel": {"ax": 0.40042234324587156, "ay": -0.6523926922853833, "az": 0.8854090789281333}, "gyro": {"gx": 66.94025890481507, "gy": -16.626782667719336, "gz": 36.16534213432104}, "angle": {"roll": -29.432630211348954, "pitch": -26.92974919609427, "yaw": -117.06144855692473}, "gps": {"lat": 0.261300768523603, "lon": 0.007934570312500028, "altitude": 95.78555243510837}}, "meta": {"recv_frame_seq": 23, "latency_ms": 4672, "rssi_dbm": -101}}
{"ts_recv_utc": "2025-06-24T10:30:59.208Z", "data": {"ts": 1750761054.0, "accel": {"ax": 0.40042234324587156, "ay": -0.6523926922853833, "az": 0.8854090789281333}, "gyro": {"gx": 66.94025890481507, "gy": -16.626782667719336, "gz": 36.16534213432104}, "angle": {"roll": -29.432630211348954, "pitch": -26.92974919609427, "yaw": -117.06144855692473}, "gps": {"lat": 0.261300768523603, "lon": 0.007934570312500028, "altitude": 95.78555243510837}}, "meta": {"recv_frame_seq": 26, "latency_ms": 5204, "rssi_dbm": -101}}
{"ts_recv_utc": "2025-06-24T10:31:17.739Z", "data": {"ts": 1750761073.0, "accel": {"ax": 0.40042234324587156, "ay": -0.6523926922853833, "az": 0.8854090789281333}, "gyro": {"gx": 66.94025890481507, "gy": -16.626782667719336, "gz": 36.16534213432104}, "angle": {"roll": -29.432630211348954, "pitch": -26.92974919609427, "yaw": -117.06144855692473}, "gps": {"lat": 0.261300768523603, "lon": 0.007934570312500028, "altitude": 95.78555243510837}}, "meta": {"recv_frame_seq": 29, "latency_ms": 4736, "rssi_dbm": -101}}
{"ts_recv_utc": "2025-06-24T10:31:36.276Z", "data": {"ts": 1750761092.0, "accel": {"ax": 0.40042234324587156, "ay": -0.6523926922853833, "az": 0.8854090789281333}, "gyro": {"gx": 66.94025890481507, "gy": -16.626782667719336, "gz": 36.16534213432104}, "angle": {"roll": -29.432630211348954, "pitch": -26.92974919609427, "yaw": -117.06144855692473}, "gps": {"lat": 0.261300768523603, "lon": 0.007934570312500028, "altitude": 95.78555243510837}}, "meta": {"recv_frame_seq": 32, "latency_ms": 4272, "rssi_dbm": -101}}
{"ts_recv_utc": "2025-06-24T10:31:54.811Z", "data": {"ts": 1750761110.0, "accel": {"ax": 0.40042234324587156, "ay": -0.6523926922853833, "az": 0.8854090789281333}, "gyro": {"gx": 66.94025890481507, "gy": -16.626782667719336, "gz": 36.16534213432104}, "angle": {"roll": -29.432630211348954, "pitch": -26.92974919609427, "yaw": -117.06144855692473}, "gps": {"lat": 0.261300768523603, "lon": 0.007934570312500028, "altitude": 95.78555243510837}}, "meta": {"recv_frame_seq": 35, "latency_ms": 4808, "rssi_dbm": -101}}
{"ts_recv_utc": "2025-06-24T10:32:13.352Z", "data": {"ts": 1750761129.0, "accel": {"ax": 0.40042234324587156, "ay": -0.6523926922853833, "az": 0.8854090789281333}, "gyro": {"gx": 66.94025890481507, "gy": -16.626782667719336, "gz": 36.16534213432104}, "angle": {"roll": -29.432630211348954, "pitch": -26.92974919609427, "yaw": -117.06144855692473}, "gps": {"lat": 0.261300768523603, "lon": 0.007934570312500028, "altitude": 95.78555243510837}}, "meta": {"recv_frame_seq": 38, "latency_ms": 4348, "rssi_dbm": -100}}
{"ts_recv_utc": "2025-06-24T10:32:31.851Z", "data": {"ts": 1750761147.0, "accel": {"ax": 0.40042234324587156, "ay": -0.6523926922853833, "az": 0.8854090789281333}, "gyro": {"gx": 66.94025890481507, "gy": -16.626782667719336, "gz": 36.16534213432104}, "angle": {"roll": -29.432630211348954, "pitch": -26.92974919609427, "yaw": -117.06144855692473}, "gps": {"lat": 0.261300768523603, "lon": 0.007934570312500028, "altitude": 95.78555243510837}}, "meta": {"recv_frame_seq": 41, "latency_ms": 4848, "rssi_dbm": -101}}
{"ts_recv_utc": "2025-06-24T10:32:50.412Z", "data": {"ts": 1750761166.0, "accel": {"ax": 0.40042234324587156, "ay": -0.6523926922853833, "az": 0.8854090789281333}, "gyro": {"gx": 66.94025890481507, "gy": -16.626782667719336, "gz": 36.16534213432104}, "angle": {"roll": -29.432630211348954, "pitch": -26.92974919609427, "yaw": -117.06144855692473}, "gps": {"lat": 0.261300768523603, "lon": 0.007934570312500028, "altitude": 95.78555243510837}}, "meta": {"recv_frame_seq": 44, "latency_ms": 4409, "rssi_dbm": -101}}
{"ts_recv_utc": "2025-06-24T10:33:08.963Z", "data": {"ts": 1750761184.0, "accel": {"ax": 0.40042234324587156, "ay": -0.6523926922853833, "az": 0.8854090789281333}, "gyro": {"gx": 66.94025890481507, "gy": -16.626782667719336, "gz": 36.16534213432104}, "angle": {"roll": -29.432630211348954, "pitch": -26.92974919609427, "yaw": -117.06144855692473}, "gps": {"lat": 0.261300768523603, "lon": 0.007934570312500028, "altitude": 95.78555243510837}}, "meta": {"recv_frame_seq": 47, "latency_ms": 4960, "rssi_dbm": -100}}
{"ts_recv_utc": "2025-06-24T10:36:53.360Z", "data": {"ts": 1750761409.0, "accel": {"ax": 0.40042234324587156, "ay": -0.6523926922853833, "az": 0.8854090789281333}, "gyro": {"gx": 66.94025890481507, "gy": -16.626782667719336, "gz": 36.16534213432104}, "angle": {"roll": -29.432630211348954, "pitch": -26.92974919609427, "yaw": -117.06144855692473}, "gps": {"lat": 0.261300768523603, "lon": 0.007934570312500028, "altitude": 95.78555243510837}}, "meta": {"recv_frame_seq": 3, "latency_ms": 4356, "rssi_dbm": -101}}
{"ts_recv_utc": "2025-06-24T10:37:11.899Z", "data": {"ts": 1750761427.0, "accel": {"ax": 0.40042234324587156, "ay": -0.6523926922853833, "az": 0.8854090789281333}, "gyro": {"gx": 66.94025890481507, "gy": -16.626782667719336, "gz": 36.16534213432104}, "angle": {"roll": -29.432630211348954, "pitch": -26.92974919609427, "yaw": -117.06144855692473}, "gps": {"lat": 0.261300768523603, "lon": 0.007934570312500028, "altitude": 95.78555243510837}}, "meta": {"recv_frame_seq": 6, "latency_ms": 4896, "rssi_dbm": -100}}
{"ts_recv_utc": "2025-06-24T10:37:30.440Z", "data": {"ts": 1750761446.0, "accel": {"ax": 0.40042234324587156, "ay": -0.6523926922853833, "az": 0.8854090789281333}, "gyro": {"gx": 66.94025890481507, "gy": -16.626782667719336, "gz": 36.16534213432104}, "angle": {"roll": -29.432630211348954, "pitch": -26.92974919609427, "yaw": -117.06144855692473}, "gps": {"lat": 0.261300768523603, "lon": 0.007934570312500028, "altitude": 95.78555243510837}}, "meta": {"recv_frame_seq": 9, "latency_ms": 4436, "rssi_dbm": -100}}
{"ts_recv_utc": "2025-06-24T10:37:48.971Z", "data": {"ts": 1750761464.0, "accel": {"ax": 0.40042234324587156, "ay": -0.6523926922853833, "az": 0.8854090789281333}, "gyro": {"gx": 66.94025890481507, "gy": -16.626782667719336, "gz": 36.16534213432104}, "angle": {"roll": -29.432630211348954, "pitch": -26.92974919609427, "yaw": -117.06144855692473}, "gps": {"lat": 0.261300768523603, "lon": 0.007934570312500028, "altitude": 95.78555243510837}}, "meta": {"recv_frame_seq": 12, "latency_ms": 4968, "rssi_dbm": -101}}
{"ts_recv_utc": "2025-06-24T10:38:07.520Z", "data": {"ts": 1750761483.0, "accel": {"ax": 0.40042234324587156, "ay": -0.6523926922853833, "az": 0.8854090789281333}, "gyro": {"gx": 66.94025890481507, "gy": -16.626782667719336, "gz": 36.16534213432104}, "angle": {"roll": -29.432630211348954, "pitch": -26.92974919609427, "yaw": -117.06144855692473}, "gps": {"lat": 0.261300768523603, "lon": 0.007934570312500028, "altitude": 95.78555243510837}}, "meta": {"recv_frame_seq": 15, "latency_ms": 4512, "rssi_dbm": -100}}
{"ts_recv_utc": "2025-06-24T10:38:26.051Z", "data": {"ts": 1750761501.0, "accel": {"ax": 0.40042234324587156, "ay": -0.6523926922853833, "az": 0.8854090789281333}, "gyro": {"gx": 66.94025890481507, "gy": -16.626782667719336, "gz": 36.16534213432104}, "angle": {"roll": -29.432630211348954, "pitch": -26.92974919609427, "yaw": -117.06144855692473}, "gps": {"lat": 0.261300768523603, "lon": 0.007934570312500028, "altitude": 95.78555243510837}}, "meta": {"recv_frame_seq": 18, "latency_ms": 5048, "rssi_dbm": -101}}
{"ts_recv_utc": "2025-06-24T10:38:44.592Z", "data": {"ts": 1750761520.0, "accel": {"ax": 0.40042234324587156, "ay": -0.6523926922853833, "az": 0.8854090789281333}, "gyro": {"gx": 66.94025890481507, "gy": -16.626782667719336, "gz": 36.16534213432104}, "angle": {"roll": -29.432630211348954, "pitch": -26.92974919609427, "yaw": -117.06144855692473}, "gps": {"lat": 0.261300768523603, "lon": 0.007934570312500028, "altitude": 95.78555243510837}}, "meta": {"recv_frame_seq": 21, "latency_ms": 4589, "rssi_dbm": -100}}
{"ts_recv_utc": "2025-06-24T10:39:03.084Z", "data": {"ts": 1750761538.0, "accel": {"ax": 0.40042234324587156, "ay": -0.6523926922853833, "az": 0.8854090789281333}, "gyro": {"gx": 66.94025890481507, "gy": -16.626782667719336, "gz": 36.16534213432104}, "angle": {"roll": -29.432630211348954, "pitch": -26.92974919609427, "yaw": -117.06144855692473}, "gps": {"lat": 0.261300768523603, "lon": 0.007934570312500028, "altitude": 95.78555243510837}}, "meta": {"recv_frame_seq": 24, "latency_ms": 5080, "rssi_dbm": -100}}
{"ts_recv_utc": "2025-06-24T10:39:21.621Z", "data": {"ts": 1750761557.0, "accel": {"ax": 0.40042234324587156, "ay": -0.6523926922853833, "az": 0.8854090789281333}, "gyro": {"gx": 66.94025890481507, "gy": -16.626782667719336, "gz": 36.16534213432104}, "angle": {"roll": -29.432630211348954, "pitch": -26.92974919609427, "yaw": -117.06144855692473}, "gps": {"lat": 0.261300768523603, "lon": 0.007934570312500028, "altitude": 95.78555243510837}}, "meta": {"recv_frame_seq": 27, "latency_ms": 4616, "rssi_dbm": -101}}
{"ts_recv_utc": "2025-06-24T10:39:40.151Z", "data": {"ts": 1750761575.0, "accel": {"ax": 0.40042234324587156, "ay": -0.6523926922853833, "az": 0.8854090789281333}, "gyro": {"gx": 66.94025890481507, "gy": -16.626782667719336, "gz": 36.16534213432104}, "angle": {"roll": -29.432630211348954, "pitch": -26.92974919609427, "yaw": -117.06144855692473}, "gps": {"lat": 0.261300768523603, "lon": 0.007934570312500028, "altitude": 95.78555243510837}}, "meta": {"recv_frame_seq": 30, "latency_ms": 5148, "rssi_dbm": -101}}
{"ts_recv_utc": "2025-06-24T10:39:58.672Z", "data": {"ts": 1750761594.0, "accel": {"ax": 0.40042234324587156, "ay": -0.6523926922853833, "az": 0.8854090789281333}, "gyro": {"gx": 66.94025890481507, "gy": -16.626782667719336, "gz": 36.16534213432104}, "angle": {"roll": -29.432630211348954, "pitch": -26.92974919609427, "yaw": -117.06144855692473}, "gps": {"lat": 0.261300768523603, "lon": 0.007934570312500028, "altitude": 95.78555243510837}}, "meta": {"recv_frame_seq": 33, "latency_ms": 4668, "rssi_dbm": -101}}
{"ts_recv_utc": "2025-06-24T10:40:17.211Z", "data": {"ts": 1750761612.0, "accel": {"ax": 0.40042234324587156, "ay": -0.6523926922853833, "az": 0.8854090789281333}, "gyro": {"gx": 66.94025890481507, "gy": -16.626782667719336, "gz": 36.16534213432104}, "angle": {"roll": -29.432630211348954, "pitch": -26.92974919609427, "yaw": -117.06144855692473}, "gps": {"lat": 0.261300768523603, "lon": 0.007934570312500028, "altitude": 95.78555243510837}}, "meta": {"recv_frame_seq": 36, "latency_ms": 5208, "rssi_dbm": -101}}
{"ts_recv_utc": "2025-06-24T10:40:35.743Z", "data": {"ts": 1750761631.0, "accel": {"ax": 0.40042234324587156, "ay": -0.6523926922853833, "az": 0.8854090789281333}, "gyro": {"gx": 66.94025890481507, "gy": -16.626782667719336, "gz": 36.16534213432104}, "angle": {"roll": -29.432630211348954, "pitch": -26.92974919609427, "yaw": -117.06144855692473}, "gps": {"lat": 0.261300768523603, "lon": 0.007934570312500028, "altitude": 95.78555243510837}}, "meta": {"recv_frame_seq": 39, "latency_ms": 4740, "rssi_dbm": -101}}
{"ts_recv_utc": "2025-06-24T10:40:54.279Z", "data": {"ts": 1750761650.0, "accel": {"ax": 0.40042234324587156, "ay": -0.6523926922853833, "az": 0.8854090789281333}, "gyro": {"gx": 66.94025890481507, "gy": -16.626782667719336, "gz": 36.16534213432104}, "angle": {"roll": -29.432630211348954, "pitch": -26.92974919609427, "yaw": -117.06144855692473}, "gps": {"lat": 0.261300768523603, "lon": 0.007934570312500028, "altitude": 95.78555243510837}}, "meta": {"recv_frame_seq": 42, "latency_ms": 4276, "rssi_dbm": -101}}
{"ts_recv_utc": "2025-06-24T10:41:12.829Z", "data": {"ts": 1750761668.0, "accel": {"ax": 0.40042234324587156, "ay": -0.6523926922853833, "az": 0.8854090789281333}, "gyro": {"gx": 66.94025890481507, "gy": -16.626782667719336, "gz": 36.16534213432104}, "angle": {"roll": -29.432630211348954, "pitch": -26.92974919609427, "yaw": -117.06144855692473}, "gps": {"lat": 0.261300768523603, "lon": 0.007934570312500028, "altitude": 95.78555243510837}}, "meta": {"recv_frame_seq": 45, "latency_ms": 4820, "rssi_dbm": -101}}
{"ts_recv_utc": "2025-06-24T10:41:31.351Z", "data": {"ts": 1750761687.0, "accel": {"ax": 0.40042234324587156, "ay": -0.6523926922853833, "az": 0.8854090789281333}, "gyro": {"gx": 66.94025890481507, "gy": -16.626782667719336, "gz": 36.16534213432104}, "angle": {"roll": -29.432630211348954, "pitch": -26.92974919609427, "yaw": -117.06144855692473}, "gps": {"lat": 0.261300768523603, "lon": 0.007934570312500028, "altitude": 95.78555243510837}}, "meta": {"recv_frame_seq": 48, "latency_ms": 4348, "rssi_dbm": -101}}
{"ts_recv_utc": "2025-06-24T10:41:49.891Z", "data": {"ts": 1750761705.0, "accel": {"ax": 0.40042234324587156, "ay": -0.6523926922853833, "az": 0.8854090789281333}, "gyro": {"gx": 66.94025890481507, "gy": -16.626782667719336, "gz": 36.16534213432104}, "angle": {"roll": -29.432630211348954, "pitch": -26.92974919609427, "yaw": -117.06144855692473}, "gps": {"lat": 0.261300768523603, "lon": 0.007934570312500028, "altitude": 95.78555243510837}}, "meta": {"recv_frame_seq": 51, "latency_ms": 4888, "rssi_dbm": -101}}
{"ts_recv_utc": "2025-06-24T10:42:08.404Z", "data": {"ts": 1750761724.0, "accel": {"ax": 0.40042234324587156, "ay": -0.6523926922853833, "az": 0.8854090789281333}, "gyro": {"gx": 66.94025890481507, "gy": -16.626782667719336, "gz": 36.16534213432104}, "angle": {"roll": -29.432630211348954, "pitch": -26.92974919609427, "yaw": -117.06144855692473}, "gps": {"lat": 0.261300768523603, "lon": 0.007934570312500028, "altitude": 95.78555243510837}}, "meta": {"recv_frame_seq": 54, "latency_ms": 4400, "rssi_dbm": -101}}
{"ts_recv_utc": "2025-06-24T10:42:26.951Z", "data": {"ts": 1750761742.0, "accel": {"ax": 0.40042234324587156, "ay": -0.6523926922853833, "az": 0.8854090789281333}, "gyro": {"gx": 66.94025890481507, "gy": -16.626782667719336, "gz": 36.16534213432104}, "angle": {"roll": -29.432630211348954, "pitch": -26.92974919609427, "yaw": -117.06144855692473}, "gps": {"lat": 0.261300768523603, "lon": 0.007934570312500028, "altitude": 95.78555243510837}}, "meta": {"recv_frame_seq": 57, "latency_ms": 4948, "rssi_dbm": -100}}
{"ts_recv_utc": "2025-06-24T10:42:45.476Z", "data": {"ts": 1750761761.0, "accel": {"ax": 0.40042234324587156, "ay": -0.6523926922853833, "az": 0.8854090789281333}, "gyro": {"gx": 66.94025890481507, "gy": -16.626782667719336, "gz": 36.16534213432104}, "angle": {"roll": -29.432630211348954, "pitch": -26.92974919609427, "yaw": -117.06144855692473}, "gps": {"lat": 0.261300768523603, "lon": 0.007934570312500028, "altitude": 95.78555243510837}}, "meta": {"recv_frame_seq": 60, "latency_ms": 4472, "rssi_dbm": -101}}
{"ts_recv_utc": "2025-06-24T10:43:03.995Z", "data": {"ts": 1750761779.0, "accel": {"ax": 0.40042234324587156, "ay": -0.6523926922853833, "az": 0.8854090789281333}, "gyro": {"gx": 66.94025890481507, "gy": -16.626782667719336, "gz": 36.16534213432104}, "angle": {"roll": -29.432630211348954, "pitch": -26.92974919609427, "yaw": -117.06144855692473}, "gps": {"lat": 0.261300768523603, "lon": 0.007934570312500028, "altitude": 95.78555243510837}}, "meta": {"recv_frame_seq": 63, "latency_ms": 4992, "rssi_dbm": -101}}
{"ts_recv_utc": "2025-06-24T10:43:22.507Z", "data": {"ts": 1750761798.0, "accel": {"ax": 0.40042234324587156, "ay": -0.6523926922853833, "az": 0.8854090789281333}, "gyro": {"gx": 66.94025890481507, "gy": -16.626782667719336, "gz": 36.16534213432104}, "angle": {"roll": -29.432630211348954, "pitch": -26.92974919609427, "yaw": -117.06144855692473}, "gps": {"lat": 0.261300768523603, "lon": 0.007934570312500028, "altitude": 95.78555243510837}}, "meta": {"recv_frame_seq": 66, "latency_ms": 4504, "rssi_dbm": -101}}
{"ts_recv_utc": "2025-06-24T10:43:41.031Z", "data": {"ts": 1750761816.0, "accel": {"ax": 0.40042234324587156, "ay": -0.6523926922853833, "az": 0.8854090789281333}, "gyro": {"gx": 66.94025890481507, "gy": -16.626782667719336, "gz": 36.16534213432104}, "angle": {"roll": -29.432630211348954, "pitch": -26.92974919609427, "yaw": -117.06144855692473}, "gps": {"lat": 0.261300768523603, "lon": 0.007934570312500028, "altitude": 95.78555243510837}}, "meta": {"recv_frame_seq": 69, "latency_ms": 5028, "rssi_dbm": -101}}
{"ts_recv_utc": "2025-06-24T10:43:59.547Z", "data": {"ts": 1750761835.0, "accel": {"ax": 0.40042234324587156, "ay": -0.6523926922853833, "az": 0.8854090789281333}, "gyro": {"gx": 66.94025890481507, "gy": -16.626782667719336, "gz": 36.16534213432104}, "angle": {"roll": -29.432630211348954, "pitch": -26.92974919609427, "yaw": -117.06144855692473}, "gps": {"lat": 0.261300768523603, "lon": 0.007934570312500028, "altitude": 95.78555243510837}}, "meta": {"recv_frame_seq": 72, "latency_ms": 4544, "rssi_dbm": -101}}
{"ts_recv_utc": "2025-06-24T10:44:18.071Z", "data": {"ts": 1750761853.0, "accel": {"ax": 0.40042234324587156, "ay": -0.6523926922853833, "az": 0.8854090789281333}, "gyro": {"gx": 66.94025890481507, "gy": -16.626782667719336, "gz": 36.16534213432104}, "angle": {"roll": -29.432630211348954, "pitch": -26.92974919609427, "yaw": -117.06144855692473}, "gps": {"lat": 0.261300768523603, "lon": 0.007934570312500028, "altitude": 95.78555243510837}}, "meta": {"recv_frame_seq": 75, "latency_ms": 5068, "rssi_dbm": -101}}
{"ts_recv_utc": "2025-06-24T10:44:36.591Z", "data": {"ts": 1750761872.0, "accel": {"ax": 0.40042234324587156, "ay": -0.6523926922853833, "az": 0.8854090789281333}, "gyro": {"gx": 66.94025890481507, "gy": -16.626782667719336, "gz": 36.16534213432104}, "angle": {"roll": -29.432630211348954, "pitch": -26.92974919609427, "yaw": -117.06144855692473}, "gps": {"lat": 0.261300768523603, "lon": 0.007934570312500028, "altitude": 95.78555243510837}}, "meta": {"recv_frame_seq": 78, "latency_ms": 4588, "rssi_dbm": -101}}
