{"ts_recv_utc": "2025-06-25T04:47:57.575Z", "data": {"ts": 1750826872.0, "accel": {"ax": -0.361, "ay": -0.592, "az": 0.709}, "gyro": {"gx": -0.1, "gy": -0.1, "gz": 0.1}, "angle": {"roll": -39.8, "pitch": 21.3, "yaw": 52.1}, "gps": {"lat": 34.45188903808594, "lon": 127.07405090332031, "altitude": 0.0}}, "meta": {"recv_frame_seq": 3, "latency_ms": 5571, "rssi_dbm": -98}}
{"ts_recv_utc": "2025-06-25T04:48:16.493Z", "data": {"ts": 1750826891.0, "accel": {"ax": -0.36, "ay": -0.595, "az": 0.71}, "gyro": {"gx": 0.1, "gy": 0.1, "gz": -0.1}, "angle": {"roll": -39.8, "pitch": 21.3, "yaw": 52.1}, "gps": {"lat": 37.57299041748047, "lon": 127.23224639892578, "altitude": 0.0}}, "meta": {"recv_frame_seq": 6, "latency_ms": 5490, "rssi_dbm": -99}}
{"ts_recv_utc": "2025-06-25T04:48:35.413Z", "data": {"ts": 1750826910.0, "accel": {"ax": -0.363, "ay": -0.594, "az": 0.708}, "gyro": {"gx": 0.0, "gy": 0.0, "gz": 0.0}, "angle": {"roll": -39.8, "pitch": 21.3, "yaw": 52.1}, "gps": {"lat": 35.60861587524414, "lon": 126.71276092529297, "altitude": 0.0}}, "meta": {"recv_frame_seq": 9, "latency_ms": 5410, "rssi_dbm": -99}}
{"ts_recv_utc": "2025-06-25T04:48:54.334Z", "data": {"ts": 1750826929.0, "accel": {"ax": -0.359, "ay": -0.592, "az": 0.711}, "gyro": {"gx": 0.0, "gy": 0.0, "gz": 0.0}, "angle": {"roll": -39.8, "pitch": 21.3, "yaw": 52.1}, "gps": {"lat": 35.08671951293945, "lon": 127.943359375, "altitude": 0.0}}, "meta": {"recv_frame_seq": 12, "latency_ms": 5330, "rssi_dbm": -99}}
{"ts_recv_utc": "2025-06-25T04:49:13.249Z", "data": {"ts": 1750826948.0, "accel": {"ax": -0.362, "ay": -0.593, "az": 0.712}, "gyro": {"gx": 0.0, "gy": 0.0, "gz": 0.0}, "angle": {"roll": -39.8, "pitch": 21.3, "yaw": 52.1}, "gps": {"lat": 36.3023681640625, "lon": 129.23712158203125, "altitude": 0.0}}, "meta": {"recv_frame_seq": 15, "latency_ms": 5246, "rssi_dbm": -100}}
{"ts_recv_utc": "2025-06-25T04:49:32.162Z", "data": {"ts": 1750826967.0, "accel": {"ax": -0.364, "ay": -0.592, "az": 0.712}, "gyro": {"gx": -0.1, "gy": -0.1, "gz": 0.1}, "angle": {"roll": -39.8, "pitch": 21.3, "yaw": 52.1}, "gps": {"lat": 36.83393478393555, "lon": 129.2822265625, "altitude": 0.0}}, "meta": {"recv_frame_seq": 18, "latency_ms": 5158, "rssi_dbm": -99}}
{"ts_recv_utc": "2025-06-25T04:49:51.090Z", "data": {"ts": 1750826986.0, "accel": {"ax": -0.358, "ay": -0.595, "az": 0.71}, "gyro": {"gx": 0.1, "gy": 0.2, "gz": -0.1}, "angle": {"roll": -39.8, "pitch": 21.3, "yaw": 52.1}, "gps": {"lat": 33.81217956542969, "lon": 128.40786743164062, "altitude": 0.0}}, "meta": {"recv_frame_seq": 21, "latency_ms": 5086, "rssi_dbm": -99}}
{"ts_recv_utc": "2025-06-25T04:50:10.014Z", "data": {"ts": 1750827005.0, "accel": {"ax": -0.362, "ay": -0.59, "az": 0.709}, "gyro": {"gx": -0.1, "gy": -0.1, "gz": 0.1}, "angle": {"roll": -39.8, "pitch": 21.3, "yaw": 52.1}, "gps": {"lat": 33.1299934387207, "lon": 128.94244384765625, "altitude": 0.0}}, "meta": {"recv_frame_seq": 24, "latency_ms": 5011, "rssi_dbm": -99}}
{"ts_recv_utc": "2025-06-25T04:50:28.937Z", "data": {"ts": 1750827024.0, "accel": {"ax": -0.359, "ay": -0.593, "az": 0.708}, "gyro": {"gx": 0.1, "gy": 0.0, "gz": 0.0}, "angle": {"roll": -39.8, "pitch": 21.3, "yaw": 52.1}, "gps": {"lat": 35.5838508605957, "lon": 128.4774627685547, "altitude": 0.0}}, "meta": {"recv_frame_seq": 27, "latency_ms": 4934, "rssi_dbm": -99}}
{"ts_recv_utc": "2025-06-25T04:50:47.862Z", "data": {"ts": 1750827043.0, "accel": {"ax": -0.363, "ay": -0.592, "az": 0.709}, "gyro": {"gx": 0.0, "gy": 0.0, "gz": 0.0}, "angle": {"roll": -39.8, "pitch": 21.3, "yaw": 52.1}, "gps": {"lat": 35.30731201171875, "lon": 127.799072265625, "altitude": 15.699999809265137}}, "meta": {"recv_frame_seq": 30, "latency_ms": 4859, "rssi_dbm": -99}}
{"ts_recv_utc": "2025-06-25T04:51:06.789Z", "data": {"ts": 1750827062.0, "accel": {"ax": -0.361, "ay": -0.591, "az": 0.711}, "gyro": {"gx": 0.0, "gy": 0.0, "gz": -0.1}, "angle": {"roll": -39.8, "pitch": 21.3, "yaw": 52.1}, "gps": {"lat": 36.66545486450195, "lon": 126.55110168457031, "altitude": 0.0}}, "meta": {"recv_frame_seq": 33, "latency_ms": 4786, "rssi_dbm": -99}}
{"ts_recv_utc": "2025-06-25T04:51:25.714Z", "data": {"ts": 1750827080.0, "accel": {"ax": -0.36, "ay": -0.593, "az": 0.707}, "gyro": {"gx": 0.0, "gy": 0.0, "gz": 0.0}, "angle": {"roll": -39.8, "pitch": 21.3, "yaw": 52.1}, "gps": {"lat": 35.58089828491211, "lon": 128.16567993164062, "altitude": 0.0}}, "meta": {"recv_frame_seq": 36, "latency_ms": 5710, "rssi_dbm": -99}}
{"ts_recv_utc": "2025-06-25T04:51:44.639Z", "data": {"ts": 1750827099.0, "accel": {"ax": -0.361, "ay": -0.594, "az": 0.708}, "gyro": {"gx": 0.0, "gy": 0.0, "gz": -0.1}, "angle": {"roll": -39.8, "pitch": 21.3, "yaw": 52.1}, "gps": {"lat": 33.86429214477539, "lon": 128.49986267089844, "altitude": 96.69999694824219}}, "meta": {"recv_frame_seq": 39, "latency_ms": 5634, "rssi_dbm": -99}}
{"ts_recv_utc": "2025-06-25T04:52:03.554Z", "data": {"ts": 1750827118.0, "accel": {"ax": -0.363, "ay": -0.592, "az": 0.708}, "gyro": {"gx": 0.0, "gy": 0.0, "gz": 0.0}, "angle": {"roll": -39.8, "pitch": 21.3, "yaw": 52.1}, "gps": {"lat": 34.34679412841797, "lon": 126.043212890625, "altitude": 19.899999618530273}}, "meta": {"recv_frame_seq": 42, "latency_ms": 5550, "rssi_dbm": -99}}
{"ts_recv_utc": "2025-06-25T04:52:22.475Z", "data": {"ts": 1750827137.0, "accel": {"ax": -0.362, "ay": -0.591, "az": 0.709}, "gyro": {"gx": 0.0, "gy": 0.0, "gz": 0.0}, "angle": {"roll": -39.8, "pitch": 21.3, "yaw": 52.1}, "gps": {"lat": 37.02145767211914, "lon": 128.53842163085938, "altitude": 0.0}}, "meta": {"recv_frame_seq": 45, "latency_ms": 5471, "rssi_dbm": -99}}
{"ts_recv_utc": "2025-06-25T04:52:41.401Z", "data": {"ts": 1750827156.0, "accel": {"ax": -0.364, "ay": -0.593, "az": 0.71}, "gyro": {"gx": 0.0, "gy": 0.0, "gz": 0.0}, "angle": {"roll": -39.8, "pitch": 21.3, "yaw": 52.1}, "gps": {"lat": 37.13679122924805, "lon": 127.64140319824219, "altitude": 74.19999694824219}}, "meta": {"recv_frame_seq": 48, "latency_ms": 5398, "rssi_dbm": -98}}
{"ts_recv_utc": "2025-06-25T04:53:00.337Z", "data": {"ts": 1750827175.0, "accel": {"ax": -0.363, "ay": -0.591, "az": 0.709}, "gyro": {"gx": 0.0, "gy": 0.0, "gz": 0.0}, "angle": {"roll": -39.8, "pitch": 21.3, "yaw": 52.1}, "gps": {"lat": 35.29091262817383, "lon": 128.36599731445312, "altitude": 0.0}}, "meta": {"recv_frame_seq": 51, "latency_ms": 5334, "rssi_dbm": -99}}
{"ts_recv_utc": "2025-06-25T04:53:19.266Z", "data": {"ts": 1750827194.0, "accel": {"ax": -0.363, "ay": -0.591, "az": 0.713}, "gyro": {"gx": 0.1, "gy": 0.1, "gz": -0.1}, "angle": {"roll": -39.8, "pitch": 21.3, "yaw": 52.1}, "gps": {"lat": 33.2458381652832, "lon": 126.29608154296875, "altitude": 0.0}}, "meta": {"recv_frame_seq": 54, "latency_ms": 5262, "rssi_dbm": -99}}
{"ts_recv_utc": "2025-06-25T04:53:38.193Z", "data": {"ts": 1750827213.0, "accel": {"ax": -0.363, "ay": -0.591, "az": 0.706}, "gyro": {"gx": 0.0, "gy": 0.0, "gz": 0.0}, "angle": {"roll": -39.8, "pitch": 21.3, "yaw": 52.1}, "gps": {"lat": 36.30683135986328, "lon": 126.50770568847656, "altitude": 0.0}}, "meta": {"recv_frame_seq": 57, "latency_ms": 5191, "rssi_dbm": -100}}
{"ts_recv_utc": "2025-06-25T04:53:57.122Z", "data": {"ts": 1750827232.0, "accel": {"ax": -0.364, "ay": -0.591, "az": 0.708}, "gyro": {"gx": -0.1, "gy": -0.1, "gz": 0.0}, "angle": {"roll": -39.8, "pitch": 21.3, "yaw": 52.1}, "gps": {"lat": 37.27001953125, "lon": 129.0658416748047, "altitude": 26.5}}, "meta": {"recv_frame_seq": 60, "latency_ms": 5118, "rssi_dbm": -99}}
{"ts_recv_utc": "2025-06-25T04:54:16.055Z", "data": {"ts": 1750827251.0, "accel": {"ax": -0.362, "ay": -0.593, "az": 0.711}, "gyro": {"gx": 0.1, "gy": 0.1, "gz": -0.1}, "angle": {"roll": -39.8, "pitch": 21.3, "yaw": 52.1}, "gps": {"lat": 36.5793342590332, "lon": 127.55862426757812, "altitude": 0.0}}, "meta": {"recv_frame_seq": 63, "latency_ms": 5051, "rssi_dbm": -99}}
{"ts_recv_utc": "2025-06-25T04:54:34.974Z", "data": {"ts": 1750827270.0, "accel": {"ax": -0.363, "ay": -0.592, "az": 0.708}, "gyro": {"gx": -0.1, "gy": -0.1, "gz": 0.0}, "angle": {"roll": -39.8, "pitch": 21.3, "yaw": 52.1}, "gps": {"lat": 33.308345794677734, "lon": 127.72628784179688, "altitude": 49.0}}, "meta": {"recv_frame_seq": 66, "latency_ms": 4970, "rssi_dbm": -98}}
{"ts_recv_utc": "2025-06-25T04:54:53.902Z", "data": {"ts": 1750827289.0, "accel": {"ax": -0.361, "ay": -0.593, "az": 0.709}, "gyro": {"gx": 0.0, "gy": 0.1, "gz": -0.1}, "angle": {"roll": -39.8, "pitch": 21.3, "yaw": 52.1}, "gps": {"lat": 33.92722702026367, "lon": 126.67085266113281, "altitude": 0.0}}, "meta": {"recv_frame_seq": 69, "latency_ms": 4899, "rssi_dbm": -99}}
{"ts_recv_utc": "2025-06-25T04:55:12.830Z", "data": {"ts": 1750827308.0, "accel": {"ax": -0.361, "ay": -0.59, "az": 0.71}, "gyro": {"gx": 0.0, "gy": 0.1, "gz": -0.1}, "angle": {"roll": -39.8, "pitch": 21.3, "yaw": 52.1}, "gps": {"lat": 35.103885650634766, "lon": 126.82191467285156, "altitude": 0.0}}, "meta": {"recv_frame_seq": 72, "latency_ms": 4826, "rssi_dbm": -98}}
{"ts_recv_utc": "2025-06-25T04:55:31.751Z", "data": {"ts": 1750827327.0, "accel": {"ax": -0.362, "ay": -0.592, "az": 0.712}, "gyro": {"gx": -0.1, "gy": -0.1, "gz": 0.0}, "angle": {"roll": -39.8, "pitch": 21.3, "yaw": 52.1}, "gps": {"lat": 33.55464553833008, "lon": 127.15558624267578, "altitude": 0.0}}, "meta": {"recv_frame_seq": 75, "latency_ms": 4746, "rssi_dbm": -99}}
{"ts_recv_utc": "2025-06-25T04:55:50.678Z", "data": {"ts": 1750827345.0, "accel": {"ax": -0.361, "ay": -0.594, "az": 0.71}, "gyro": {"gx": 0.1, "gy": 0.1, "gz": -0.1}, "angle": {"roll": -39.8, "pitch": 21.3, "yaw": 52.1}, "gps": {"lat": 34.246131896972656, "lon": 127.59558868408203, "altitude": 74.19999694824219}}, "meta": {"recv_frame_seq": 78, "latency_ms": 5674, "rssi_dbm": -99}}
{"ts_recv_utc": "2025-06-25T04:56:09.602Z", "data": {"ts": 1750827364.0, "accel": {"ax": -0.362, "ay": -0.592, "az": 0.709}, "gyro": {"gx": -0.1, "gy": -0.1, "gz": 0.0}, "angle": {"roll": -39.8, "pitch": 21.3, "yaw": 52.1}, "gps": {"lat": 36.1395378112793, "lon": 127.21800231933594, "altitude": 0.0}}, "meta": {"recv_frame_seq": 81, "latency_ms": 5598, "rssi_dbm": -99}}
{"ts_recv_utc": "2025-06-25T04:56:28.530Z", "data": {"ts": 1750827383.0, "accel": {"ax": -0.36, "ay": -0.593, "az": 0.709}, "gyro": {"gx": 0.0, "gy": 0.0, "gz": -0.1}, "angle": {"roll": -39.8, "pitch": 21.3, "yaw": 52.1}, "gps": {"lat": 36.36632537841797, "lon": 127.62373352050781, "altitude": 0.0}}, "meta": {"recv_frame_seq": 84, "latency_ms": 5527, "rssi_dbm": -99}}
{"ts_recv_utc": "2025-06-25T04:56:47.453Z", "data": {"ts": 1750827402.0, "accel": {"ax": -0.362, "ay": -0.593, "az": 0.708}, "gyro": {"gx": 0.1, "gy": 0.0, "gz": 0.0}, "angle": {"roll": -39.8, "pitch": 21.3, "yaw": 52.1}, "gps": {"lat": 37.61700439453125, "lon": 129.76292419433594, "altitude": 38.599998474121094}}, "meta": {"recv_frame_seq": 87, "latency_ms": 5450, "rssi_dbm": -98}}
{"ts_recv_utc": "2025-06-25T04:57:06.374Z", "data": {"ts": 1750827421.0, "accel": {"ax": -0.361, "ay": -0.593, "az": 0.708}, "gyro": {"gx": 0.0, "gy": 0.0, "gz": 0.0}, "angle": {"roll": -39.8, "pitch": 21.3, "yaw": 52.1}, "gps": {"lat": 33.173160552978516, "lon": 126.202880859375, "altitude": 0.0}}, "meta": {"recv_frame_seq": 90, "latency_ms": 5370, "rssi_dbm": -100}}
{"ts_recv_utc": "2025-06-25T04:57:25.292Z", "data": {"ts": 1750827440.0, "accel": {"ax": -0.362, "ay": -0.593, "az": 0.709}, "gyro": {"gx": 0.0, "gy": 0.0, "gz": 0.0}, "angle": {"roll": -39.8, "pitch": 21.3, "yaw": 52.1}, "gps": {"lat": 37.39133071899414, "lon": 127.64424133300781, "altitude": 0.0}}, "meta": {"recv_frame_seq": 93, "latency_ms": 5290, "rssi_dbm": -100}}
{"ts_recv_utc": "2025-06-25T04:57:44.278Z", "data": {"ts": 1750827459.0, "accel": {"ax": -0.362, "ay": -0.593, "az": 0.71}, "gyro": {"gx": 0.0, "gy": 0.0, "gz": 0.0}, "angle": {"roll": -39.8, "pitch": 21.3, "yaw": 52.1}, "gps": {"lat": 36.022911071777344, "lon": 129.2904815673828, "altitude": 33.400001525878906}}, "meta": {"recv_frame_seq": 96, "latency_ms": 5275, "rssi_dbm": -99}}
{"ts_recv_utc": "2025-06-25T04:58:03.203Z", "data": {"ts": 1750827478.0, "accel": {"ax": -0.36, "ay": -0.592, "az": 0.708}, "gyro": {"gx": 0.1, "gy": 0.2, "gz": -0.3}, "angle": {"roll": -39.8, "pitch": 21.3, "yaw": 52.1}, "gps": {"lat": 36.63382339477539, "lon": 128.08941650390625, "altitude": 0.0}}, "meta": {"recv_frame_seq": 99, "latency_ms": 5199, "rssi_dbm": -99}}
{"ts_recv_utc": "2025-06-25T04:59:39.118Z", "data": {"type": "dummy_bam_decode_fail", "size": 34, "error": "Quantized Payload size mismatch"}, "meta": {"recv_frame_seq": 3, "latency_ms": -1, "rssi_dbm": -99}}
{"ts_recv_utc": "2025-06-25T04:59:58.046Z", "data": {"type": "dummy_bam_decode_fail", "size": 34, "error": "Quantized Payload size mismatch"}, "meta": {"recv_frame_seq": 6, "latency_ms": -1, "rssi_dbm": -99}}
{"ts_recv_utc": "2025-06-25T05:00:16.978Z", "data": {"type": "dummy_bam_decode_fail", "size": 34, "error": "Quantized Payload size mismatch"}, "meta": {"recv_frame_seq": 9, "latency_ms": -1, "rssi_dbm": -99}}
{"ts_recv_utc": "2025-06-25T05:00:35.906Z", "data": {"type": "dummy_bam_decode_fail", "size": 34, "error": "Quantized Payload size mismatch"}, "meta": {"recv_frame_seq": 12, "latency_ms": -1, "rssi_dbm": -99}}
{"ts_recv_utc": "2025-06-25T05:00:54.832Z", "data": {"type": "dummy_bam_decode_fail", "size": 34, "error": "Quantized Payload size mismatch"}, "meta": {"recv_frame_seq": 15, "latency_ms": -1, "rssi_dbm": -99}}
{"ts_recv_utc": "2025-06-25T05:01:13.765Z", "data": {"type": "dummy_bam_decode_fail", "size": 34, "error": "Quantized Payload size mismatch"}, "meta": {"recv_frame_seq": 18, "latency_ms": -1, "rssi_dbm": -99}}
{"ts_recv_utc": "2025-06-25T05:01:32.694Z", "data": {"type": "dummy_bam_decode_fail", "size": 34, "error": "Quantized Payload size mismatch"}, "meta": {"recv_frame_seq": 21, "latency_ms": -1, "rssi_dbm": -99}}
{"ts_recv_utc": "2025-06-25T05:01:51.624Z", "data": {"type": "dummy_bam_decode_fail", "size": 34, "error": "Quantized Payload size mismatch"}, "meta": {"recv_frame_seq": 24, "latency_ms": -1, "rssi_dbm": -99}}
{"ts_recv_utc": "2025-06-25T05:02:10.558Z", "data": {"type": "dummy_bam_decode_fail", "size": 34, "error": "Quantized Payload size mismatch"}, "meta": {"recv_frame_seq": 27, "latency_ms": -1, "rssi_dbm": -99}}
{"ts_recv_utc": "2025-06-25T05:02:29.495Z", "data": {"type": "dummy_bam_decode_fail", "size": 34, "error": "Quantized Payload size mismatch"}, "meta": {"recv_frame_seq": 30, "latency_ms": -1, "rssi_dbm": -92}}
{"ts_recv_utc": "2025-06-25T05:02:48.437Z", "data": {"type": "dummy_bam_decode_fail", "size": 34, "error": "Quantized Payload size mismatch"}, "meta": {"recv_frame_seq": 33, "latency_ms": -1, "rssi_dbm": -95}}
{"ts_recv_utc": "2025-06-25T05:03:07.371Z", "data": {"type": "dummy_bam_decode_fail", "size": 34, "error": "Quantized Payload size mismatch"}, "meta": {"recv_frame_seq": 36, "latency_ms": -1, "rssi_dbm": -94}}
{"ts_recv_utc": "2025-06-25T05:03:26.304Z", "data": {"type": "dummy_bam_decode_fail", "size": 34, "error": "Quantized Payload size mismatch"}, "meta": {"recv_frame_seq": 39, "latency_ms": -1, "rssi_dbm": -98}}
{"ts_recv_utc": "2025-06-25T05:03:45.248Z", "data": {"type": "dummy_bam_decode_fail", "size": 34, "error": "Quantized Payload size mismatch"}, "meta": {"recv_frame_seq": 42, "latency_ms": -1, "rssi_dbm": -98}}
{"ts_recv_utc": "2025-06-25T05:04:04.178Z", "data": {"type": "dummy_bam_decode_fail", "size": 34, "error": "Quantized Payload size mismatch"}, "meta": {"recv_frame_seq": 45, "latency_ms": -1, "rssi_dbm": -99}}
