log_timestamp_utc,event_type,frame_seq_recv,packet_type_recv_hex,data_len_byte_value,payload_len_on_wire,rssi_dbm,ack_seq_sent,ack_type_sent_hex,decoded_ts_valid_check,decoded_latency_ms_calc,notes,decoded_ts,decoded_accel_ax,decoded_accel_ay,decoded_accel_az,decoded_gyro_gx,decoded_gyro_gy,decoded_gyro_gz,decoded_angle_roll,decoded_angle_pitch,decoded_angle_yaw,decoded_gps_lat,decoded_gps_lon,decoded_gps_altitude
2025-06-10T06:13:20.849+00:00Z,SERIAL_PORT_OPEN_SUCCESS,,,,,,,,,,"Port: /dev/ttyAMA0, Baud: 9600",,,,,,,,,,,,,
2025-06-10T06:13:27.857+00:00Z,HANDSHAKE_SYN_TIMEOUT,,,,,,,,,,,,,,,,,,,,,,,
2025-06-10T06:13:34.866+00:00Z,HANDSHAKE_SYN_TIMEOUT,,,,,,,,,,,,,,,,,,,,,,,
2025-06-10T06:13:41.868+00:00Z,HANDSHAKE_SYN_TIMEOUT,,,,,,,,,,,,,,,,,,,,,,,
2025-06-10T06:13:43.469+00:00Z,HANDSHAKE_SYN_RECV,,SYN,,,,,,,,,,,,,,,,,,,,,
2025-06-10T06:13:43.481+00:00Z,HANDSHAKE_ACK_SENT_OK,,,,,,0,0x00,,,,,,,,,,,,,,,,
2025-06-10T06:13:43.482+00:00Z,HANDSHAKE_SUCCESS,,,,,,,,,,,,,,,,,,,,,,,
2025-06-10T06:15:50.858+00:00Z,CTRL_PKT_RECV,0,0x50,,,,,,,,,,,,,,,,,,,,,
2025-06-10T06:15:50.869+00:00Z,SEND_PERMIT_ACK_SENT_OK,,,,,,0,0x55,,,,,,,,,,,,,,,,
2025-06-10T06:15:54.563+00:00Z,DATA_LEN_BYTE_RECV,,LEN_0x29,41,,,,,,,,,,,,,,,,,,,,
2025-06-10T06:15:54.595+00:00Z,DATA_FRAME_RECV_FULL,0,DATA_FRAME,41,40,-104,,,,,,,,,,,,,,,,,,
2025-06-10T06:15:54.605+00:00Z,DATA_ACK_SENT_OK,,,,,,0,0xaa,,,,,,,,,,,,,,,,
2025-06-10T06:15:54.606+00:00Z,DECODE_SUCCESS,0,,,40,,,,True,5605,Msg #1,1749536149.0,0.369,-0.555,0.782,0.0,-0.1,-0.1,-35.3,-21.1,0.0,35.14735794067383,129.0233917236328,112.8
2025-06-10T06:15:57.961+00:00Z,CTRL_PKT_RECV,1,0x50,,,,,,,,,,,,,,,,,,,,,
2025-06-10T06:15:57.973+00:00Z,SEND_PERMIT_ACK_SENT_OK,,,,,,1,0x55,,,,,,,,,,,,,,,,
2025-06-10T06:16:01.666+00:00Z,DATA_LEN_BYTE_RECV,,LEN_0x29,41,,,,,,,,,,,,,,,,,,,,
2025-06-10T06:16:01.698+00:00Z,DATA_FRAME_RECV_FULL,1,DATA_FRAME,41,40,-103,,,,,,,,,,,,,,,,,,
2025-06-10T06:16:01.709+00:00Z,DATA_ACK_SENT_OK,,,,,,1,0xaa,,,,,,,,,,,,,,,,
2025-06-10T06:16:01.710+00:00Z,DECODE_SUCCESS,1,,,40,,,,True,5710,Msg #2,1749536156.0,0.369,-0.555,0.781,0.0,0.0,-0.1,-35.3,-21.1,0.0,35.14737319946289,129.02333068847656,111.8
2025-06-10T06:16:05.074+00:00Z,CTRL_PKT_RECV,2,0x50,,,,,,,,,,,,,,,,,,,,,
2025-06-10T06:16:05.085+00:00Z,SEND_PERMIT_ACK_SENT_OK,,,,,,2,0x55,,,,,,,,,,,,,,,,
2025-06-10T06:16:08.775+00:00Z,DATA_LEN_BYTE_RECV,,LEN_0x26,38,,,,,,,,,,,,,,,,,,,,
2025-06-10T06:16:08.805+00:00Z,DATA_FRAME_RECV_FULL,2,DATA_FRAME,38,37,-103,,,,,,,,,,,,,,,,,,
2025-06-10T06:16:08.817+00:00Z,DATA_ACK_SENT_OK,,,,,,2,0xaa,,,,,,,,,,,,,,,,
2025-06-10T06:16:08.818+00:00Z,DECODE_SUCCESS,2,,,37,,,,True,5818,Msg #3,1749536163.0,0.369,-0.556,0.779,0.0,0.0,0.0,-35.3,-21.1,0.0,35.14738082885742,129.0233154296875,108.3
2025-06-10T06:16:12.162+00:00Z,CTRL_PKT_RECV,3,0x50,,,,,,,,,,,,,,,,,,,,,
2025-06-10T06:16:12.173+00:00Z,SEND_PERMIT_ACK_SENT_OK,,,,,,3,0x55,,,,,,,,,,,,,,,,
2025-06-10T06:16:15.865+00:00Z,DATA_LEN_BYTE_RECV,,LEN_0x27,39,,,,,,,,,,,,,,,,,,,,
2025-06-10T06:16:15.895+00:00Z,DATA_FRAME_RECV_FULL,3,DATA_FRAME,39,38,-102,,,,,,,,,,,,,,,,,,
2025-06-10T06:16:15.905+00:00Z,DATA_ACK_SENT_OK,,,,,,3,0xaa,,,,,,,,,,,,,,,,
2025-06-10T06:16:15.906+00:00Z,DECODE_SUCCESS,3,,,38,,,,True,5906,Msg #4,1749536170.0,0.371,-0.554,0.778,-0.1,0.0,0.0,-35.4,-21.1,0.0,35.14738845825195,129.02330017089844,106.3
2025-06-10T06:16:19.270+00:00Z,CTRL_PKT_RECV,4,0x50,,,,,,,,,,,,,,,,,,,,,
2025-06-10T06:16:19.280+00:00Z,SEND_PERMIT_ACK_SENT_OK,,,,,,4,0x55,,,,,,,,,,,,,,,,
2025-06-10T06:16:22.973+00:00Z,DATA_LEN_BYTE_RECV,,LEN_0x27,39,,,,,,,,,,,,,,,,,,,,
2025-06-10T06:16:23.003+00:00Z,DATA_FRAME_RECV_FULL,4,DATA_FRAME,39,38,-103,,,,,,,,,,,,,,,,,,
2025-06-10T06:16:23.012+00:00Z,DATA_ACK_SENT_OK,,,,,,4,0xaa,,,,,,,,,,,,,,,,
2025-06-10T06:16:23.013+00:00Z,DECODE_SUCCESS,4,,,38,,,,True,5013,Msg #5,1749536178.0,0.37,-0.555,0.78,-0.1,0.0,0.0,-35.4,-21.1,0.0,35.14738845825195,129.02328491210938,104.8
2025-06-10T06:16:26.377+00:00Z,CTRL_PKT_RECV,5,0x50,,,,,,,,,,,,,,,,,,,,,
2025-06-10T06:16:26.389+00:00Z,SEND_PERMIT_ACK_SENT_OK,,,,,,5,0x55,,,,,,,,,,,,,,,,
2025-06-10T06:16:30.082+00:00Z,DATA_LEN_BYTE_RECV,,LEN_0x29,41,,,,,,,,,,,,,,,,,,,,
2025-06-10T06:16:30.114+00:00Z,DATA_FRAME_RECV_FULL,5,DATA_FRAME,41,40,-103,,,,,,,,,,,,,,,,,,
2025-06-10T06:16:30.125+00:00Z,DATA_ACK_SENT_OK,,,,,,5,0xaa,,,,,,,,,,,,,,,,
2025-06-10T06:16:30.126+00:00Z,DECODE_SUCCESS,5,,,40,,,,True,5125,Msg #6,1749536185.0,0.37,-0.553,0.781,0.0,-0.1,0.0,-35.4,-21.1,0.0,35.147430419921875,129.0231475830078,105.9
2025-06-10T06:16:33.490+00:00Z,CTRL_PKT_RECV,6,0x50,,,,,,,,,,,,,,,,,,,,,
2025-06-10T06:16:33.501+00:00Z,SEND_PERMIT_ACK_SENT_OK,,,,,,6,0x55,,,,,,,,,,,,,,,,
2025-06-10T06:16:37.195+00:00Z,DATA_LEN_BYTE_RECV,,LEN_0x29,41,,,,,,,,,,,,,,,,,,,,
2025-06-10T06:16:37.227+00:00Z,DATA_FRAME_RECV_FULL,6,DATA_FRAME,41,40,-102,,,,,,,,,,,,,,,,,,
2025-06-10T06:16:37.236+00:00Z,DATA_ACK_SENT_OK,,,,,,6,0xaa,,,,,,,,,,,,,,,,
2025-06-10T06:16:37.237+00:00Z,DECODE_SUCCESS,6,,,40,,,,True,5237,Msg #7,1749536192.0,0.37,-0.555,0.78,0.0,-0.1,0.0,-35.4,-21.1,0.0,35.14743423461914,129.02313232421875,106.0
2025-06-10T06:16:40.606+00:00Z,CTRL_PKT_RECV,7,0x50,,,,,,,,,,,,,,,,,,,,,
2025-06-10T06:16:40.617+00:00Z,SEND_PERMIT_ACK_SENT_OK,,,,,,7,0x55,,,,,,,,,,,,,,,,
2025-06-10T06:16:44.307+00:00Z,DATA_LEN_BYTE_RECV,,LEN_0x26,38,,,,,,,,,,,,,,,,,,,,
2025-06-10T06:16:44.337+00:00Z,DATA_FRAME_RECV_FULL,7,DATA_FRAME,38,37,-103,,,,,,,,,,,,,,,,,,
2025-06-10T06:16:44.349+00:00Z,DATA_ACK_SENT_OK,,,,,,7,0xaa,,,,,,,,,,,,,,,,
2025-06-10T06:16:44.349+00:00Z,DECODE_SUCCESS,7,,,37,,,,True,5349,Msg #8,1749536199.0,0.368,-0.556,0.78,0.0,0.0,0.0,-35.4,-21.1,0.0,35.147438049316406,129.0231170654297,106.2
2025-06-10T06:16:47.714+00:00Z,CTRL_PKT_RECV,8,0x50,,,,,,,,,,,,,,,,,,,,,
2025-06-10T06:16:47.725+00:00Z,SEND_PERMIT_ACK_SENT_OK,,,,,,8,0x55,,,,,,,,,,,,,,,,
2025-06-10T06:16:51.416+00:00Z,DATA_LEN_BYTE_RECV,,LEN_0x26,38,,,,,,,,,,,,,,,,,,,,
2025-06-10T06:16:51.445+00:00Z,DATA_FRAME_RECV_FULL,8,DATA_FRAME,38,37,-103,,,,,,,,,,,,,,,,,,
2025-06-10T06:16:51.457+00:00Z,DATA_ACK_SENT_OK,,,,,,8,0xaa,,,,,,,,,,,,,,,,
2025-06-10T06:16:51.458+00:00Z,DECODE_SUCCESS,8,,,37,,,,True,5457,Msg #9,1749536206.0,0.369,-0.556,0.781,0.0,0.0,0.0,-35.4,-21.1,0.0,35.14744186401367,129.0231170654297,106.5
2025-06-10T06:16:54.826+00:00Z,CTRL_PKT_RECV,9,0x50,,,,,,,,,,,,,,,,,,,,,
2025-06-10T06:16:54.837+00:00Z,SEND_PERMIT_ACK_SENT_OK,,,,,,9,0x55,,,,,,,,,,,,,,,,
2025-06-10T06:16:58.530+00:00Z,DATA_LEN_BYTE_RECV,,LEN_0x28,40,,,,,,,,,,,,,,,,,,,,
2025-06-10T06:16:58.561+00:00Z,DATA_FRAME_RECV_FULL,9,DATA_FRAME,40,39,-103,,,,,,,,,,,,,,,,,,
2025-06-10T06:16:58.573+00:00Z,DATA_ACK_SENT_OK,,,,,,9,0xaa,,,,,,,,,,,,,,,,
2025-06-10T06:16:58.574+00:00Z,DECODE_SUCCESS,9,,,39,,,,True,5574,Msg #10,1749536213.0,0.37,-0.553,0.779,0.0,0.0,0.1,-35.4,-21.1,0.0,35.14744567871094,129.02310180664062,106.5
2025-06-10T06:17:01.938+00:00Z,CTRL_PKT_RECV,10,0x50,,,,,,,,,,,,,,,,,,,,,
2025-06-10T06:17:01.949+00:00Z,SEND_PERMIT_ACK_SENT_OK,,,,,,10,0x55,,,,,,,,,,,,,,,,
2025-06-10T06:17:05.642+00:00Z,DATA_LEN_BYTE_RECV,,LEN_0x29,41,,,,,,,,,,,,,,,,,,,,
2025-06-10T06:17:05.675+00:00Z,DATA_FRAME_RECV_FULL,10,DATA_FRAME,41,40,-103,,,,,,,,,,,,,,,,,,
2025-06-10T06:17:05.685+00:00Z,DATA_ACK_SENT_OK,,,,,,10,0xaa,,,,,,,,,,,,,,,,
2025-06-10T06:17:05.685+00:00Z,DECODE_SUCCESS,10,,,40,,,,True,5685,Msg #11,1749536220.0,0.37,-0.552,0.78,0.0,-0.1,0.0,-35.4,-21.1,0.0,35.14744567871094,129.02310180664062,106.1
2025-06-10T06:17:10.301+00:00Z,KEYBOARD_INTERRUPT,,,,,,,,,,,,,,,,,,,,,,,
2025-06-10T06:17:10.304+00:00Z,SERIAL_PORT_CLOSED,,,,,,,,,,,,,,,,,,,,,,,
2025-06-10T06:18:46.488+00:00Z,SERIAL_PORT_OPEN_SUCCESS,,,,,,,,,,"Port: /dev/ttyAMA0, Baud: 9600",,,,,,,,,,,,,
2025-06-10T06:18:48.481+00:00Z,HANDSHAKE_SYN_RECV,,SYN,,,,,,,,,,,,,,,,,,,,,
2025-06-10T06:18:48.492+00:00Z,HANDSHAKE_ACK_SENT_OK,,,,,,0,0x00,,,,,,,,,,,,,,,,
2025-06-10T06:18:48.493+00:00Z,HANDSHAKE_SUCCESS,,,,,,,,,,,,,,,,,,,,,,,
2025-06-10T06:18:54.502+00:00Z,DATA_LEN_BYTE_RECV,,LEN_0x0d,13,,,,,,,,,,,,,,,,,,,,
2025-06-10T06:18:54.554+00:00Z,DATA_FRAME_CONTENT_FAIL,,,13,,,,,,,"Expected 13B, got 2B. Raw: 0a a0",,,,,,,,,,,,,
2025-06-10T06:19:00.517+00:00Z,DATA_LEN_BYTE_RECV,,LEN_0x0d,13,,,,,,,,,,,,,,,,,,,,
2025-06-10T06:19:00.571+00:00Z,DATA_FRAME_CONTENT_FAIL,,,13,,,,,,,"Expected 13B, got 2B. Raw: 0a a0",,,,,,,,,,,,,
2025-06-10T06:19:06.539+00:00Z,DATA_LEN_BYTE_RECV,,LEN_0x0d,13,,,,,,,,,,,,,,,,,,,,
2025-06-10T06:19:06.590+00:00Z,DATA_FRAME_CONTENT_FAIL,,,13,,,,,,,"Expected 13B, got 2B. Raw: 0a a1",,,,,,,,,,,,,
2025-06-10T06:19:12.552+00:00Z,DATA_LEN_BYTE_RECV,,LEN_0x0d,13,,,,,,,,,,,,,,,,,,,,
2025-06-10T06:19:12.603+00:00Z,DATA_FRAME_CONTENT_FAIL,,,13,,,,,,,"Expected 13B, got 2B. Raw: 0a a0",,,,,,,,,,,,,
2025-06-10T06:19:18.565+00:00Z,DATA_LEN_BYTE_RECV,,LEN_0x0d,13,,,,,,,,,,,,,,,,,,,,
2025-06-10T06:19:18.616+00:00Z,DATA_FRAME_CONTENT_FAIL,,,13,,,,,,,"Expected 13B, got 2B. Raw: 0a a0",,,,,,,,,,,,,
2025-06-10T06:19:20.968+00:00Z,KEYBOARD_INTERRUPT,,,,,,,,,,,,,,,,,,,,,,,
2025-06-10T06:19:20.971+00:00Z,SERIAL_PORT_CLOSED,,,,,,,,,,,,,,,,,,,,,,,
2025-06-10T06:19:58.815+00:00Z,SERIAL_PORT_OPEN_SUCCESS,,,,,,,,,,"Port: /dev/ttyAMA0, Baud: 9600",,,,,,,,,,,,,
2025-06-10T06:20:00.497+00:00Z,HANDSHAKE_SYN_RECV,,SYN,,,,,,,,,,,,,,,,,,,,,
2025-06-10T06:20:00.508+00:00Z,HANDSHAKE_ACK_SENT_OK,,,,,,0,0x00,,,,,,,,,,,,,,,,
2025-06-10T06:20:00.509+00:00Z,HANDSHAKE_SUCCESS,,,,,,,,,,,,,,,,,,,,,,,
2025-06-10T06:20:06.513+00:00Z,DATA_LEN_BYTE_RECV,,LEN_0x0d,13,,,,,,,,,,,,,,,,,,,,
2025-06-10T06:20:06.564+00:00Z,DATA_FRAME_CONTENT_FAIL,,,13,,,,,,,"Expected 13B, got 2B. Raw: 0a 9c",,,,,,,,,,,,,
2025-06-10T06:20:12.529+00:00Z,DATA_LEN_BYTE_RECV,,LEN_0x0d,13,,,,,,,,,,,,,,,,,,,,
2025-06-10T06:20:12.580+00:00Z,DATA_FRAME_CONTENT_FAIL,,,13,,,,,,,"Expected 13B, got 2B. Raw: 0a 9c",,,,,,,,,,,,,
2025-06-10T06:20:18.546+00:00Z,DATA_LEN_BYTE_RECV,,LEN_0x0d,13,,,,,,,,,,,,,,,,,,,,
2025-06-10T06:20:18.597+00:00Z,DATA_FRAME_CONTENT_FAIL,,,13,,,,,,,"Expected 13B, got 2B. Raw: 0a 9c",,,,,,,,,,,,,
2025-06-10T06:20:24.561+00:00Z,DATA_LEN_BYTE_RECV,,LEN_0x0d,13,,,,,,,,,,,,,,,,,,,,
2025-06-10T06:20:24.612+00:00Z,DATA_FRAME_CONTENT_FAIL,,,13,,,,,,,"Expected 13B, got 2B. Raw: 0a 9c",,,,,,,,,,,,,
2025-06-10T06:20:30.574+00:00Z,DATA_LEN_BYTE_RECV,,LEN_0x0d,13,,,,,,,,,,,,,,,,,,,,
2025-06-10T06:20:30.625+00:00Z,DATA_FRAME_CONTENT_FAIL,,,13,,,,,,,"Expected 13B, got 2B. Raw: 0a 9d",,,,,,,,,,,,,
2025-06-10T06:20:36.590+00:00Z,DATA_LEN_BYTE_RECV,,LEN_0x0d,13,,,,,,,,,,,,,,,,,,,,
2025-06-10T06:20:36.641+00:00Z,DATA_FRAME_CONTENT_FAIL,,,13,,,,,,,"Expected 13B, got 2B. Raw: 0a 9c",,,,,,,,,,,,,
2025-06-10T06:20:42.606+00:00Z,DATA_LEN_BYTE_RECV,,LEN_0x0d,13,,,,,,,,,,,,,,,,,,,,
2025-06-10T06:20:42.657+00:00Z,DATA_FRAME_CONTENT_FAIL,,,13,,,,,,,"Expected 13B, got 2B. Raw: 0a 9c",,,,,,,,,,,,,
2025-06-10T06:20:48.622+00:00Z,DATA_LEN_BYTE_RECV,,LEN_0x0d,13,,,,,,,,,,,,,,,,,,,,
2025-06-10T06:20:48.673+00:00Z,DATA_FRAME_CONTENT_FAIL,,,13,,,,,,,"Expected 13B, got 2B. Raw: 0a 9c",,,,,,,,,,,,,
2025-06-10T06:20:54.638+00:00Z,DATA_LEN_BYTE_RECV,,LEN_0x0d,13,,,,,,,,,,,,,,,,,,,,
2025-06-10T06:20:54.689+00:00Z,DATA_FRAME_CONTENT_FAIL,,,13,,,,,,,"Expected 13B, got 2B. Raw: 0a 9c",,,,,,,,,,,,,
2025-06-10T06:21:00.650+00:00Z,DATA_LEN_BYTE_RECV,,LEN_0x0d,13,,,,,,,,,,,,,,,,,,,,
2025-06-10T06:21:00.701+00:00Z,DATA_FRAME_CONTENT_FAIL,,,13,,,,,,,"Expected 13B, got 2B. Raw: 0a 9c",,,,,,,,,,,,,
2025-06-10T06:21:06.663+00:00Z,DATA_LEN_BYTE_RECV,,LEN_0x0d,13,,,,,,,,,,,,,,,,,,,,
2025-06-10T06:21:06.714+00:00Z,DATA_FRAME_CONTENT_FAIL,,,13,,,,,,,"Expected 13B, got 2B. Raw: 0a 9c",,,,,,,,,,,,,
2025-06-10T06:21:12.679+00:00Z,DATA_LEN_BYTE_RECV,,LEN_0x0d,13,,,,,,,,,,,,,,,,,,,,
2025-06-10T06:21:12.730+00:00Z,DATA_FRAME_CONTENT_FAIL,,,13,,,,,,,"Expected 13B, got 2B. Raw: 0a 9c",,,,,,,,,,,,,
2025-06-10T06:21:18.693+00:00Z,DATA_LEN_BYTE_RECV,,LEN_0x0d,13,,,,,,,,,,,,,,,,,,,,
2025-06-10T06:21:18.744+00:00Z,DATA_FRAME_CONTENT_FAIL,,,13,,,,,,,"Expected 13B, got 2B. Raw: 0a 9c",,,,,,,,,,,,,
2025-06-10T06:21:24.708+00:00Z,DATA_LEN_BYTE_RECV,,LEN_0x0d,13,,,,,,,,,,,,,,,,,,,,
2025-06-10T06:21:24.759+00:00Z,DATA_FRAME_CONTENT_FAIL,,,13,,,,,,,"Expected 13B, got 2B. Raw: 0a 9c",,,,,,,,,,,,,
2025-06-10T06:21:28.875+00:00Z,KEYBOARD_INTERRUPT,,,,,,,,,,,,,,,,,,,,,,,
2025-06-10T06:21:28.879+00:00Z,SERIAL_PORT_CLOSED,,,,,,,,,,,,,,,,,,,,,,,
2025-06-10T06:22:03.179+00:00Z,SERIAL_PORT_OPEN_SUCCESS,,,,,,,,,,"Port: /dev/ttyAMA0, Baud: 9600",,,,,,,,,,,,,
2025-06-10T06:22:06.527+00:00Z,HANDSHAKE_SYN_RECV,,SYN,,,,,,,,,,,,,,,,,,,,,
2025-06-10T06:22:06.536+00:00Z,HANDSHAKE_ACK_SENT_OK,,,,,,0,0x00,,,,,,,,,,,,,,,,
2025-06-10T06:22:06.537+00:00Z,HANDSHAKE_SUCCESS,,,,,,,,,,,,,,,,,,,,,,,
2025-06-10T06:22:14.815+00:00Z,CTRL_PKT_RECV,0,0x50,,,,,,,,,,,,,,,,,,,,,
2025-06-10T06:22:14.825+00:00Z,SEND_PERMIT_ACK_SENT_OK,,,,,,0,0x55,,,,,,,,,,,,,,,,
2025-06-10T06:22:18.517+00:00Z,DATA_LEN_BYTE_RECV,,LEN_0x26,38,,,,,,,,,,,,,,,,,,,,
2025-06-10T06:22:18.546+00:00Z,DATA_FRAME_RECV_FULL,0,DATA_FRAME,38,37,-102,,,,,,,,,,,,,,,,,,
2025-06-10T06:22:18.557+00:00Z,DATA_ACK_SENT_OK,,,,,,0,0xaa,,,,,,,,,,,,,,,,
2025-06-10T06:22:18.558+00:00Z,DECODE_SUCCESS,0,,,37,,,,True,5558,Msg #1,1749536533.0,0.375,-0.55,0.781,0.0,0.0,0.0,-35.1,-21.4,0.6,35.14763641357422,129.02362060546875,143.2
2025-06-10T06:22:18.733+00:00Z,KEYBOARD_INTERRUPT,,,,,,,,,,,,,,,,,,,,,,,
2025-06-10T06:22:18.735+00:00Z,SERIAL_PORT_CLOSED,,,,,,,,,,,,,,,,,,,,,,,
2025-06-10T06:22:19.902+00:00Z,SERIAL_PORT_OPEN_SUCCESS,,,,,,,,,,"Port: /dev/ttyAMA0, Baud: 9600",,,,,,,,,,,,,
2025-06-10T06:22:26.911+00:00Z,HANDSHAKE_SYN_TIMEOUT,,,,,,,,,,,,,,,,,,,,,,,
2025-06-10T06:22:33.919+00:00Z,HANDSHAKE_SYN_TIMEOUT,,,,,,,,,,,,,,,,,,,,,,,
2025-06-10T06:22:40.921+00:00Z,HANDSHAKE_SYN_TIMEOUT,,,,,,,,,,,,,,,,,,,,,,,
2025-06-10T06:22:45.502+00:00Z,HANDSHAKE_SYN_RECV,,SYN,,,,,,,,,,,,,,,,,,,,,
2025-06-10T06:22:45.513+00:00Z,HANDSHAKE_ACK_SENT_OK,,,,,,0,0x00,,,,,,,,,,,,,,,,
2025-06-10T06:22:45.514+00:00Z,HANDSHAKE_SUCCESS,,,,,,,,,,,,,,,,,,,,,,,
2025-06-10T06:22:53.723+00:00Z,CTRL_PKT_RECV,0,0x50,,,,,,,,,,,,,,,,,,,,,
2025-06-10T06:22:53.737+00:00Z,SEND_PERMIT_ACK_SENT_OK,,,,,,0,0x55,,,,,,,,,,,,,,,,
2025-06-10T06:22:57.593+00:00Z,DATA_LEN_BYTE_RECV,,LEN_0x2a,42,,,,,,,,,,,,,,,,,,,,
2025-06-10T06:22:57.626+00:00Z,DATA_FRAME_RECV_FULL,0,DATA_FRAME,42,41,-101,,,,,,,,,,,,,,,,,,
2025-06-10T06:22:57.637+00:00Z,DATA_ACK_SENT_OK,,,,,,0,0xaa,,,,,,,,,,,,,,,,
2025-06-10T06:22:57.638+00:00Z,DECODE_SUCCESS,0,,,41,,,,True,5638,Msg #1,1749536572.0,0.372,-0.275,0.912,-3.9,0.3,2.0,-25.3,-22.8,-91.9,35.14741134643555,129.02317810058594,100.1
2025-06-10T06:23:00.996+00:00Z,CTRL_PKT_RECV,1,0x50,,,,,,,,,,,,,,,,,,,,,
2025-06-10T06:23:01.009+00:00Z,SEND_PERMIT_ACK_SENT_OK,,,,,,1,0x55,,,,,,,,,,,,,,,,
2025-06-10T06:23:04.867+00:00Z,DATA_LEN_BYTE_RECV,,LEN_0x2c,44,,,,,,,,,,,,,,,,,,,,
2025-06-10T06:23:04.903+00:00Z,DATA_FRAME_RECV_FULL,1,DATA_FRAME,44,43,-101,,,,,,,,,,,,,,,,,,
2025-06-10T06:23:04.913+00:00Z,DATA_ACK_SENT_OK,,,,,,1,0xaa,,,,,,,,,,,,,,,,
2025-06-10T06:23:04.913+00:00Z,DECODE_SUCCESS,1,,,43,,,,True,5913,Msg #2,1749536579.0,0.37,-0.293,0.935,-3.7,0.1,-1.7,-25.3,-22.8,-91.9,35.14742660522461,129.02317810058594,100.8
2025-06-10T06:23:08.290+00:00Z,CTRL_PKT_RECV,2,0x50,,,,,,,,,,,,,,,,,,,,,
2025-06-10T06:23:08.301+00:00Z,SEND_PERMIT_ACK_SENT_OK,,,,,,2,0x55,,,,,,,,,,,,,,,,
2025-06-10T06:23:12.162+00:00Z,DATA_LEN_BYTE_RECV,,LEN_0x2c,44,,,,,,,,,,,,,,,,,,,,
2025-06-10T06:23:12.197+00:00Z,DATA_FRAME_RECV_FULL,2,DATA_FRAME,44,43,-101,,,,,,,,,,,,,,,,,,
2025-06-10T06:23:12.209+00:00Z,DATA_ACK_SENT_OK,,,,,,2,0xaa,,,,,,,,,,,,,,,,
2025-06-10T06:23:12.210+00:00Z,DECODE_SUCCESS,2,,,43,,,,True,5209,Msg #3,1749536587.0,0.38,-0.329,0.922,-3.4,3.4,-8.4,-25.2,-22.8,-92.0,35.14744186401367,129.02317810058594,101.7
2025-06-10T06:23:15.581+00:00Z,CTRL_PKT_RECV,3,0x50,,,,,,,,,,,,,,,,,,,,,
2025-06-10T06:23:15.597+00:00Z,SEND_PERMIT_ACK_SENT_OK,,,,,,3,0x55,,,,,,,,,,,,,,,,
2025-06-10T06:23:19.450+00:00Z,DATA_LEN_BYTE_RECV,,LEN_0x2a,42,,,,,,,,,,,,,,,,,,,,
2025-06-10T06:23:19.484+00:00Z,DATA_FRAME_RECV_FULL,3,DATA_FRAME,42,41,-103,,,,,,,,,,,,,,,,,,
2025-06-10T06:23:19.496+00:00Z,DATA_ACK_SENT_OK,,,,,,3,0xaa,,,,,,,,,,,,,,,,
2025-06-10T06:23:19.497+00:00Z,DECODE_SUCCESS,3,,,41,,,,True,5497,Msg #4,1749536594.0,0.418,-0.352,0.889,-5.0,5.9,-9.7,-25.2,-22.8,-92.2,35.1474494934082,129.023193359375,102.9
2025-06-10T06:23:22.865+00:00Z,CTRL_PKT_RECV,4,0x50,,,,,,,,,,,,,,,,,,,,,
2025-06-10T06:23:22.877+00:00Z,SEND_PERMIT_ACK_SENT_OK,,,,,,4,0x55,,,,,,,,,,,,,,,,
2025-06-10T06:23:26.735+00:00Z,DATA_LEN_BYTE_RECV,,LEN_0x2a,42,,,,,,,,,,,,,,,,,,,,
2025-06-10T06:23:26.768+00:00Z,DATA_FRAME_RECV_FULL,4,DATA_FRAME,42,41,-101,,,,,,,,,,,,,,,,,,
2025-06-10T06:23:26.781+00:00Z,DATA_ACK_SENT_OK,,,,,,4,0xaa,,,,,,,,,,,,,,,,
2025-06-10T06:23:26.782+00:00Z,DECODE_SUCCESS,4,,,41,,,,True,5781,Msg #5,1749536601.0,0.419,-0.411,0.874,-5.7,6.8,-12.9,-25.2,-22.8,-92.3,35.1474494934082,129.023193359375,103.8
2025-06-10T06:23:30.145+00:00Z,CTRL_PKT_RECV,5,0x50,,,,,,,,,,,,,,,,,,,,,
2025-06-10T06:23:30.157+00:00Z,SEND_PERMIT_ACK_SENT_OK,,,,,,5,0x55,,,,,,,,,,,,,,,,
2025-06-10T06:23:34.015+00:00Z,DATA_LEN_BYTE_RECV,,LEN_0x2a,42,,,,,,,,,,,,,,,,,,,,
2025-06-10T06:23:34.048+00:00Z,DATA_FRAME_RECV_FULL,5,DATA_FRAME,42,41,-102,,,,,,,,,,,,,,,,,,
2025-06-10T06:23:34.061+00:00Z,DATA_ACK_SENT_OK,,,,,,5,0xaa,,,,,,,,,,,,,,,,
2025-06-10T06:23:34.061+00:00Z,DECODE_SUCCESS,5,,,41,,,,True,6061,Msg #6,1749536608.0,0.42,-0.439,0.854,-6.9,6.5,-11.0,-25.2,-22.8,-92.5,35.1474494934082,129.023193359375,104.8
2025-06-10T06:23:37.432+00:00Z,CTRL_PKT_RECV,6,0x50,,,,,,,,,,,,,,,,,,,,,
2025-06-10T06:23:37.445+00:00Z,SEND_PERMIT_ACK_SENT_OK,,,,,,6,0x55,,,,,,,,,,,,,,,,
2025-06-10T06:23:41.302+00:00Z,DATA_LEN_BYTE_RECV,,LEN_0x2a,42,,,,,,,,,,,,,,,,,,,,
2025-06-10T06:23:41.335+00:00Z,DATA_FRAME_RECV_FULL,6,DATA_FRAME,42,41,-102,,,,,,,,,,,,,,,,,,
2025-06-10T06:23:41.345+00:00Z,DATA_ACK_SENT_OK,,,,,,6,0xaa,,,,,,,,,,,,,,,,
2025-06-10T06:23:41.346+00:00Z,DECODE_SUCCESS,6,,,41,,,,True,5346,Msg #7,1749536616.0,0.428,-0.431,0.83,-7.6,5.6,-5.5,-25.3,-22.8,-92.5,35.14745330810547,129.02320861816406,106.5
2025-06-10T06:23:44.722+00:00Z,CTRL_PKT_RECV,7,0x50,,,,,,,,,,,,,,,,,,,,,
2025-06-10T06:23:44.733+00:00Z,SEND_PERMIT_ACK_SENT_OK,,,,,,7,0x55,,,,,,,,,,,,,,,,
2025-06-10T06:23:48.591+00:00Z,DATA_LEN_BYTE_RECV,,LEN_0x2a,42,,,,,,,,,,,,,,,,,,,,
2025-06-10T06:23:48.625+00:00Z,DATA_FRAME_RECV_FULL,7,DATA_FRAME,42,41,-102,,,,,,,,,,,,,,,,,,
2025-06-10T06:23:48.637+00:00Z,DATA_ACK_SENT_OK,,,,,,7,0xaa,,,,,,,,,,,,,,,,
2025-06-10T06:23:48.638+00:00Z,DECODE_SUCCESS,7,,,41,,,,True,5637,Msg #8,1749536623.0,0.44,-0.428,0.808,-6.7,3.6,-0.8,-25.4,-22.8,-92.6,35.1474494934082,129.02320861816406,106.9
2025-06-10T06:23:52.006+00:00Z,CTRL_PKT_RECV,8,0x50,,,,,,,,,,,,,,,,,,,,,
2025-06-10T06:23:52.017+00:00Z,SEND_PERMIT_ACK_SENT_OK,,,,,,8,0x55,,,,,,,,,,,,,,,,
2025-06-10T06:23:55.876+00:00Z,DATA_LEN_BYTE_RECV,,LEN_0x2a,42,,,,,,,,,,,,,,,,,,,,
2025-06-10T06:23:55.909+00:00Z,DATA_FRAME_RECV_FULL,8,DATA_FRAME,42,41,-102,,,,,,,,,,,,,,,,,,
2025-06-10T06:23:55.921+00:00Z,DATA_ACK_SENT_OK,,,,,,8,0xaa,,,,,,,,,,,,,,,,
2025-06-10T06:23:55.922+00:00Z,DECODE_SUCCESS,8,,,41,,,,True,5921,Msg #9,1749536630.0,0.445,-0.444,0.794,-3.9,1.1,-0.9,-25.4,-22.8,-92.6,35.1474494934082,129.02320861816406,107.4
2025-06-10T06:23:59.293+00:00Z,CTRL_PKT_RECV,9,0x50,,,,,,,,,,,,,,,,,,,,,
2025-06-10T06:23:59.304+00:00Z,SEND_PERMIT_ACK_SENT_OK,,,,,,9,0x55,,,,,,,,,,,,,,,,
2025-06-10T06:24:03.163+00:00Z,DATA_LEN_BYTE_RECV,,LEN_0x2a,42,,,,,,,,,,,,,,,,,,,,
2025-06-10T06:24:03.196+00:00Z,DATA_FRAME_RECV_FULL,9,DATA_FRAME,42,41,-103,,,,,,,,,,,,,,,,,,
2025-06-10T06:24:03.209+00:00Z,DATA_ACK_SENT_OK,,,,,,9,0xaa,,,,,,,,,,,,,,,,
2025-06-10T06:24:03.209+00:00Z,DECODE_SUCCESS,9,,,41,,,,True,5209,Msg #10,1749536638.0,0.424,-0.462,0.816,-2.5,-2.1,2.8,-25.5,-22.8,-92.5,35.1474494934082,129.02320861816406,107.6
2025-06-10T06:24:06.577+00:00Z,CTRL_PKT_RECV,10,0x50,,,,,,,,,,,,,,,,,,,,,
2025-06-10T06:24:06.593+00:00Z,SEND_PERMIT_ACK_SENT_OK,,,,,,10,0x55,,,,,,,,,,,,,,,,
2025-06-10T06:24:10.446+00:00Z,DATA_LEN_BYTE_RECV,,LEN_0x2a,42,,,,,,,,,,,,,,,,,,,,
2025-06-10T06:24:10.479+00:00Z,DATA_FRAME_RECV_FULL,10,DATA_FRAME,42,41,-102,,,,,,,,,,,,,,,,,,
2025-06-10T06:24:10.489+00:00Z,DATA_ACK_SENT_OK,,,,,,10,0xaa,,,,,,,,,,,,,,,,
2025-06-10T06:24:10.490+00:00Z,DECODE_SUCCESS,10,,,41,,,,True,5489,Msg #11,1749536645.0,0.414,-0.501,0.812,-0.5,-2.9,3.2,-25.6,-22.8,-92.5,35.14745330810547,129.02320861816406,108.3
2025-06-10T06:24:13.861+00:00Z,CTRL_PKT_RECV,11,0x50,,,,,,,,,,,,,,,,,,,,,
2025-06-10T06:24:13.873+00:00Z,SEND_PERMIT_ACK_SENT_OK,,,,,,11,0x55,,,,,,,,,,,,,,,,
2025-06-10T06:24:17.730+00:00Z,DATA_LEN_BYTE_RECV,,LEN_0x2a,42,,,,,,,,,,,,,,,,,,,,
2025-06-10T06:24:17.763+00:00Z,DATA_FRAME_RECV_FULL,11,DATA_FRAME,42,41,-102,,,,,,,,,,,,,,,,,,
2025-06-10T06:24:17.773+00:00Z,DATA_ACK_SENT_OK,,,,,,11,0xaa,,,,,,,,,,,,,,,,
2025-06-10T06:24:17.774+00:00Z,DECODE_SUCCESS,11,,,41,,,,True,5774,Msg #12,1749536652.0,0.409,-0.5,0.81,-0.6,-4.0,6.7,-25.7,-22.8,-92.4,35.14745330810547,129.02320861816406,108.7
2025-06-10T06:24:21.143+00:00Z,CTRL_PKT_RECV,12,0x50,,,,,,,,,,,,,,,,,,,,,
2025-06-10T06:24:21.153+00:00Z,SEND_PERMIT_ACK_SENT_OK,,,,,,12,0x55,,,,,,,,,,,,,,,,
2025-06-10T06:24:25.013+00:00Z,DATA_LEN_BYTE_RECV,,LEN_0x2a,42,,,,,,,,,,,,,,,,,,,,
2025-06-10T06:24:25.047+00:00Z,DATA_FRAME_RECV_FULL,12,DATA_FRAME,42,41,-101,,,,,,,,,,,,,,,,,,
2025-06-10T06:24:25.056+00:00Z,DATA_ACK_SENT_OK,,,,,,12,0xaa,,,,,,,,,,,,,,,,
2025-06-10T06:24:25.058+00:00Z,DECODE_SUCCESS,12,,,41,,,,True,6058,Msg #13,1749536659.0,0.396,-0.496,0.814,-0.9,-4.6,9.8,-25.8,-22.8,-92.3,35.14745330810547,129.02320861816406,108.2
2025-06-10T06:24:28.427+00:00Z,CTRL_PKT_RECV,13,0x50,,,,,,,,,,,,,,,,,,,,,
2025-06-10T06:24:28.437+00:00Z,SEND_PERMIT_ACK_SENT_OK,,,,,,13,0x55,,,,,,,,,,,,,,,,
2025-06-10T06:24:32.297+00:00Z,DATA_LEN_BYTE_RECV,,LEN_0x2a,42,,,,,,,,,,,,,,,,,,,,
2025-06-10T06:24:32.330+00:00Z,DATA_FRAME_RECV_FULL,13,DATA_FRAME,42,41,-102,,,,,,,,,,,,,,,,,,
2025-06-10T06:24:32.341+00:00Z,DATA_ACK_SENT_OK,,,,,,13,0xaa,,,,,,,,,,,,,,,,
2025-06-10T06:24:32.342+00:00Z,DECODE_SUCCESS,13,,,41,,,,True,5342,Msg #14,1749536667.0,0.392,-0.496,0.805,-0.3,-4.0,8.9,-25.9,-22.8,-92.2,35.147457122802734,129.02320861816406,108.6
2025-06-10T06:24:35.715+00:00Z,CTRL_PKT_RECV,14,0x50,,,,,,,,,,,,,,,,,,,,,
2025-06-10T06:24:35.725+00:00Z,SEND_PERMIT_ACK_SENT_OK,,,,,,14,0x55,,,,,,,,,,,,,,,,
2025-06-10T06:24:39.584+00:00Z,DATA_LEN_BYTE_RECV,,LEN_0x2a,42,,,,,,,,,,,,,,,,,,,,
2025-06-10T06:24:39.617+00:00Z,DATA_FRAME_RECV_FULL,14,DATA_FRAME,42,41,-101,,,,,,,,,,,,,,,,,,
2025-06-10T06:24:39.629+00:00Z,DATA_ACK_SENT_OK,,,,,,14,0xaa,,,,,,,,,,,,,,,,
2025-06-10T06:24:39.630+00:00Z,DECODE_SUCCESS,14,,,41,,,,True,5630,Msg #15,1749536674.0,0.341,-0.5,0.848,0.5,-5.6,10.3,-26.0,-22.8,-92.1,35.147457122802734,129.02320861816406,108.4
2025-06-10T06:24:43.005+00:00Z,CTRL_PKT_RECV,15,0x50,,,,,,,,,,,,,,,,,,,,,
2025-06-10T06:24:43.017+00:00Z,SEND_PERMIT_ACK_SENT_OK,,,,,,15,0x55,,,,,,,,,,,,,,,,
2025-06-10T06:24:46.874+00:00Z,DATA_LEN_BYTE_RECV,,LEN_0x2a,42,,,,,,,,,,,,,,,,,,,,
2025-06-10T06:24:46.908+00:00Z,DATA_FRAME_RECV_FULL,15,DATA_FRAME,42,41,-102,,,,,,,,,,,,,,,,,,
2025-06-10T06:24:46.921+00:00Z,DATA_ACK_SENT_OK,,,,,,15,0xaa,,,,,,,,,,,,,,,,
2025-06-10T06:24:46.921+00:00Z,DECODE_SUCCESS,15,,,41,,,,True,5921,Msg #16,1749536681.0,0.302,-0.537,0.845,1.5,-3.1,7.0,-26.1,-22.7,-92.0,35.1474609375,129.02320861816406,107.9
2025-06-10T06:24:50.290+00:00Z,CTRL_PKT_RECV,16,0x50,,,,,,,,,,,,,,,,,,,,,
2025-06-10T06:24:50.301+00:00Z,SEND_PERMIT_ACK_SENT_OK,,,,,,16,0x55,,,,,,,,,,,,,,,,
2025-06-10T06:24:54.160+00:00Z,DATA_LEN_BYTE_RECV,,LEN_0x2a,42,,,,,,,,,,,,,,,,,,,,
2025-06-10T06:24:54.193+00:00Z,DATA_FRAME_RECV_FULL,16,DATA_FRAME,42,41,-102,,,,,,,,,,,,,,,,,,
2025-06-10T06:24:54.205+00:00Z,DATA_ACK_SENT_OK,,,,,,16,0xaa,,,,,,,,,,,,,,,,
2025-06-10T06:24:54.205+00:00Z,DECODE_SUCCESS,16,,,41,,,,True,5205,Msg #17,1749536689.0,0.342,-0.462,0.807,-1.4,-0.3,8.7,-26.2,-22.7,-91.9,35.147464752197266,129.02320861816406,108.2
2025-06-10T06:24:57.576+00:00Z,CTRL_PKT_RECV,17,0x50,,,,,,,,,,,,,,,,,,,,,
2025-06-10T06:24:57.589+00:00Z,SEND_PERMIT_ACK_SENT_OK,,,,,,17,0x55,,,,,,,,,,,,,,,,
2025-06-10T06:25:01.445+00:00Z,DATA_LEN_BYTE_RECV,,LEN_0x2a,42,,,,,,,,,,,,,,,,,,,,
2025-06-10T06:25:01.479+00:00Z,DATA_FRAME_RECV_FULL,17,DATA_FRAME,42,41,-102,,,,,,,,,,,,,,,,,,
2025-06-10T06:25:01.489+00:00Z,DATA_ACK_SENT_OK,,,,,,17,0xaa,,,,,,,,,,,,,,,,
2025-06-10T06:25:01.490+00:00Z,DECODE_SUCCESS,17,,,41,,,,True,5490,Msg #18,1749536696.0,0.365,-0.413,0.807,-2.8,-0.1,5.3,-26.2,-22.6,-91.8,35.1474609375,129.02320861816406,108.7
2025-06-10T06:25:04.867+00:00Z,CTRL_PKT_RECV,18,0x50,,,,,,,,,,,,,,,,,,,,,
2025-06-10T06:25:04.877+00:00Z,SEND_PERMIT_ACK_SENT_OK,,,,,,18,0x55,,,,,,,,,,,,,,,,
2025-06-10T06:25:08.736+00:00Z,DATA_LEN_BYTE_RECV,,LEN_0x2a,42,,,,,,,,,,,,,,,,,,,,
2025-06-10T06:25:08.769+00:00Z,DATA_FRAME_RECV_FULL,18,DATA_FRAME,42,41,-102,,,,,,,,,,,,,,,,,,
2025-06-10T06:25:08.781+00:00Z,DATA_ACK_SENT_OK,,,,,,18,0xaa,,,,,,,,,,,,,,,,
2025-06-10T06:25:08.782+00:00Z,DECODE_SUCCESS,18,,,41,,,,True,5782,Msg #19,1749536703.0,0.339,-0.437,0.847,-0.8,0.4,-5.6,-26.2,-22.6,-91.9,35.147464752197266,129.02320861816406,108.1
2025-06-10T06:25:12.161+00:00Z,CTRL_PKT_RECV,19,0x50,,,,,,,,,,,,,,,,,,,,,
2025-06-10T06:25:12.173+00:00Z,SEND_PERMIT_ACK_SENT_OK,,,,,,19,0x55,,,,,,,,,,,,,,,,
2025-06-10T06:25:16.030+00:00Z,DATA_LEN_BYTE_RECV,,LEN_0x2a,42,,,,,,,,,,,,,,,,,,,,
2025-06-10T06:25:16.063+00:00Z,DATA_FRAME_RECV_FULL,19,DATA_FRAME,42,41,-102,,,,,,,,,,,,,,,,,,
2025-06-10T06:25:16.073+00:00Z,DATA_ACK_SENT_OK,,,,,,19,0xaa,,,,,,,,,,,,,,,,
2025-06-10T06:25:16.074+00:00Z,DECODE_SUCCESS,19,,,41,,,,True,6074,Msg #20,1749536710.0,0.363,-0.444,0.837,0.6,2.5,-9.8,-26.2,-22.6,-92.0,35.14746856689453,129.02320861816406,107.6
2025-06-10T06:25:19.442+00:00Z,CTRL_PKT_RECV,20,0x50,,,,,,,,,,,,,,,,,,,,,
2025-06-10T06:25:19.453+00:00Z,SEND_PERMIT_ACK_SENT_OK,,,,,,20,0x55,,,,,,,,,,,,,,,,
2025-06-10T06:25:23.311+00:00Z,DATA_LEN_BYTE_RECV,,LEN_0x2a,42,,,,,,,,,,,,,,,,,,,,
2025-06-10T06:25:23.344+00:00Z,DATA_FRAME_RECV_FULL,20,DATA_FRAME,42,41,-102,,,,,,,,,,,,,,,,,,
2025-06-10T06:25:23.357+00:00Z,DATA_ACK_SENT_OK,,,,,,20,0xaa,,,,,,,,,,,,,,,,
2025-06-10T06:25:23.358+00:00Z,DECODE_SUCCESS,20,,,41,,,,True,5357,Msg #21,1749536718.0,0.411,-0.437,0.832,0.9,2.8,-9.3,-26.2,-22.7,-92.1,35.147464752197266,129.023193359375,106.4
2025-06-10T06:25:26.729+00:00Z,CTRL_PKT_RECV,21,0x50,,,,,,,,,,,,,,,,,,,,,
2025-06-10T06:25:26.741+00:00Z,SEND_PERMIT_ACK_SENT_OK,,,,,,21,0x55,,,,,,,,,,,,,,,,
2025-06-10T06:25:30.598+00:00Z,DATA_LEN_BYTE_RECV,,LEN_0x2a,42,,,,,,,,,,,,,,,,,,,,
2025-06-10T06:25:30.631+00:00Z,DATA_FRAME_RECV_FULL,21,DATA_FRAME,42,41,-102,,,,,,,,,,,,,,,,,,
2025-06-10T06:25:30.641+00:00Z,DATA_ACK_SENT_OK,,,,,,21,0xaa,,,,,,,,,,,,,,,,
2025-06-10T06:25:30.641+00:00Z,DECODE_SUCCESS,21,,,41,,,,True,5641,Msg #22,1749536725.0,0.421,-0.458,0.843,1.4,2.3,-11.5,-26.1,-22.7,-92.2,35.14745330810547,129.023193359375,105.7
2025-06-10T06:25:34.017+00:00Z,CTRL_PKT_RECV,22,0x50,,,,,,,,,,,,,,,,,,,,,
2025-06-10T06:25:34.029+00:00Z,SEND_PERMIT_ACK_SENT_OK,,,,,,22,0x55,,,,,,,,,,,,,,,,
2025-06-10T06:25:37.886+00:00Z,DATA_LEN_BYTE_RECV,,LEN_0x2a,42,,,,,,,,,,,,,,,,,,,,
2025-06-10T06:25:37.920+00:00Z,DATA_FRAME_RECV_FULL,22,DATA_FRAME,42,41,-102,,,,,,,,,,,,,,,,,,
2025-06-10T06:25:37.933+00:00Z,DATA_ACK_SENT_OK,,,,,,22,0xaa,,,,,,,,,,,,,,,,
2025-06-10T06:25:37.934+00:00Z,DECODE_SUCCESS,22,,,41,,,,True,5934,Msg #23,1749536732.0,0.43,-0.456,0.852,0.4,2.2,-9.8,-26.1,-22.7,-92.3,35.1474494934082,129.023193359375,104.8
2025-06-10T06:25:41.308+00:00Z,CTRL_PKT_RECV,23,0x50,,,,,,,,,,,,,,,,,,,,,
2025-06-10T06:25:41.320+00:00Z,SEND_PERMIT_ACK_SENT_OK,,,,,,23,0x55,,,,,,,,,,,,,,,,
2025-06-10T06:25:45.177+00:00Z,DATA_LEN_BYTE_RECV,,LEN_0x2a,42,,,,,,,,,,,,,,,,,,,,
2025-06-10T06:25:45.211+00:00Z,DATA_FRAME_RECV_FULL,23,DATA_FRAME,42,41,-104,,,,,,,,,,,,,,,,,,
2025-06-10T06:25:45.221+00:00Z,DATA_ACK_SENT_OK,,,,,,23,0xaa,,,,,,,,,,,,,,,,
2025-06-10T06:25:45.221+00:00Z,DECODE_SUCCESS,23,,,41,,,,True,5221,Msg #24,1749536740.0,0.416,-0.462,0.857,0.6,2.5,-7.0,-26.1,-22.7,-92.4,35.1474494934082,129.02317810058594,104.3
2025-06-10T06:25:48.594+00:00Z,CTRL_PKT_RECV,24,0x50,,,,,,,,,,,,,,,,,,,,,
2025-06-10T06:25:48.605+00:00Z,SEND_PERMIT_ACK_SENT_OK,,,,,,24,0x55,,,,,,,,,,,,,,,,
2025-06-10T06:25:52.464+00:00Z,DATA_LEN_BYTE_RECV,,LEN_0x2a,42,,,,,,,,,,,,,,,,,,,,
2025-06-10T06:25:52.497+00:00Z,DATA_FRAME_RECV_FULL,24,DATA_FRAME,42,41,-103,,,,,,,,,,,,,,,,,,
2025-06-10T06:25:52.508+00:00Z,DATA_ACK_SENT_OK,,,,,,24,0xaa,,,,,,,,,,,,,,,,
2025-06-10T06:25:52.510+00:00Z,DECODE_SUCCESS,24,,,41,,,,True,5509,Msg #25,1749536747.0,0.417,-0.44,0.84,1.3,2.6,-2.4,-26.1,-22.7,-92.4,35.147457122802734,129.02317810058594,102.9
2025-06-10T06:25:55.885+00:00Z,CTRL_PKT_RECV,25,0x50,,,,,,,,,,,,,,,,,,,,,
2025-06-10T06:25:55.896+00:00Z,SEND_PERMIT_ACK_SENT_OK,,,,,,25,0x55,,,,,,,,,,,,,,,,
2025-06-10T06:25:59.756+00:00Z,DATA_LEN_BYTE_RECV,,LEN_0x2a,42,,,,,,,,,,,,,,,,,,,,
2025-06-10T06:25:59.789+00:00Z,DATA_FRAME_RECV_FULL,25,DATA_FRAME,42,41,-102,,,,,,,,,,,,,,,,,,
2025-06-10T06:25:59.801+00:00Z,DATA_ACK_SENT_OK,,,,,,25,0xaa,,,,,,,,,,,,,,,,
2025-06-10T06:25:59.802+00:00Z,DECODE_SUCCESS,25,,,41,,,,True,5802,Msg #26,1749536754.0,0.443,-0.388,0.817,2.1,0.3,5.0,-26.1,-22.8,-92.4,35.1474609375,129.0231475830078,101.9
2025-06-10T06:26:03.174+00:00Z,CTRL_PKT_RECV,26,0x50,,,,,,,,,,,,,,,,,,,,,
2025-06-10T06:26:03.185+00:00Z,SEND_PERMIT_ACK_SENT_OK,,,,,,26,0x55,,,,,,,,,,,,,,,,
2025-06-10T06:26:07.044+00:00Z,DATA_LEN_BYTE_RECV,,LEN_0x2a,42,,,,,,,,,,,,,,,,,,,,
2025-06-10T06:26:07.077+00:00Z,DATA_FRAME_RECV_FULL,26,DATA_FRAME,42,41,-102,,,,,,,,,,,,,,,,,,
2025-06-10T06:26:07.089+00:00Z,DATA_ACK_SENT_OK,,,,,,26,0xaa,,,,,,,,,,,,,,,,
2025-06-10T06:26:07.090+00:00Z,DECODE_SUCCESS,26,,,41,,,,True,6089,Msg #27,1749536761.0,0.44,-0.373,0.841,4.0,-3.6,7.3,-26.0,-22.8,-92.3,35.147457122802734,129.0231475830078,100.4
2025-06-10T06:26:10.468+00:00Z,CTRL_PKT_RECV,27,0x50,,,,,,,,,,,,,,,,,,,,,
2025-06-10T06:26:10.481+00:00Z,SEND_PERMIT_ACK_SENT_OK,,,,,,27,0x55,,,,,,,,,,,,,,,,
2025-06-10T06:26:14.338+00:00Z,DATA_LEN_BYTE_RECV,,LEN_0x2a,42,,,,,,,,,,,,,,,,,,,,
2025-06-10T06:26:14.371+00:00Z,DATA_FRAME_RECV_FULL,27,DATA_FRAME,42,41,-102,,,,,,,,,,,,,,,,,,
2025-06-10T06:26:14.381+00:00Z,DATA_ACK_SENT_OK,,,,,,27,0xaa,,,,,,,,,,,,,,,,
2025-06-10T06:26:14.382+00:00Z,DECODE_SUCCESS,27,,,41,,,,True,5382,Msg #28,1749536769.0,0.392,-0.399,0.899,5.4,-6.1,5.9,-26.0,-22.8,-92.2,35.1474609375,129.02313232421875,99.2
2025-06-10T06:26:17.753+00:00Z,CTRL_PKT_RECV,28,0x50,,,,,,,,,,,,,,,,,,,,,
2025-06-10T06:26:17.765+00:00Z,SEND_PERMIT_ACK_SENT_OK,,,,,,28,0x55,,,,,,,,,,,,,,,,
2025-06-10T06:26:21.622+00:00Z,DATA_LEN_BYTE_RECV,,LEN_0x2a,42,,,,,,,,,,,,,,,,,,,,
2025-06-10T06:26:21.655+00:00Z,DATA_FRAME_RECV_FULL,28,DATA_FRAME,42,41,-102,,,,,,,,,,,,,,,,,,
2025-06-10T06:26:21.665+00:00Z,DATA_ACK_SENT_OK,,,,,,28,0xaa,,,,,,,,,,,,,,,,
2025-06-10T06:26:21.666+00:00Z,DECODE_SUCCESS,28,,,41,,,,True,5666,Msg #29,1749536776.0,0.372,-0.42,0.913,4.3,-4.1,5.7,-26.0,-22.8,-92.1,35.1474609375,129.0231170654297,97.4
2025-06-10T06:26:25.048+00:00Z,CTRL_PKT_RECV,29,0x50,,,,,,,,,,,,,,,,,,,,,
2025-06-10T06:26:25.061+00:00Z,SEND_PERMIT_ACK_SENT_OK,,,,,,29,0x55,,,,,,,,,,,,,,,,
2025-06-10T06:26:28.917+00:00Z,DATA_LEN_BYTE_RECV,,LEN_0x2a,42,,,,,,,,,,,,,,,,,,,,
2025-06-10T06:26:28.951+00:00Z,DATA_FRAME_RECV_FULL,29,DATA_FRAME,42,41,-102,,,,,,,,,,,,,,,,,,
2025-06-10T06:26:28.961+00:00Z,DATA_ACK_SENT_OK,,,,,,29,0xaa,,,,,,,,,,,,,,,,
2025-06-10T06:26:28.962+00:00Z,DECODE_SUCCESS,29,,,41,,,,True,5962,Msg #30,1749536783.0,0.374,-0.405,0.889,0.9,-1.1,6.5,-26.0,-22.8,-92.1,35.147464752197266,129.02313232421875,97.0
2025-06-10T06:26:32.327+00:00Z,CTRL_PKT_RECV,30,0x50,,,,,,,,,,,,,,,,,,,,,
2025-06-10T06:26:32.337+00:00Z,SEND_PERMIT_ACK_SENT_OK,,,,,,30,0x55,,,,,,,,,,,,,,,,
2025-06-10T06:26:36.197+00:00Z,DATA_LEN_BYTE_RECV,,LEN_0x2a,42,,,,,,,,,,,,,,,,,,,,
2025-06-10T06:26:36.230+00:00Z,DATA_FRAME_RECV_FULL,30,DATA_FRAME,42,41,-101,,,,,,,,,,,,,,,,,,
2025-06-10T06:26:36.241+00:00Z,DATA_ACK_SENT_OK,,,,,,30,0xaa,,,,,,,,,,,,,,,,
2025-06-10T06:26:36.243+00:00Z,DECODE_SUCCESS,30,,,41,,,,True,5243,Msg #31,1749536791.0,0.379,-0.379,0.859,-2.0,0.7,5.3,-26.0,-22.7,-92.0,35.147464752197266,129.0231170654297,96.3
2025-06-10T06:26:39.616+00:00Z,CTRL_PKT_RECV,31,0x50,,,,,,,,,,,,,,,,,,,,,
2025-06-10T06:26:39.629+00:00Z,SEND_PERMIT_ACK_SENT_OK,,,,,,31,0x55,,,,,,,,,,,,,,,,
2025-06-10T06:26:43.486+00:00Z,DATA_LEN_BYTE_RECV,,LEN_0x2a,42,,,,,,,,,,,,,,,,,,,,
2025-06-10T06:26:43.519+00:00Z,DATA_FRAME_RECV_FULL,31,DATA_FRAME,42,41,-101,,,,,,,,,,,,,,,,,,
2025-06-10T06:26:43.529+00:00Z,DATA_ACK_SENT_OK,,,,,,31,0xaa,,,,,,,,,,,,,,,,
2025-06-10T06:26:43.530+00:00Z,DECODE_SUCCESS,31,,,41,,,,True,5530,Msg #32,1749536798.0,0.381,-0.378,0.838,-2.2,1.2,1.1,-26.0,-22.7,-92.0,35.147464752197266,129.0231170654297,95.4
2025-06-10T06:26:46.901+00:00Z,CTRL_PKT_RECV,32,0x50,,,,,,,,,,,,,,,,,,,,,
2025-06-10T06:26:46.912+00:00Z,SEND_PERMIT_ACK_SENT_OK,,,,,,32,0x55,,,,,,,,,,,,,,,,
2025-06-10T06:26:50.770+00:00Z,DATA_LEN_BYTE_RECV,,LEN_0x2a,42,,,,,,,,,,,,,,,,,,,,
2025-06-10T06:26:50.804+00:00Z,DATA_FRAME_RECV_FULL,32,DATA_FRAME,42,41,-102,,,,,,,,,,,,,,,,,,
2025-06-10T06:26:50.817+00:00Z,DATA_ACK_SENT_OK,,,,,,32,0xaa,,,,,,,,,,,,,,,,
2025-06-10T06:26:50.818+00:00Z,DECODE_SUCCESS,32,,,41,,,,True,5817,Msg #33,1749536805.0,0.375,-0.399,0.841,-0.6,0.4,-3.2,-26.0,-22.7,-92.1,35.147464752197266,129.0231170654297,94.7
2025-06-10T06:26:54.187+00:00Z,CTRL_PKT_RECV,33,0x50,,,,,,,,,,,,,,,,,,,,,
2025-06-10T06:26:54.197+00:00Z,SEND_PERMIT_ACK_SENT_OK,,,,,,33,0x55,,,,,,,,,,,,,,,,
2025-06-10T06:26:58.056+00:00Z,DATA_LEN_BYTE_RECV,,LEN_0x2a,42,,,,,,,,,,,,,,,,,,,,
2025-06-10T06:26:58.090+00:00Z,DATA_FRAME_RECV_FULL,33,DATA_FRAME,42,41,-102,,,,,,,,,,,,,,,,,,
2025-06-10T06:26:58.100+00:00Z,DATA_ACK_SENT_OK,,,,,,33,0xaa,,,,,,,,,,,,,,,,
2025-06-10T06:26:58.102+00:00Z,DECODE_SUCCESS,33,,,41,,,,True,6101,Msg #34,1749536812.0,0.375,-0.415,0.856,1.4,0.0,-4.7,-25.9,-22.7,-92.1,35.1474609375,129.0231170654297,95.0
2025-06-10T06:27:01.476+00:00Z,CTRL_PKT_RECV,34,0x50,,,,,,,,,,,,,,,,,,,,,
2025-06-10T06:27:01.489+00:00Z,SEND_PERMIT_ACK_SENT_OK,,,,,,34,0x55,,,,,,,,,,,,,,,,
2025-06-10T06:27:05.345+00:00Z,DATA_LEN_BYTE_RECV,,LEN_0x2a,42,,,,,,,,,,,,,,,,,,,,
2025-06-10T06:27:05.378+00:00Z,DATA_FRAME_RECV_FULL,34,DATA_FRAME,42,41,-102,,,,,,,,,,,,,,,,,,
2025-06-10T06:27:05.389+00:00Z,DATA_ACK_SENT_OK,,,,,,34,0xaa,,,,,,,,,,,,,,,,
2025-06-10T06:27:05.390+00:00Z,DECODE_SUCCESS,34,,,41,,,,True,5389,Msg #35,1749536820.0,0.391,-0.426,0.86,2.8,0.0,-3.9,-25.9,-22.7,-92.1,35.147464752197266,129.0231170654297,94.2
2025-06-10T06:27:08.756+00:00Z,CTRL_PKT_RECV,35,0x50,,,,,,,,,,,,,,,,,,,,,
2025-06-10T06:27:08.769+00:00Z,SEND_PERMIT_ACK_SENT_OK,,,,,,35,0x55,,,,,,,,,,,,,,,,
2025-06-10T06:27:12.626+00:00Z,DATA_LEN_BYTE_RECV,,LEN_0x2a,42,,,,,,,,,,,,,,,,,,,,
2025-06-10T06:27:12.659+00:00Z,DATA_FRAME_RECV_FULL,35,DATA_FRAME,42,41,-101,,,,,,,,,,,,,,,,,,
2025-06-10T06:27:12.669+00:00Z,DATA_ACK_SENT_OK,,,,,,35,0xaa,,,,,,,,,,,,,,,,
2025-06-10T06:27:12.670+00:00Z,DECODE_SUCCESS,35,,,41,,,,True,5670,Msg #36,1749536827.0,0.416,-0.437,0.857,2.3,0.5,-3.2,-25.9,-22.7,-92.2,35.147464752197266,129.0231170654297,94.8
2025-06-10T06:27:16.036+00:00Z,CTRL_PKT_RECV,36,0x50,,,,,,,,,,,,,,,,,,,,,
2025-06-10T06:27:16.048+00:00Z,SEND_PERMIT_ACK_SENT_OK,,,,,,36,0x55,,,,,,,,,,,,,,,,
2025-06-10T06:27:19.906+00:00Z,DATA_LEN_BYTE_RECV,,LEN_0x2a,42,,,,,,,,,,,,,,,,,,,,
2025-06-10T06:27:19.939+00:00Z,DATA_FRAME_RECV_FULL,36,DATA_FRAME,42,41,-102,,,,,,,,,,,,,,,,,,
2025-06-10T06:27:19.949+00:00Z,DATA_ACK_SENT_OK,,,,,,36,0xaa,,,,,,,,,,,,,,,,
2025-06-10T06:27:19.950+00:00Z,DECODE_SUCCESS,36,,,41,,,,True,5949,Msg #37,1749536834.0,0.422,-0.446,0.847,0.8,0.7,-3.2,-25.9,-22.7,-92.2,35.14745330810547,129.0231170654297,94.7
2025-06-10T06:27:23.320+00:00Z,CTRL_PKT_RECV,37,0x50,,,,,,,,,,,,,,,,,,,,,
2025-06-10T06:27:23.333+00:00Z,SEND_PERMIT_ACK_SENT_OK,,,,,,37,0x55,,,,,,,,,,,,,,,,
2025-06-10T06:27:27.192+00:00Z,DATA_LEN_BYTE_RECV,,LEN_0x2c,44,,,,,,,,,,,,,,,,,,,,
2025-06-10T06:27:27.227+00:00Z,DATA_FRAME_RECV_FULL,37,DATA_FRAME,44,43,-102,,,,,,,,,,,,,,,,,,
2025-06-10T06:27:27.237+00:00Z,DATA_ACK_SENT_OK,,,,,,37,0xaa,,,,,,,,,,,,,,,,
2025-06-10T06:27:27.238+00:00Z,DECODE_SUCCESS,37,,,43,,,,True,5237,Msg #38,1749536842.0,0.422,-0.437,0.851,-1.0,0.4,-1.0,-25.9,-22.8,-92.2,35.14745330810547,129.0231170654297,94.8
2025-06-10T06:27:30.612+00:00Z,CTRL_PKT_RECV,38,0x50,,,,,,,,,,,,,,,,,,,,,
2025-06-10T06:27:30.625+00:00Z,SEND_PERMIT_ACK_SENT_OK,,,,,,38,0x55,,,,,,,,,,,,,,,,
2025-06-10T06:27:34.481+00:00Z,DATA_LEN_BYTE_RECV,,LEN_0x2a,42,,,,,,,,,,,,,,,,,,,,
2025-06-10T06:27:34.515+00:00Z,DATA_FRAME_RECV_FULL,38,DATA_FRAME,42,41,-101,,,,,,,,,,,,,,,,,,
2025-06-10T06:27:34.524+00:00Z,DATA_ACK_SENT_OK,,,,,,38,0xaa,,,,,,,,,,,,,,,,
2025-06-10T06:27:34.525+00:00Z,DECODE_SUCCESS,38,,,41,,,,True,5525,Msg #39,1749536849.0,0.411,-0.395,0.867,-1.4,0.6,1.0,-25.9,-22.8,-92.2,35.14745330810547,129.02310180664062,95.4
2025-06-10T06:27:37.907+00:00Z,CTRL_PKT_RECV,39,0x50,,,,,,,,,,,,,,,,,,,,,
2025-06-10T06:27:37.916+00:00Z,SEND_PERMIT_ACK_SENT_OK,,,,,,39,0x55,,,,,,,,,,,,,,,,
2025-06-10T06:27:41.776+00:00Z,DATA_LEN_BYTE_RECV,,LEN_0x2a,42,,,,,,,,,,,,,,,,,,,,
2025-06-10T06:27:41.809+00:00Z,DATA_FRAME_RECV_FULL,39,DATA_FRAME,42,41,-102,,,,,,,,,,,,,,,,,,
2025-06-10T06:27:41.820+00:00Z,DATA_ACK_SENT_OK,,,,,,39,0xaa,,,,,,,,,,,,,,,,
2025-06-10T06:27:41.821+00:00Z,DECODE_SUCCESS,39,,,41,,,,True,5821,Msg #40,1749536856.0,0.394,-0.377,0.875,-0.1,2.1,1.7,-25.9,-22.7,-92.2,35.1474494934082,129.02310180664062,95.8
2025-06-10T06:27:45.188+00:00Z,CTRL_PKT_RECV,40,0x50,,,,,,,,,,,,,,,,,,,,,
2025-06-10T06:27:45.200+00:00Z,SEND_PERMIT_ACK_SENT_OK,,,,,,40,0x55,,,,,,,,,,,,,,,,
2025-06-10T06:27:49.057+00:00Z,DATA_LEN_BYTE_RECV,,LEN_0x2a,42,,,,,,,,,,,,,,,,,,,,
2025-06-10T06:27:49.091+00:00Z,DATA_FRAME_RECV_FULL,40,DATA_FRAME,42,41,-101,,,,,,,,,,,,,,,,,,
2025-06-10T06:27:49.100+00:00Z,DATA_ACK_SENT_OK,,,,,,40,0xaa,,,,,,,,,,,,,,,,
2025-06-10T06:27:49.101+00:00Z,DECODE_SUCCESS,40,,,41,,,,True,6101,Msg #41,1749536863.0,0.38,-0.369,0.867,0.9,3.8,-1.2,-25.8,-22.7,-92.2,35.14744567871094,129.02310180664062,96.3
2025-06-10T06:27:52.480+00:00Z,CTRL_PKT_RECV,41,0x50,,,,,,,,,,,,,,,,,,,,,
2025-06-10T06:27:52.492+00:00Z,SEND_PERMIT_ACK_SENT_OK,,,,,,41,0x55,,,,,,,,,,,,,,,,
2025-06-10T06:27:56.350+00:00Z,DATA_LEN_BYTE_RECV,,LEN_0x2a,42,,,,,,,,,,,,,,,,,,,,
2025-06-10T06:27:56.383+00:00Z,DATA_FRAME_RECV_FULL,41,DATA_FRAME,42,41,-102,,,,,,,,,,,,,,,,,,
2025-06-10T06:27:56.393+00:00Z,DATA_ACK_SENT_OK,,,,,,41,0xaa,,,,,,,,,,,,,,,,
2025-06-10T06:27:56.393+00:00Z,DECODE_SUCCESS,41,,,41,,,,True,5393,Msg #42,1749536871.0,0.383,-0.326,0.86,0.5,2.9,-1.7,-25.8,-22.7,-92.3,35.1474494934082,129.02310180664062,97.0
2025-06-10T06:27:59.767+00:00Z,CTRL_PKT_RECV,42,0x50,,,,,,,,,,,,,,,,,,,,,
2025-06-10T06:27:59.776+00:00Z,SEND_PERMIT_ACK_SENT_OK,,,,,,42,0x55,,,,,,,,,,,,,,,,
2025-06-10T06:28:03.636+00:00Z,DATA_LEN_BYTE_RECV,,LEN_0x2a,42,,,,,,,,,,,,,,,,,,,,
2025-06-10T06:28:03.670+00:00Z,DATA_FRAME_RECV_FULL,42,DATA_FRAME,42,41,-102,,,,,,,,,,,,,,,,,,
2025-06-10T06:28:03.680+00:00Z,DATA_ACK_SENT_OK,,,,,,42,0xaa,,,,,,,,,,,,,,,,
2025-06-10T06:28:03.681+00:00Z,DECODE_SUCCESS,42,,,41,,,,True,5681,Msg #43,1749536878.0,0.375,-0.281,0.902,0.8,-0.6,-1.2,-25.7,-22.7,-92.3,35.14746856689453,129.0230712890625,98.1
2025-06-10T06:28:07.054+00:00Z,CTRL_PKT_RECV,43,0x50,,,,,,,,,,,,,,,,,,,,,
2025-06-10T06:28:07.064+00:00Z,SEND_PERMIT_ACK_SENT_OK,,,,,,43,0x55,,,,,,,,,,,,,,,,
2025-06-10T06:28:10.924+00:00Z,DATA_LEN_BYTE_RECV,,LEN_0x2a,42,,,,,,,,,,,,,,,,,,,,
2025-06-10T06:28:10.957+00:00Z,DATA_FRAME_RECV_FULL,43,DATA_FRAME,42,41,-102,,,,,,,,,,,,,,,,,,
2025-06-10T06:28:10.968+00:00Z,DATA_ACK_SENT_OK,,,,,,43,0xaa,,,,,,,,,,,,,,,,
2025-06-10T06:28:10.969+00:00Z,DECODE_SUCCESS,43,,,41,,,,True,5969,Msg #44,1749536885.0,0.379,-0.275,0.944,2.1,-2.3,-2.9,-25.5,-22.7,-92.3,35.147483825683594,129.02305603027344,99.6
2025-06-10T06:28:14.338+00:00Z,CTRL_PKT_RECV,44,0x50,,,,,,,,,,,,,,,,,,,,,
2025-06-10T06:28:14.349+00:00Z,SEND_PERMIT_ACK_SENT_OK,,,,,,44,0x55,,,,,,,,,,,,,,,,
2025-06-10T06:28:18.210+00:00Z,DATA_LEN_BYTE_RECV,,LEN_0x2c,44,,,,,,,,,,,,,,,,,,,,
2025-06-10T06:28:18.245+00:00Z,DATA_FRAME_RECV_FULL,44,DATA_FRAME,44,43,-102,,,,,,,,,,,,,,,,,,
2025-06-10T06:28:18.256+00:00Z,DATA_ACK_SENT_OK,,,,,,44,0xaa,,,,,,,,,,,,,,,,
2025-06-10T06:28:18.257+00:00Z,DECODE_SUCCESS,44,,,43,,,,True,5257,Msg #45,1749536893.0,0.415,-0.312,0.952,1.8,-1.0,-6.0,-25.4,-22.7,-92.4,35.147483825683594,129.0230712890625,101.1
2025-06-10T06:28:21.619+00:00Z,CTRL_PKT_RECV,45,0x50,,,,,,,,,,,,,,,,,,,,,
2025-06-10T06:28:21.629+00:00Z,SEND_PERMIT_ACK_SENT_OK,,,,,,45,0x55,,,,,,,,,,,,,,,,
2025-06-10T06:28:25.489+00:00Z,DATA_LEN_BYTE_RECV,,LEN_0x2a,42,,,,,,,,,,,,,,,,,,,,
2025-06-10T06:28:25.522+00:00Z,DATA_FRAME_RECV_FULL,45,DATA_FRAME,42,41,-102,,,,,,,,,,,,,,,,,,
2025-06-10T06:28:25.532+00:00Z,DATA_ACK_SENT_OK,,,,,,45,0xaa,,,,,,,,,,,,,,,,
2025-06-10T06:28:25.533+00:00Z,DECODE_SUCCESS,45,,,41,,,,True,5533,Msg #46,1749536900.0,0.458,-0.348,0.913,-1.4,1.5,-8.7,-25.4,-22.8,-92.4,35.14747619628906,129.02305603027344,102.8
2025-06-10T06:28:28.897+00:00Z,CTRL_PKT_RECV,46,0x50,,,,,,,,,,,,,,,,,,,,,
2025-06-10T06:28:28.908+00:00Z,SEND_PERMIT_ACK_SENT_OK,,,,,,46,0x55,,,,,,,,,,,,,,,,
2025-06-10T06:28:32.767+00:00Z,DATA_LEN_BYTE_RECV,,LEN_0x2a,42,,,,,,,,,,,,,,,,,,,,
2025-06-10T06:28:32.800+00:00Z,DATA_FRAME_RECV_FULL,46,DATA_FRAME,42,41,-102,,,,,,,,,,,,,,,,,,
2025-06-10T06:28:32.812+00:00Z,DATA_ACK_SENT_OK,,,,,,46,0xaa,,,,,,,,,,,,,,,,
2025-06-10T06:28:32.813+00:00Z,DECODE_SUCCESS,46,,,41,,,,True,5813,Msg #47,1749536907.0,0.476,-0.405,0.882,-5.0,1.5,-5.6,-25.4,-22.8,-92.5,35.1474723815918,129.0230712890625,106.2
2025-06-10T06:28:36.182+00:00Z,CTRL_PKT_RECV,47,0x50,,,,,,,,,,,,,,,,,,,,,
2025-06-10T06:28:36.192+00:00Z,SEND_PERMIT_ACK_SENT_OK,,,,,,47,0x55,,,,,,,,,,,,,,,,
2025-06-10T06:28:40.052+00:00Z,DATA_LEN_BYTE_RECV,,LEN_0x2a,42,,,,,,,,,,,,,,,,,,,,
2025-06-10T06:28:40.085+00:00Z,DATA_FRAME_RECV_FULL,47,DATA_FRAME,42,41,-102,,,,,,,,,,,,,,,,,,
2025-06-10T06:28:40.096+00:00Z,DATA_ACK_SENT_OK,,,,,,47,0xaa,,,,,,,,,,,,,,,,
2025-06-10T06:28:40.097+00:00Z,DECODE_SUCCESS,47,,,41,,,,True,6097,Msg #48,1749536914.0,0.432,-0.572,0.849,-5.2,1.6,-8.8,-25.5,-22.8,-92.6,35.14746856689453,129.0230712890625,107.2
2025-06-10T06:28:43.466+00:00Z,CTRL_PKT_RECV,48,0x50,,,,,,,,,,,,,,,,,,,,,
2025-06-10T06:28:43.476+00:00Z,SEND_PERMIT_ACK_SENT_OK,,,,,,48,0x55,,,,,,,,,,,,,,,,
2025-06-10T06:28:47.335+00:00Z,DATA_LEN_BYTE_RECV,,LEN_0x2a,42,,,,,,,,,,,,,,,,,,,,
2025-06-10T06:28:47.369+00:00Z,DATA_FRAME_RECV_FULL,48,DATA_FRAME,42,41,-101,,,,,,,,,,,,,,,,,,
2025-06-10T06:28:47.380+00:00Z,DATA_ACK_SENT_OK,,,,,,48,0xaa,,,,,,,,,,,,,,,,
2025-06-10T06:28:47.381+00:00Z,DECODE_SUCCESS,48,,,41,,,,True,5381,Msg #49,1749536922.0,0.38,-0.631,0.829,-9.7,1.8,-1.5,-25.7,-22.8,-92.6,35.147464752197266,129.0230712890625,108.0
2025-06-10T06:28:50.749+00:00Z,CTRL_PKT_RECV,49,0x50,,,,,,,,,,,,,,,,,,,,,
2025-06-10T06:28:50.760+00:00Z,SEND_PERMIT_ACK_SENT_OK,,,,,,49,0x55,,,,,,,,,,,,,,,,
2025-06-10T06:28:54.618+00:00Z,DATA_LEN_BYTE_RECV,,LEN_0x2a,42,,,,,,,,,,,,,,,,,,,,
2025-06-10T06:28:54.652+00:00Z,DATA_FRAME_RECV_FULL,49,DATA_FRAME,42,41,-102,,,,,,,,,,,,,,,,,,
2025-06-10T06:28:54.660+00:00Z,DATA_ACK_SENT_OK,,,,,,49,0xaa,,,,,,,,,,,,,,,,
2025-06-10T06:28:54.661+00:00Z,DECODE_SUCCESS,49,,,41,,,,True,5661,Msg #50,1749536929.0,0.395,-0.54,0.737,-14.5,5.0,8.4,-25.9,-22.7,-92.6,35.1474609375,129.02305603027344,109.6
2025-06-10T06:28:58.032+00:00Z,CTRL_PKT_RECV,50,0x50,,,,,,,,,,,,,,,,,,,,,
2025-06-10T06:28:58.044+00:00Z,SEND_PERMIT_ACK_SENT_OK,,,,,,50,0x55,,,,,,,,,,,,,,,,
2025-06-10T06:29:01.901+00:00Z,DATA_LEN_BYTE_RECV,,LEN_0x2a,42,,,,,,,,,,,,,,,,,,,,
2025-06-10T06:29:01.934+00:00Z,DATA_FRAME_RECV_FULL,50,DATA_FRAME,42,41,-102,,,,,,,,,,,,,,,,,,
2025-06-10T06:29:01.944+00:00Z,DATA_ACK_SENT_OK,,,,,,50,0xaa,,,,,,,,,,,,,,,,
2025-06-10T06:29:01.945+00:00Z,DECODE_SUCCESS,50,,,41,,,,True,5945,Msg #51,1749536936.0,0.38,-0.492,0.704,-11.7,4.2,8.9,-26.2,-22.7,-92.5,35.1474609375,129.02305603027344,108.3
2025-06-10T06:29:05.320+00:00Z,CTRL_PKT_RECV,51,0x50,,,,,,,,,,,,,,,,,,,,,
2025-06-10T06:29:05.333+00:00Z,SEND_PERMIT_ACK_SENT_OK,,,,,,51,0x55,,,,,,,,,,,,,,,,
2025-06-10T06:29:09.189+00:00Z,DATA_LEN_BYTE_RECV,,LEN_0x2a,42,,,,,,,,,,,,,,,,,,,,
2025-06-10T06:29:09.222+00:00Z,DATA_FRAME_RECV_FULL,51,DATA_FRAME,42,41,-101,,,,,,,,,,,,,,,,,,
2025-06-10T06:29:09.232+00:00Z,DATA_ACK_SENT_OK,,,,,,51,0xaa,,,,,,,,,,,,,,,,
2025-06-10T06:29:09.233+00:00Z,DECODE_SUCCESS,51,,,41,,,,True,5233,Msg #52,1749536944.0,0.336,-0.511,0.737,-2.9,1.7,0.9,-26.3,-22.6,-92.5,35.1474609375,129.02304077148438,108.6
2025-06-10T06:29:12.602+00:00Z,CTRL_PKT_RECV,52,0x50,,,,,,,,,,,,,,,,,,,,,
2025-06-10T06:29:12.612+00:00Z,SEND_PERMIT_ACK_SENT_OK,,,,,,52,0x55,,,,,,,,,,,,,,,,
2025-06-10T06:29:16.471+00:00Z,DATA_LEN_BYTE_RECV,,LEN_0x2a,42,,,,,,,,,,,,,,,,,,,,
2025-06-10T06:29:16.504+00:00Z,DATA_FRAME_RECV_FULL,52,DATA_FRAME,42,41,-102,,,,,,,,,,,,,,,,,,
2025-06-10T06:29:16.516+00:00Z,DATA_ACK_SENT_OK,,,,,,52,0xaa,,,,,,,,,,,,,,,,
2025-06-10T06:29:16.517+00:00Z,DECODE_SUCCESS,52,,,41,,,,True,5517,Msg #53,1749536951.0,0.335,-0.496,0.774,4.0,-1.5,1.5,-26.3,-22.6,-92.5,35.1474609375,129.02304077148438,108.9
2025-06-10T06:29:19.887+00:00Z,CTRL_PKT_RECV,53,0x50,,,,,,,,,,,,,,,,,,,,,
2025-06-10T06:29:19.896+00:00Z,SEND_PERMIT_ACK_SENT_OK,,,,,,53,0x55,,,,,,,,,,,,,,,,
2025-06-10T06:29:23.757+00:00Z,DATA_LEN_BYTE_RECV,,LEN_0x2a,42,,,,,,,,,,,,,,,,,,,,
2025-06-10T06:29:23.790+00:00Z,DATA_FRAME_RECV_FULL,53,DATA_FRAME,42,41,-102,,,,,,,,,,,,,,,,,,
2025-06-10T06:29:23.800+00:00Z,DATA_ACK_SENT_OK,,,,,,53,0xaa,,,,,,,,,,,,,,,,
2025-06-10T06:29:23.801+00:00Z,DECODE_SUCCESS,53,,,41,,,,True,5801,Msg #54,1749536958.0,0.377,-0.429,0.806,7.7,-4.2,5.1,-26.3,-22.6,-92.4,35.147457122802734,129.0230255126953,109.1
2025-06-10T06:29:27.167+00:00Z,CTRL_PKT_RECV,54,0x50,,,,,,,,,,,,,,,,,,,,,
2025-06-10T06:29:27.176+00:00Z,SEND_PERMIT_ACK_SENT_OK,,,,,,54,0x55,,,,,,,,,,,,,,,,
2025-06-10T06:29:31.037+00:00Z,DATA_LEN_BYTE_RECV,,LEN_0x2a,42,,,,,,,,,,,,,,,,,,,,
2025-06-10T06:29:31.070+00:00Z,DATA_FRAME_RECV_FULL,54,DATA_FRAME,42,41,-102,,,,,,,,,,,,,,,,,,
2025-06-10T06:29:31.081+00:00Z,DATA_ACK_SENT_OK,,,,,,54,0xaa,,,,,,,,,,,,,,,,
2025-06-10T06:29:31.081+00:00Z,DECODE_SUCCESS,54,,,41,,,,True,6081,Msg #55,1749536965.0,0.382,-0.416,0.839,10.4,-6.2,3.0,-26.2,-22.6,-92.4,35.147464752197266,129.0230255126953,109.3
2025-06-10T06:29:34.451+00:00Z,CTRL_PKT_RECV,55,0x50,,,,,,,,,,,,,,,,,,,,,
2025-06-10T06:29:34.460+00:00Z,SEND_PERMIT_ACK_SENT_OK,,,,,,55,0x55,,,,,,,,,,,,,,,,
2025-06-10T06:29:38.321+00:00Z,DATA_LEN_BYTE_RECV,,LEN_0x2a,42,,,,,,,,,,,,,,,,,,,,
2025-06-10T06:29:38.354+00:00Z,DATA_FRAME_RECV_FULL,55,DATA_FRAME,42,41,-102,,,,,,,,,,,,,,,,,,
2025-06-10T06:29:38.364+00:00Z,DATA_ACK_SENT_OK,,,,,,55,0xaa,,,,,,,,,,,,,,,,
2025-06-10T06:29:38.365+00:00Z,DECODE_SUCCESS,55,,,41,,,,True,5365,Msg #56,1749536973.0,0.382,-0.444,0.898,10.8,-6.5,-2.0,-26.1,-22.7,-92.3,35.14746856689453,129.02301025390625,109.4
2025-06-10T06:29:41.726+00:00Z,CTRL_PKT_RECV,56,0x50,,,,,,,,,,,,,,,,,,,,,
2025-06-10T06:29:41.736+00:00Z,SEND_PERMIT_ACK_SENT_OK,,,,,,56,0x55,,,,,,,,,,,,,,,,
2025-06-10T06:29:45.597+00:00Z,DATA_LEN_BYTE_RECV,,LEN_0x2c,44,,,,,,,,,,,,,,,,,,,,
2025-06-10T06:29:45.633+00:00Z,DATA_FRAME_RECV_FULL,56,DATA_FRAME,44,43,-102,,,,,,,,,,,,,,,,,,
2025-06-10T06:29:45.644+00:00Z,DATA_ACK_SENT_OK,,,,,,56,0xaa,,,,,,,,,,,,,,,,
2025-06-10T06:29:45.645+00:00Z,DECODE_SUCCESS,56,,,43,,,,True,5645,Msg #57,1749536980.0,0.407,-0.466,0.926,6.9,-3.9,-4.4,-26.0,-22.7,-92.4,35.14744567871094,129.0230255126953,109.2
2025-06-10T06:29:50.163+00:00Z,CTRL_PKT_RECV,57,0x50,,,,,,,,,,,,,,,,,,,,,
2025-06-10T06:29:50.172+00:00Z,SEND_PERMIT_ACK_SENT_OK,,,,,,57,0x55,,,,,,,,,,,,,,,,
2025-06-10T06:29:54.033+00:00Z,DATA_LEN_BYTE_RECV,,LEN_0x2a,42,,,,,,,,,,,,,,,,,,,,
2025-06-10T06:29:54.066+00:00Z,DATA_FRAME_RECV_FULL,57,DATA_FRAME,42,41,-103,,,,,,,,,,,,,,,,,,
2025-06-10T06:29:54.076+00:00Z,DATA_ACK_SENT_OK,,,,,,57,0xaa,,,,,,,,,,,,,,,,
2025-06-10T06:29:54.077+00:00Z,DECODE_SUCCESS,57,,,41,,,,True,6077,Msg #58,1749536988.0,0.418,-0.436,0.908,0.1,0.7,-2.3,-26.0,-22.7,-92.4,35.14742660522461,129.02305603027344,109.1
2025-06-10T06:29:57.437+00:00Z,CTRL_PKT_RECV,58,0x50,,,,,,,,,,,,,,,,,,,,,
2025-06-10T06:29:57.448+00:00Z,SEND_PERMIT_ACK_SENT_OK,,,,,,58,0x55,,,,,,,,,,,,,,,,
2025-06-10T06:30:03.486+00:00Z,CTRL_PKT_RECV,59,0x50,,,,,,,,,,,,,,,,,,,,,
2025-06-10T06:30:03.496+00:00Z,SEND_PERMIT_ACK_SENT_OK,,,,,,59,0x55,,,,,,,,,,,,,,,,
2025-06-10T06:30:07.357+00:00Z,DATA_LEN_BYTE_RECV,,LEN_0x2c,44,,,,,,,,,,,,,,,,,,,,
2025-06-10T06:30:07.392+00:00Z,DATA_FRAME_RECV_FULL,59,DATA_FRAME,44,43,-101,,,,,,,,,,,,,,,,,,
2025-06-10T06:30:07.404+00:00Z,DATA_ACK_SENT_OK,,,,,,59,0xaa,,,,,,,,,,,,,,,,
2025-06-10T06:30:07.405+00:00Z,DECODE_SUCCESS,59,,,43,,,,True,5405,Msg #59,1749537002.0,0.408,-0.378,0.829,-3.7,6.6,-2.1,-26.0,-22.7,-92.5,35.14741897583008,129.0230712890625,108.9
2025-06-10T06:30:10.770+00:00Z,CTRL_PKT_RECV,60,0x50,,,,,,,,,,,,,,,,,,,,,
2025-06-10T06:30:10.780+00:00Z,SEND_PERMIT_ACK_SENT_OK,,,,,,60,0x55,,,,,,,,,,,,,,,,
2025-06-10T06:30:14.641+00:00Z,DATA_LEN_BYTE_RECV,,LEN_0x2c,44,,,,,,,,,,,,,,,,,,,,
2025-06-10T06:30:14.676+00:00Z,DATA_FRAME_RECV_FULL,60,DATA_FRAME,44,43,-99,,,,,,,,,,,,,,,,,,
2025-06-10T06:30:14.688+00:00Z,DATA_ACK_SENT_OK,,,,,,60,0xaa,,,,,,,,,,,,,,,,
2025-06-10T06:30:14.689+00:00Z,DECODE_SUCCESS,60,,,43,,,,True,5689,Msg #60,1749537009.0,0.406,-0.392,0.809,-0.6,4.5,-2.8,-26.0,-22.7,-92.5,35.14741897583008,129.0230712890625,108.8
2025-06-10T06:30:18.054+00:00Z,CTRL_PKT_RECV,61,0x50,,,,,,,,,,,,,,,,,,,,,
2025-06-10T06:30:18.064+00:00Z,SEND_PERMIT_ACK_SENT_OK,,,,,,61,0x55,,,,,,,,,,,,,,,,
2025-06-10T06:30:21.923+00:00Z,DATA_LEN_BYTE_RECV,,LEN_0x2a,42,,,,,,,,,,,,,,,,,,,,
2025-06-10T06:30:21.956+00:00Z,DATA_FRAME_RECV_FULL,61,DATA_FRAME,42,41,-103,,,,,,,,,,,,,,,,,,
2025-06-10T06:30:21.968+00:00Z,DATA_ACK_SENT_OK,,,,,,61,0xaa,,,,,,,,,,,,,,,,
2025-06-10T06:30:21.969+00:00Z,DECODE_SUCCESS,61,,,41,,,,True,5969,Msg #61,1749537016.0,0.406,-0.393,0.822,2.1,0.0,-0.7,-26.0,-22.7,-92.5,35.14741134643555,129.02308654785156,108.8
2025-06-10T06:30:25.329+00:00Z,CTRL_PKT_RECV,62,0x50,,,,,,,,,,,,,,,,,,,,,
2025-06-10T06:30:25.340+00:00Z,SEND_PERMIT_ACK_SENT_OK,,,,,,62,0x55,,,,,,,,,,,,,,,,
2025-06-10T06:30:31.377+00:00Z,CTRL_PKT_RECV,63,0x50,,,,,,,,,,,,,,,,,,,,,
2025-06-10T06:30:31.388+00:00Z,SEND_PERMIT_ACK_SENT_OK,,,,,,63,0x55,,,,,,,,,,,,,,,,
2025-06-10T06:30:39.822+00:00Z,CTRL_PKT_RECV,64,0x50,,,,,,,,,,,,,,,,,,,,,
2025-06-10T06:30:39.832+00:00Z,SEND_PERMIT_ACK_SENT_OK,,,,,,64,0x55,,,,,,,,,,,,,,,,
2025-06-10T06:30:43.691+00:00Z,DATA_LEN_BYTE_RECV,,LEN_0x2a,42,,,,,,,,,,,,,,,,,,,,
2025-06-10T06:30:43.725+00:00Z,DATA_FRAME_RECV_FULL,64,DATA_FRAME,42,41,-103,,,,,,,,,,,,,,,,,,
2025-06-10T06:30:43.736+00:00Z,DATA_ACK_SENT_OK,,,,,,64,0xaa,,,,,,,,,,,,,,,,
2025-06-10T06:30:43.737+00:00Z,DECODE_SUCCESS,64,,,41,,,,True,5737,Msg #62,1749537038.0,0.406,-0.424,0.898,3.4,-2.9,0.9,-25.9,-22.8,-92.4,35.147430419921875,129.02305603027344,108.7
2025-06-10T06:30:48.243+00:00Z,CTRL_PKT_RECV,65,0x50,,,,,,,,,,,,,,,,,,,,,
2025-06-10T06:30:48.252+00:00Z,SEND_PERMIT_ACK_SENT_OK,,,,,,65,0x55,,,,,,,,,,,,,,,,
2025-06-10T06:30:54.287+00:00Z,DATA_LEN_BYTE_RECV,,LEN_0x12,18,,,,,,,,,,,,,,,,,,,,
2025-06-10T06:30:54.338+00:00Z,DATA_FRAME_CONTENT_FAIL,,,18,,,,,,,"Expected 18B, got 1B. Raw: 99",,,,,,,,,,,,,
2025-06-10T06:31:00.331+00:00Z,CTRL_PKT_RECV,67,0x50,,,,,,,,,,,,,,,,,,,,,
2025-06-10T06:31:00.340+00:00Z,SEND_PERMIT_ACK_SENT_OK,,,,,,67,0x55,,,,,,,,,,,,,,,,
2025-06-10T06:31:04.200+00:00Z,DATA_LEN_BYTE_RECV,,LEN_0x2a,42,,,,,,,,,,,,,,,,,,,,
2025-06-10T06:31:04.233+00:00Z,DATA_FRAME_RECV_FULL,67,DATA_FRAME,42,41,-103,,,,,,,,,,,,,,,,,,
2025-06-10T06:31:04.244+00:00Z,DATA_ACK_SENT_OK,,,,,,67,0xaa,,,,,,,,,,,,,,,,
2025-06-10T06:31:04.245+00:00Z,DECODE_SUCCESS,67,,,41,,,,True,5245,Msg #63,1749537059.0,0.403,-0.383,0.833,-1.5,2.2,3.5,-25.9,-22.7,-92.4,35.14744186401367,129.02305603027344,108.7
2025-06-10T06:31:07.607+00:00Z,CTRL_PKT_RECV,68,0x50,,,,,,,,,,,,,,,,,,,,,
2025-06-10T06:31:07.616+00:00Z,SEND_PERMIT_ACK_SENT_OK,,,,,,68,0x55,,,,,,,,,,,,,,,,
2025-06-10T06:31:13.647+00:00Z,CTRL_PKT_RECV,69,0x50,,,,,,,,,,,,,,,,,,,,,
2025-06-10T06:31:13.656+00:00Z,SEND_PERMIT_ACK_SENT_OK,,,,,,69,0x55,,,,,,,,,,,,,,,,
2025-06-10T06:31:17.516+00:00Z,DATA_LEN_BYTE_RECV,,LEN_0x2a,42,,,,,,,,,,,,,,,,,,,,
2025-06-10T06:31:17.550+00:00Z,DATA_FRAME_RECV_FULL,69,DATA_FRAME,42,41,-103,,,,,,,,,,,,,,,,,,
2025-06-10T06:31:17.561+00:00Z,DATA_ACK_SENT_OK,,,,,,69,0xaa,,,,,,,,,,,,,,,,
2025-06-10T06:31:17.562+00:00Z,DECODE_SUCCESS,69,,,41,,,,True,5561,Msg #64,1749537072.0,0.389,-0.395,0.855,1.3,-1.4,0.3,-25.9,-22.7,-92.4,35.14744567871094,129.02305603027344,108.6
2025-06-10T06:31:20.931+00:00Z,CTRL_PKT_RECV,70,0x50,,,,,,,,,,,,,,,,,,,,,
2025-06-10T06:31:20.940+00:00Z,SEND_PERMIT_ACK_SENT_OK,,,,,,70,0x55,,,,,,,,,,,,,,,,
2025-06-10T06:31:24.801+00:00Z,DATA_LEN_BYTE_RECV,,LEN_0x2a,42,,,,,,,,,,,,,,,,,,,,
2025-06-10T06:31:24.834+00:00Z,DATA_FRAME_RECV_FULL,70,DATA_FRAME,42,41,-103,,,,,,,,,,,,,,,,,,
2025-06-10T06:31:24.844+00:00Z,DATA_ACK_SENT_OK,,,,,,70,0xaa,,,,,,,,,,,,,,,,
2025-06-10T06:31:24.845+00:00Z,DECODE_SUCCESS,70,,,41,,,,True,5845,Msg #65,1749537079.0,0.389,-0.406,0.869,2.0,-1.9,-0.1,-25.8,-22.7,-92.3,35.14745330810547,129.02304077148438,108.4
2025-06-10T06:31:35.423+00:00Z,CTRL_PKT_RECV,72,0x50,,,,,,,,,,,,,,,,,,,,,
2025-06-10T06:31:35.432+00:00Z,SEND_PERMIT_ACK_SENT_OK,,,,,,72,0x55,,,,,,,,,,,,,,,,
2025-06-10T06:31:41.463+00:00Z,CTRL_PKT_RECV,73,0x50,,,,,,,,,,,,,,,,,,,,,
2025-06-10T06:31:41.473+00:00Z,SEND_PERMIT_ACK_SENT_OK,,,,,,73,0x55,,,,,,,,,,,,,,,,
2025-06-10T06:31:45.332+00:00Z,DATA_LEN_BYTE_RECV,,LEN_0x2a,42,,,,,,,,,,,,,,,,,,,,
2025-06-10T06:31:45.366+00:00Z,DATA_FRAME_RECV_FULL,73,DATA_FRAME,42,41,-103,,,,,,,,,,,,,,,,,,
2025-06-10T06:31:45.376+00:00Z,DATA_ACK_SENT_OK,,,,,,73,0xaa,,,,,,,,,,,,,,,,
2025-06-10T06:31:45.377+00:00Z,DECODE_SUCCESS,73,,,41,,,,True,5377,Msg #66,1749537100.0,0.396,-0.435,0.846,-1.1,1.1,-1.5,-25.8,-22.7,-92.4,35.147464752197266,129.02304077148438,108.3
2025-06-10T06:31:49.890+00:00Z,CTRL_PKT_RECV,74,0x50,,,,,,,,,,,,,,,,,,,,,
2025-06-10T06:31:49.900+00:00Z,SEND_PERMIT_ACK_SENT_OK,,,,,,74,0x55,,,,,,,,,,,,,,,,
2025-06-10T06:31:53.760+00:00Z,DATA_LEN_BYTE_RECV,,LEN_0x2a,42,,,,,,,,,,,,,,,,,,,,
2025-06-10T06:31:53.793+00:00Z,DATA_FRAME_RECV_FULL,74,DATA_FRAME,42,41,-102,,,,,,,,,,,,,,,,,,
2025-06-10T06:31:53.804+00:00Z,DATA_ACK_SENT_OK,,,,,,74,0xaa,,,,,,,,,,,,,,,,
2025-06-10T06:31:53.805+00:00Z,DECODE_SUCCESS,74,,,41,,,,True,5805,Msg #67,1749537108.0,0.39,-0.421,0.862,-2.5,0.3,-0.3,-25.9,-22.7,-92.4,35.147464752197266,129.02304077148438,108.2
2025-06-10T06:31:57.166+00:00Z,CTRL_PKT_RECV,75,0x50,,,,,,,,,,,,,,,,,,,,,
2025-06-10T06:31:57.176+00:00Z,SEND_PERMIT_ACK_SENT_OK,,,,,,75,0x55,,,,,,,,,,,,,,,,
2025-06-10T06:32:03.212+00:00Z,CTRL_PKT_RECV,76,0x50,,,,,,,,,,,,,,,,,,,,,
2025-06-10T06:32:03.224+00:00Z,SEND_PERMIT_ACK_SENT_OK,,,,,,76,0x55,,,,,,,,,,,,,,,,
2025-06-10T06:32:09.266+00:00Z,CTRL_PKT_RECV,77,0x50,,,,,,,,,,,,,,,,,,,,,
2025-06-10T06:32:09.277+00:00Z,SEND_PERMIT_ACK_SENT_OK,,,,,,77,0x55,,,,,,,,,,,,,,,,
2025-06-10T06:32:15.317+00:00Z,CTRL_PKT_RECV,78,0x50,,,,,,,,,,,,,,,,,,,,,
2025-06-10T06:32:15.329+00:00Z,SEND_PERMIT_ACK_SENT_OK,,,,,,78,0x55,,,,,,,,,,,,,,,,
2025-06-10T06:32:23.747+00:00Z,CTRL_PKT_RECV,79,0x50,,,,,,,,,,,,,,,,,,,,,
2025-06-10T06:32:23.757+00:00Z,SEND_PERMIT_ACK_SENT_OK,,,,,,79,0x55,,,,,,,,,,,,,,,,
2025-06-10T06:32:29.795+00:00Z,CTRL_PKT_RECV,80,0x50,,,,,,,,,,,,,,,,,,,,,
2025-06-10T06:32:29.804+00:00Z,SEND_PERMIT_ACK_SENT_OK,,,,,,80,0x55,,,,,,,,,,,,,,,,
2025-06-10T06:32:35.836+00:00Z,CTRL_PKT_RECV,81,0x50,,,,,,,,,,,,,,,,,,,,,
2025-06-10T06:32:35.848+00:00Z,SEND_PERMIT_ACK_SENT_OK,,,,,,81,0x55,,,,,,,,,,,,,,,,
2025-06-10T06:32:41.878+00:00Z,CTRL_PKT_RECV,82,0x50,,,,,,,,,,,,,,,,,,,,,
2025-06-10T06:32:41.889+00:00Z,SEND_PERMIT_ACK_SENT_OK,,,,,,82,0x55,,,,,,,,,,,,,,,,
2025-06-10T06:32:47.930+00:00Z,CTRL_PKT_RECV,83,0x50,,,,,,,,,,,,,,,,,,,,,
2025-06-10T06:32:47.940+00:00Z,SEND_PERMIT_ACK_SENT_OK,,,,,,83,0x55,,,,,,,,,,,,,,,,
2025-06-10T06:32:51.799+00:00Z,DATA_LEN_BYTE_RECV,,LEN_0x2a,42,,,,,,,,,,,,,,,,,,,,
2025-06-10T06:32:51.832+00:00Z,DATA_FRAME_RECV_FULL,83,DATA_FRAME,42,41,-103,,,,,,,,,,,,,,,,,,
2025-06-10T06:32:51.844+00:00Z,DATA_ACK_SENT_OK,,,,,,83,0xaa,,,,,,,,,,,,,,,,
2025-06-10T06:32:51.845+00:00Z,DECODE_SUCCESS,83,,,41,,,,True,5845,Msg #68,1749537166.0,0.384,-0.408,0.845,-0.1,0.3,2.8,-25.9,-22.7,-92.3,35.147544860839844,129.02304077148438,107.4
2025-06-10T06:32:56.359+00:00Z,CTRL_PKT_RECV,84,0x50,,,,,,,,,,,,,,,,,,,,,
2025-06-10T06:32:56.372+00:00Z,SEND_PERMIT_ACK_SENT_OK,,,,,,84,0x55,,,,,,,,,,,,,,,,
2025-06-10T06:33:02.397+00:00Z,CTRL_PKT_RECV,85,0x50,,,,,,,,,,,,,,,,,,,,,
2025-06-10T06:33:02.408+00:00Z,SEND_PERMIT_ACK_SENT_OK,,,,,,85,0x55,,,,,,,,,,,,,,,,
2025-06-10T06:33:08.438+00:00Z,CTRL_PKT_RECV,86,0x50,,,,,,,,,,,,,,,,,,,,,
2025-06-10T06:33:08.448+00:00Z,SEND_PERMIT_ACK_SENT_OK,,,,,,86,0x55,,,,,,,,,,,,,,,,
2025-06-10T06:33:14.475+00:00Z,CTRL_PKT_RECV,87,0x50,,,,,,,,,,,,,,,,,,,,,
2025-06-10T06:33:14.484+00:00Z,SEND_PERMIT_ACK_SENT_OK,,,,,,87,0x55,,,,,,,,,,,,,,,,
2025-06-10T06:33:20.516+00:00Z,CTRL_PKT_RECV,88,0x50,,,,,,,,,,,,,,,,,,,,,
2025-06-10T06:33:20.528+00:00Z,SEND_PERMIT_ACK_SENT_OK,,,,,,88,0x55,,,,,,,,,,,,,,,,
2025-06-10T06:33:26.558+00:00Z,CTRL_PKT_RECV,89,0x50,,,,,,,,,,,,,,,,,,,,,
2025-06-10T06:33:26.568+00:00Z,SEND_PERMIT_ACK_SENT_OK,,,,,,89,0x55,,,,,,,,,,,,,,,,
2025-06-10T06:33:32.592+00:00Z,CTRL_PKT_RECV,90,0x50,,,,,,,,,,,,,,,,,,,,,
2025-06-10T06:33:32.604+00:00Z,SEND_PERMIT_ACK_SENT_OK,,,,,,90,0x55,,,,,,,,,,,,,,,,
2025-06-10T06:33:44.679+00:00Z,CTRL_PKT_RECV,92,0x50,,,,,,,,,,,,,,,,,,,,,
2025-06-10T06:33:44.688+00:00Z,SEND_PERMIT_ACK_SENT_OK,,,,,,92,0x55,,,,,,,,,,,,,,,,
2025-06-10T06:34:39.075+00:00Z,CTRL_PKT_RECV,101,0x50,,,,,,,,,,,,,,,,,,,,,
2025-06-10T06:34:39.084+00:00Z,SEND_PERMIT_ACK_SENT_OK,,,,,,101,0x55,,,,,,,,,,,,,,,,
2025-06-10T06:35:57.784+00:00Z,CTRL_PKT_RECV,114,0x50,,,,,,,,,,,,,,,,,,,,,
2025-06-10T06:35:57.796+00:00Z,SEND_PERMIT_ACK_SENT_OK,,,,,,114,0x55,,,,,,,,,,,,,,,,
2025-06-10T06:37:46.594+00:00Z,CTRL_PKT_RECV,132,0x50,,,,,,,,,,,,,,,,,,,,,
2025-06-10T06:37:46.604+00:00Z,SEND_PERMIT_ACK_SENT_OK,,,,,,132,0x55,,,,,,,,,,,,,,,,
2025-06-10T06:37:58.666+00:00Z,CTRL_PKT_RECV,134,0x50,,,,,,,,,,,,,,,,,,,,,
2025-06-10T06:37:58.676+00:00Z,SEND_PERMIT_ACK_SENT_OK,,,,,,134,0x55,,,,,,,,,,,,,,,,
2025-06-10T06:38:07.090+00:00Z,CTRL_PKT_RECV,135,0x50,,,,,,,,,,,,,,,,,,,,,
2025-06-10T06:38:07.100+00:00Z,SEND_PERMIT_ACK_SENT_OK,,,,,,135,0x55,,,,,,,,,,,,,,,,
2025-06-10T06:38:13.125+00:00Z,CTRL_PKT_RECV,136,0x50,,,,,,,,,,,,,,,,,,,,,
2025-06-10T06:38:13.136+00:00Z,SEND_PERMIT_ACK_SENT_OK,,,,,,136,0x55,,,,,,,,,,,,,,,,
2025-06-10T06:38:19.166+00:00Z,CTRL_PKT_RECV,137,0x50,,,,,,,,,,,,,,,,,,,,,
2025-06-10T06:38:19.176+00:00Z,SEND_PERMIT_ACK_SENT_OK,,,,,,137,0x55,,,,,,,,,,,,,,,,
2025-06-10T06:38:25.212+00:00Z,CTRL_PKT_RECV,138,0x50,,,,,,,,,,,,,,,,,,,,,
2025-06-10T06:38:25.225+00:00Z,SEND_PERMIT_ACK_SENT_OK,,,,,,138,0x55,,,,,,,,,,,,,,,,
2025-06-10T06:38:31.256+00:00Z,CTRL_PKT_RECV,139,0x50,,,,,,,,,,,,,,,,,,,,,
2025-06-10T06:38:31.269+00:00Z,SEND_PERMIT_ACK_SENT_OK,,,,,,139,0x55,,,,,,,,,,,,,,,,
2025-06-10T06:38:35.560+00:00Z,KEYBOARD_INTERRUPT,,,,,,,,,,,,,,,,,,,,,,,
2025-06-10T06:38:35.563+00:00Z,SERIAL_PORT_CLOSED,,,,,,,,,,,,,,,,,,,,,,,
2025-06-10T06:38:45.995+00:00Z,SERIAL_PORT_OPEN_SUCCESS,,,,,,,,,,"Port: /dev/ttyAMA0, Baud: 9600",,,,,,,,,,,,,
2025-06-10T06:38:52.997+00:00Z,HANDSHAKE_SYN_TIMEOUT,,,,,,,,,,,,,,,,,,,,,,,
2025-06-10T06:38:56.274+00:00Z,HANDSHAKE_SYN_RECV,,SYN,,,,,,,,,,,,,,,,,,,,,
2025-06-10T06:38:56.285+00:00Z,HANDSHAKE_ACK_SENT_OK,,,,,,0,0x00,,,,,,,,,,,,,,,,
2025-06-10T06:38:56.286+00:00Z,HANDSHAKE_SUCCESS,,,,,,,,,,,,,,,,,,,,,,,
2025-06-10T06:39:02.290+00:00Z,DATA_LEN_BYTE_RECV,,LEN_0x0d,13,,,,,,,,,,,,,,,,,,,,
