log_timestamp_utc,event_type,frame_seq_recv,packet_type_recv_hex,data_len_byte_value,payload_len_on_wire,rssi_dbm,ack_seq_sent,ack_type_sent_hex,decoded_ts_valid_check,decoded_latency_ms_calc,notes,decoded_ts,decoded_accel_ax,decoded_accel_ay,decoded_accel_az,decoded_gyro_gx,decoded_gyro_gy,decoded_gyro_gz,decoded_angle_roll,decoded_angle_pitch,decoded_angle_yaw,decoded_gps_lat,decoded_gps_lon,decoded_gps_altitude
2025-06-09T04:43:01.656+00:00Z,SERIAL_PORT_OPEN_SUCCESS,,,,,,,,,,"Port: /dev/ttyAMA0, Baud: 9600",,,,,,,,,,,,,
2025-06-09T04:45:09.328+00:00Z,SERIAL_PORT_OPEN_SUCCESS,,,,,,,,,,"Port: /dev/ttyAMA0, Baud: 9600",,,,,,,,,,,,,
2025-06-09T04:51:49.708+00:00Z,SERIAL_PORT_OPEN_SUCCESS,,,,,,,,,,"Port: /dev/ttyAMA0, Baud: 9600",,,,,,,,,,,,,
2025-06-09T07:43:02.094+00:00Z,SERIAL_PORT_OPEN_SUCCESS,,,,,,,,,,"Port: /dev/ttyAMA0, Baud: 9600",,,,,,,,,,,,,
2025-06-09T07:43:07.100+00:00Z,HANDSHAKE_SYN_TIMEOUT,,,,,,,,,,,,,,,,,,,,,,,
2025-06-09T07:43:12.107+00:00Z,HANDSHAKE_SYN_TIMEOUT,,,,,,,,,,,,,,,,,,,,,,,
2025-06-09T07:43:17.114+00:00Z,HANDSHAKE_SYN_TIMEOUT,,,,,,,,,,,,,,,,,,,,,,,
2025-06-09T07:43:22.120+00:00Z,HANDSHAKE_SYN_TIMEOUT,,,,,,,,,,,,,,,,,,,,,,,
2025-06-09T07:43:27.122+00:00Z,HANDSHAKE_SYN_TIMEOUT,,,,,,,,,,,,,,,,,,,,,,,
2025-06-09T07:43:32.126+00:00Z,HANDSHAKE_SYN_TIMEOUT,,,,,,,,,,,,,,,,,,,,,,,
2025-06-09T07:43:37.132+00:00Z,HANDSHAKE_SYN_TIMEOUT,,,,,,,,,,,,,,,,,,,,,,,
2025-06-09T07:43:42.139+00:00Z,HANDSHAKE_SYN_TIMEOUT,,,,,,,,,,,,,,,,,,,,,,,
2025-06-09T07:43:47.141+00:00Z,HANDSHAKE_SYN_TIMEOUT,,,,,,,,,,,,,,,,,,,,,,,
2025-06-09T07:43:52.150+00:00Z,HANDSHAKE_SYN_TIMEOUT,,,,,,,,,,,,,,,,,,,,,,,
2025-06-09T07:43:57.157+00:00Z,HANDSHAKE_SYN_TIMEOUT,,,,,,,,,,,,,,,,,,,,,,,
2025-06-09T07:44:02.164+00:00Z,HANDSHAKE_SYN_TIMEOUT,,,,,,,,,,,,,,,,,,,,,,,
2025-06-09T07:44:07.171+00:00Z,HANDSHAKE_SYN_TIMEOUT,,,,,,,,,,,,,,,,,,,,,,,
2025-06-09T07:44:12.178+00:00Z,HANDSHAKE_SYN_TIMEOUT,,,,,,,,,,,,,,,,,,,,,,,
2025-06-09T07:44:17.179+00:00Z,HANDSHAKE_SYN_TIMEOUT,,,,,,,,,,,,,,,,,,,,,,,
2025-06-09T07:44:22.186+00:00Z,HANDSHAKE_SYN_TIMEOUT,,,,,,,,,,,,,,,,,,,,,,,
2025-06-09T07:44:27.192+00:00Z,HANDSHAKE_SYN_TIMEOUT,,,,,,,,,,,,,,,,,,,,,,,
2025-06-09T07:44:32.199+00:00Z,HANDSHAKE_SYN_TIMEOUT,,,,,,,,,,,,,,,,,,,,,,,
2025-06-09T07:44:37.205+00:00Z,HANDSHAKE_SYN_TIMEOUT,,,,,,,,,,,,,,,,,,,,,,,
2025-06-09T07:44:42.212+00:00Z,HANDSHAKE_SYN_TIMEOUT,,,,,,,,,,,,,,,,,,,,,,,
2025-06-09T07:44:47.218+00:00Z,HANDSHAKE_SYN_TIMEOUT,,,,,,,,,,,,,,,,,,,,,,,
2025-06-09T07:44:52.225+00:00Z,HANDSHAKE_SYN_TIMEOUT,,,,,,,,,,,,,,,,,,,,,,,
2025-06-09T07:45:05.490+00:00Z,HANDSHAKE_SYN_TIMEOUT,,,,,,,,,,,,,,,,,,,,,,,
2025-06-09T07:45:09.915+00:00Z,SERIAL_PORT_OPEN_SUCCESS,,,,,,,,,,"Port: /dev/ttyAMA0, Baud: 9600",,,,,,,,,,,,,
2025-06-09T07:45:14.922+00:00Z,HANDSHAKE_SYN_TIMEOUT,,,,,,,,,,,,,,,,,,,,,,,
2025-06-09T07:45:19.928+00:00Z,HANDSHAKE_SYN_TIMEOUT,,,,,,,,,,,,,,,,,,,,,,,
2025-06-09T07:45:24.935+00:00Z,HANDSHAKE_SYN_TIMEOUT,,,,,,,,,,,,,,,,,,,,,,,
2025-06-09T07:45:29.937+00:00Z,HANDSHAKE_SYN_TIMEOUT,,,,,,,,,,,,,,,,,,,,,,,
2025-06-09T07:45:34.940+00:00Z,HANDSHAKE_SYN_TIMEOUT,,,,,,,,,,,,,,,,,,,,,,,
2025-06-09T07:45:39.947+00:00Z,HANDSHAKE_SYN_TIMEOUT,,,,,,,,,,,,,,,,,,,,,,,
2025-06-09T07:45:44.954+00:00Z,HANDSHAKE_SYN_TIMEOUT,,,,,,,,,,,,,,,,,,,,,,,
2025-06-09T07:45:49.961+00:00Z,HANDSHAKE_SYN_TIMEOUT,,,,,,,,,,,,,,,,,,,,,,,
2025-06-09T07:45:54.967+00:00Z,HANDSHAKE_SYN_TIMEOUT,,,,,,,,,,,,,,,,,,,,,,,
2025-06-09T07:45:59.974+00:00Z,HANDSHAKE_SYN_TIMEOUT,,,,,,,,,,,,,,,,,,,,,,,
2025-06-09T07:46:04.975+00:00Z,HANDSHAKE_SYN_TIMEOUT,,,,,,,,,,,,,,,,,,,,,,,
2025-06-09T07:46:09.977+00:00Z,HANDSHAKE_SYN_TIMEOUT,,,,,,,,,,,,,,,,,,,,,,,
2025-06-09T07:46:14.984+00:00Z,HANDSHAKE_SYN_TIMEOUT,,,,,,,,,,,,,,,,,,,,,,,
2025-06-09T07:46:19.991+00:00Z,HANDSHAKE_SYN_TIMEOUT,,,,,,,,,,,,,,,,,,,,,,,
2025-06-09T07:46:24.997+00:00Z,HANDSHAKE_SYN_TIMEOUT,,,,,,,,,,,,,,,,,,,,,,,
2025-06-09T07:46:30.004+00:00Z,HANDSHAKE_SYN_TIMEOUT,,,,,,,,,,,,,,,,,,,,,,,
2025-06-09T07:46:35.010+00:00Z,HANDSHAKE_SYN_TIMEOUT,,,,,,,,,,,,,,,,,,,,,,,
2025-06-09T07:46:40.012+00:00Z,HANDSHAKE_SYN_TIMEOUT,,,,,,,,,,,,,,,,,,,,,,,
2025-06-09T07:46:45.019+00:00Z,HANDSHAKE_SYN_TIMEOUT,,,,,,,,,,,,,,,,,,,,,,,
2025-06-09T07:46:50.025+00:00Z,HANDSHAKE_SYN_TIMEOUT,,,,,,,,,,,,,,,,,,,,,,,
2025-06-09T07:46:55.032+00:00Z,HANDSHAKE_SYN_TIMEOUT,,,,,,,,,,,,,,,,,,,,,,,
2025-06-09T07:47:00.038+00:00Z,HANDSHAKE_SYN_TIMEOUT,,,,,,,,,,,,,,,,,,,,,,,
2025-06-09T07:47:05.044+00:00Z,HANDSHAKE_SYN_TIMEOUT,,,,,,,,,,,,,,,,,,,,,,,
2025-06-09T07:47:10.051+00:00Z,HANDSHAKE_SYN_TIMEOUT,,,,,,,,,,,,,,,,,,,,,,,
2025-06-09T07:47:15.057+00:00Z,HANDSHAKE_SYN_TIMEOUT,,,,,,,,,,,,,,,,,,,,,,,
2025-06-09T07:47:18.284+00:00Z,HANDSHAKE_SYN_RECV,,SYN,,,,,,,,,,,,,,,,,,,,,
2025-06-09T07:47:18.294+00:00Z,HANDSHAKE_ACK_SENT_OK,,,,,,0,0x00,,,,,,,,,,,,,,,,
2025-06-09T07:47:18.295+00:00Z,HANDSHAKE_SUCCESS,,,,,,,,,,,,,,,,,,,,,,,
2025-06-09T07:47:21.910+00:00Z,CTRL_PKT_RECV,0,0x50,,,,,,,,,,,,,,,,,,,,,
2025-06-09T07:47:21.922+00:00Z,SEND_PERMIT_ACK_SENT_OK,,,,,,0,0x55,,,,,,,,,,,,,,,,
2025-06-09T07:47:22.553+00:00Z,DATA_LEN_BYTE_RECV,,LEN_0x26,38,,,,,,,,,,,,,,,,,,,,
2025-06-09T07:47:22.582+00:00Z,DATA_FRAME_RECV_FULL,0,DATA_FRAME,38,37,-94,,,,,,,,,,,,,,,,,,
2025-06-09T07:47:22.594+00:00Z,DATA_ACK_SENT_OK,,,,,,0,0xaa,,,,,,,,,,,,,,,,
2025-06-09T07:47:22.596+00:00Z,DECODE_SUCCESS,0,,,37,,,,True,1595,Msg #1,1749455241.0,0.76,-0.263,0.638,0.0,0.0,0.0,-22.5,-47.8,0.0,35.14753341674805,129.0267333984375,138.4
2025-06-09T07:47:24.024+00:00Z,CTRL_PKT_RECV,1,0x50,,,,,,,,,,,,,,,,,,,,,
2025-06-09T07:47:24.034+00:00Z,SEND_PERMIT_ACK_SENT_OK,,,,,,1,0x55,,,,,,,,,,,,,,,,
2025-06-09T07:47:24.666+00:00Z,DATA_LEN_BYTE_RECV,,LEN_0x26,38,,,,,,,,,,,,,,,,,,,,
2025-06-09T07:47:24.695+00:00Z,DATA_FRAME_RECV_FULL,1,DATA_FRAME,38,37,-93,,,,,,,,,,,,,,,,,,
2025-06-09T07:47:24.707+00:00Z,DATA_ACK_SENT_OK,,,,,,1,0xaa,,,,,,,,,,,,,,,,
2025-06-09T07:47:24.708+00:00Z,DECODE_SUCCESS,1,,,37,,,,True,1708,Msg #2,1749455243.0,0.76,-0.262,0.639,0.0,0.0,0.0,-22.5,-47.8,0.0,35.14753341674805,129.0267333984375,138.1
2025-06-09T07:47:26.135+00:00Z,CTRL_PKT_RECV,2,0x50,,,,,,,,,,,,,,,,,,,,,
2025-06-09T07:47:26.147+00:00Z,SEND_PERMIT_ACK_SENT_OK,,,,,,2,0x55,,,,,,,,,,,,,,,,
2025-06-09T07:47:26.777+00:00Z,DATA_LEN_BYTE_RECV,,LEN_0x26,38,,,,,,,,,,,,,,,,,,,,
2025-06-09T07:47:26.806+00:00Z,DATA_FRAME_RECV_FULL,2,DATA_FRAME,38,37,-94,,,,,,,,,,,,,,,,,,
2025-06-09T07:47:26.818+00:00Z,DATA_ACK_SENT_OK,,,,,,2,0xaa,,,,,,,,,,,,,,,,
2025-06-09T07:47:26.820+00:00Z,DECODE_SUCCESS,2,,,37,,,,True,1819,Msg #3,1749455245.0,0.76,-0.262,0.635,0.0,0.0,0.0,-22.5,-47.8,0.0,35.14753723144531,129.0267333984375,137.7
2025-06-09T07:47:28.249+00:00Z,CTRL_PKT_RECV,3,0x50,,,,,,,,,,,,,,,,,,,,,
2025-06-09T07:47:28.258+00:00Z,SEND_PERMIT_ACK_SENT_OK,,,,,,3,0x55,,,,,,,,,,,,,,,,
2025-06-09T07:47:28.891+00:00Z,DATA_LEN_BYTE_RECV,,LEN_0x26,38,,,,,,,,,,,,,,,,,,,,
2025-06-09T07:47:28.920+00:00Z,DATA_FRAME_RECV_FULL,3,DATA_FRAME,38,37,-94,,,,,,,,,,,,,,,,,,
2025-06-09T07:47:28.930+00:00Z,DATA_ACK_SENT_OK,,,,,,3,0xaa,,,,,,,,,,,,,,,,
2025-06-09T07:47:28.931+00:00Z,DECODE_SUCCESS,3,,,37,,,,True,931,Msg #4,1749455248.0,0.762,-0.264,0.635,0.0,0.0,0.0,-22.5,-47.8,0.0,35.14754104614258,129.0267333984375,137.3
2025-06-09T07:47:30.360+00:00Z,CTRL_PKT_RECV,4,0x50,,,,,,,,,,,,,,,,,,,,,
2025-06-09T07:47:30.370+00:00Z,SEND_PERMIT_ACK_SENT_OK,,,,,,4,0x55,,,,,,,,,,,,,,,,
2025-06-09T07:47:31.003+00:00Z,DATA_LEN_BYTE_RECV,,LEN_0x26,38,,,,,,,,,,,,,,,,,,,,
2025-06-09T07:47:31.032+00:00Z,DATA_FRAME_RECV_FULL,4,DATA_FRAME,38,37,-94,,,,,,,,,,,,,,,,,,
2025-06-09T07:47:31.043+00:00Z,DATA_ACK_SENT_OK,,,,,,4,0xaa,,,,,,,,,,,,,,,,
2025-06-09T07:47:31.043+00:00Z,DECODE_SUCCESS,4,,,37,,,,True,1043,Msg #5,1749455250.0,0.761,-0.264,0.634,0.0,0.0,0.0,-22.5,-47.8,0.0,35.14754104614258,129.0267333984375,137.1
2025-06-09T07:47:32.472+00:00Z,CTRL_PKT_RECV,5,0x50,,,,,,,,,,,,,,,,,,,,,
2025-06-09T07:47:32.482+00:00Z,SEND_PERMIT_ACK_SENT_OK,,,,,,5,0x55,,,,,,,,,,,,,,,,
2025-06-09T07:47:33.114+00:00Z,DATA_LEN_BYTE_RECV,,LEN_0x26,38,,,,,,,,,,,,,,,,,,,,
2025-06-09T07:47:33.143+00:00Z,DATA_FRAME_RECV_FULL,5,DATA_FRAME,38,37,-94,,,,,,,,,,,,,,,,,,
2025-06-09T07:47:33.154+00:00Z,DATA_ACK_SENT_OK,,,,,,5,0xaa,,,,,,,,,,,,,,,,
2025-06-09T07:47:33.156+00:00Z,DECODE_SUCCESS,5,,,37,,,,True,1155,Msg #6,1749455252.0,0.761,-0.265,0.635,0.0,0.0,0.0,-22.5,-47.8,0.0,35.14754867553711,129.0267333984375,137.0
2025-06-09T07:47:34.600+00:00Z,CTRL_PKT_RECV,6,0x50,,,,,,,,,,,,,,,,,,,,,
2025-06-09T07:47:34.610+00:00Z,SEND_PERMIT_ACK_SENT_OK,,,,,,6,0x55,,,,,,,,,,,,,,,,
2025-06-09T07:47:35.243+00:00Z,DATA_LEN_BYTE_RECV,,LEN_0x26,38,,,,,,,,,,,,,,,,,,,,
2025-06-09T07:47:35.272+00:00Z,DATA_FRAME_RECV_FULL,6,DATA_FRAME,38,37,-94,,,,,,,,,,,,,,,,,,
2025-06-09T07:47:35.283+00:00Z,DATA_ACK_SENT_OK,,,,,,6,0xaa,,,,,,,,,,,,,,,,
2025-06-09T07:47:35.284+00:00Z,DECODE_SUCCESS,6,,,37,,,,True,1284,Msg #7,1749455254.0,0.76,-0.265,0.634,0.0,0.0,0.0,-22.5,-47.8,0.0,35.14754867553711,129.0267333984375,137.0
2025-06-09T07:47:36.731+00:00Z,CTRL_PKT_RECV,7,0x50,,,,,,,,,,,,,,,,,,,,,
2025-06-09T07:47:36.742+00:00Z,SEND_PERMIT_ACK_SENT_OK,,,,,,7,0x55,,,,,,,,,,,,,,,,
2025-06-09T07:47:37.374+00:00Z,DATA_LEN_BYTE_RECV,,LEN_0x26,38,,,,,,,,,,,,,,,,,,,,
2025-06-09T07:47:37.403+00:00Z,DATA_FRAME_RECV_FULL,7,DATA_FRAME,38,37,-93,,,,,,,,,,,,,,,,,,
2025-06-09T07:47:37.414+00:00Z,DATA_ACK_SENT_OK,,,,,,7,0xaa,,,,,,,,,,,,,,,,
2025-06-09T07:47:37.416+00:00Z,DECODE_SUCCESS,7,,,37,,,,True,1415,Msg #8,1749455256.0,0.761,-0.264,0.636,0.0,0.0,0.0,-22.5,-47.8,0.0,35.14754867553711,129.02674865722656,136.8
2025-06-09T07:47:38.873+00:00Z,CTRL_PKT_RECV,8,0x50,,,,,,,,,,,,,,,,,,,,,
2025-06-09T07:47:38.886+00:00Z,SEND_PERMIT_ACK_SENT_OK,,,,,,8,0x55,,,,,,,,,,,,,,,,
2025-06-09T07:47:39.516+00:00Z,DATA_LEN_BYTE_RECV,,LEN_0x26,38,,,,,,,,,,,,,,,,,,,,
2025-06-09T07:47:39.545+00:00Z,DATA_FRAME_RECV_FULL,8,DATA_FRAME,38,37,-94,,,,,,,,,,,,,,,,,,
2025-06-09T07:47:39.554+00:00Z,DATA_ACK_SENT_OK,,,,,,8,0xaa,,,,,,,,,,,,,,,,
2025-06-09T07:47:39.555+00:00Z,DECODE_SUCCESS,8,,,37,,,,True,1555,Msg #9,1749455258.0,0.761,-0.264,0.634,0.0,0.0,0.0,-22.5,-47.8,0.0,35.147544860839844,129.02674865722656,136.8
2025-06-09T07:47:41.013+00:00Z,CTRL_PKT_RECV,9,0x50,,,,,,,,,,,,,,,,,,,,,
2025-06-09T07:47:41.022+00:00Z,SEND_PERMIT_ACK_SENT_OK,,,,,,9,0x55,,,,,,,,,,,,,,,,
2025-06-09T07:47:41.655+00:00Z,DATA_LEN_BYTE_RECV,,LEN_0x26,38,,,,,,,,,,,,,,,,,,,,
2025-06-09T07:47:41.684+00:00Z,DATA_FRAME_RECV_FULL,9,DATA_FRAME,38,37,-94,,,,,,,,,,,,,,,,,,
2025-06-09T07:47:41.694+00:00Z,DATA_ACK_SENT_OK,,,,,,9,0xaa,,,,,,,,,,,,,,,,
2025-06-09T07:47:41.695+00:00Z,DECODE_SUCCESS,9,,,37,,,,True,1695,Msg #10,1749455260.0,0.759,-0.266,0.635,0.0,0.0,0.0,-22.5,-47.8,0.0,35.14755630493164,129.02674865722656,136.6
2025-06-09T07:47:43.155+00:00Z,CTRL_PKT_RECV,10,0x50,,,,,,,,,,,,,,,,,,,,,
2025-06-09T07:47:43.167+00:00Z,SEND_PERMIT_ACK_SENT_OK,,,,,,10,0x55,,,,,,,,,,,,,,,,
2025-06-09T07:47:43.798+00:00Z,DATA_LEN_BYTE_RECV,,LEN_0x26,38,,,,,,,,,,,,,,,,,,,,
2025-06-09T07:47:43.827+00:00Z,DATA_FRAME_RECV_FULL,10,DATA_FRAME,38,37,-94,,,,,,,,,,,,,,,,,,
2025-06-09T07:47:43.839+00:00Z,DATA_ACK_SENT_OK,,,,,,10,0xaa,,,,,,,,,,,,,,,,
2025-06-09T07:47:43.840+00:00Z,DECODE_SUCCESS,10,,,37,,,,True,1840,Msg #11,1749455262.0,0.758,-0.264,0.635,0.0,0.0,0.0,-22.5,-47.8,0.0,35.14756393432617,129.02674865722656,136.6
2025-06-09T07:47:45.272+00:00Z,CTRL_PKT_RECV,11,0x50,,,,,,,,,,,,,,,,,,,,,
2025-06-09T07:47:45.282+00:00Z,SEND_PERMIT_ACK_SENT_OK,,,,,,11,0x55,,,,,,,,,,,,,,,,
2025-06-09T07:47:45.914+00:00Z,DATA_LEN_BYTE_RECV,,LEN_0x26,38,,,,,,,,,,,,,,,,,,,,
2025-06-09T07:47:45.943+00:00Z,DATA_FRAME_RECV_FULL,11,DATA_FRAME,38,37,-93,,,,,,,,,,,,,,,,,,
2025-06-09T07:47:45.954+00:00Z,DATA_ACK_SENT_OK,,,,,,11,0xaa,,,,,,,,,,,,,,,,
2025-06-09T07:47:45.956+00:00Z,DECODE_SUCCESS,11,,,37,,,,True,955,Msg #12,1749455265.0,0.761,-0.264,0.634,0.0,0.0,0.0,-22.5,-47.8,0.0,35.14756774902344,129.02674865722656,136.7
2025-06-09T07:47:47.387+00:00Z,CTRL_PKT_RECV,12,0x50,,,,,,,,,,,,,,,,,,,,,
2025-06-09T07:47:47.398+00:00Z,SEND_PERMIT_ACK_SENT_OK,,,,,,12,0x55,,,,,,,,,,,,,,,,
2025-06-09T07:47:48.029+00:00Z,DATA_LEN_BYTE_RECV,,LEN_0x26,38,,,,,,,,,,,,,,,,,,,,
2025-06-09T07:47:48.058+00:00Z,DATA_FRAME_RECV_FULL,12,DATA_FRAME,38,37,-94,,,,,,,,,,,,,,,,,,
2025-06-09T07:47:48.070+00:00Z,DATA_ACK_SENT_OK,,,,,,12,0xaa,,,,,,,,,,,,,,,,
2025-06-09T07:47:48.072+00:00Z,DECODE_SUCCESS,12,,,37,,,,True,1072,Msg #13,1749455267.0,0.76,-0.263,0.634,0.0,0.0,0.0,-22.5,-47.8,0.0,35.14756774902344,129.02674865722656,136.8
2025-06-09T07:47:49.524+00:00Z,CTRL_PKT_RECV,13,0x50,,,,,,,,,,,,,,,,,,,,,
2025-06-09T07:47:49.534+00:00Z,SEND_PERMIT_ACK_SENT_OK,,,,,,13,0x55,,,,,,,,,,,,,,,,
2025-06-09T07:47:50.167+00:00Z,DATA_LEN_BYTE_RECV,,LEN_0x26,38,,,,,,,,,,,,,,,,,,,,
2025-06-09T07:47:50.196+00:00Z,DATA_FRAME_RECV_FULL,13,DATA_FRAME,38,37,-94,,,,,,,,,,,,,,,,,,
2025-06-09T07:47:50.206+00:00Z,DATA_ACK_SENT_OK,,,,,,13,0xaa,,,,,,,,,,,,,,,,
2025-06-09T07:47:50.207+00:00Z,DECODE_SUCCESS,13,,,37,,,,True,1207,Msg #14,1749455269.0,0.758,-0.263,0.635,0.0,0.0,0.0,-22.5,-47.8,0.0,35.1475715637207,129.0267333984375,136.8
2025-06-09T07:47:51.660+00:00Z,CTRL_PKT_RECV,14,0x50,,,,,,,,,,,,,,,,,,,,,
2025-06-09T07:47:51.670+00:00Z,SEND_PERMIT_ACK_SENT_OK,,,,,,14,0x55,,,,,,,,,,,,,,,,
2025-06-09T07:47:52.303+00:00Z,DATA_LEN_BYTE_RECV,,LEN_0x26,38,,,,,,,,,,,,,,,,,,,,
2025-06-09T07:47:52.332+00:00Z,DATA_FRAME_RECV_FULL,14,DATA_FRAME,38,37,-93,,,,,,,,,,,,,,,,,,
2025-06-09T07:47:52.342+00:00Z,DATA_ACK_SENT_OK,,,,,,14,0xaa,,,,,,,,,,,,,,,,
2025-06-09T07:47:52.344+00:00Z,DECODE_SUCCESS,14,,,37,,,,True,1343,Msg #15,1749455271.0,0.758,-0.263,0.636,0.0,0.0,0.0,-22.5,-47.8,0.0,35.1475715637207,129.02674865722656,136.8
2025-06-09T07:47:53.797+00:00Z,CTRL_PKT_RECV,15,0x50,,,,,,,,,,,,,,,,,,,,,
2025-06-09T07:47:53.807+00:00Z,SEND_PERMIT_ACK_SENT_OK,,,,,,15,0x55,,,,,,,,,,,,,,,,
2025-06-09T07:47:54.440+00:00Z,DATA_LEN_BYTE_RECV,,LEN_0x26,38,,,,,,,,,,,,,,,,,,,,
2025-06-09T07:47:54.469+00:00Z,DATA_FRAME_RECV_FULL,15,DATA_FRAME,38,37,-93,,,,,,,,,,,,,,,,,,
2025-06-09T07:47:54.478+00:00Z,DATA_ACK_SENT_OK,,,,,,15,0xaa,,,,,,,,,,,,,,,,
2025-06-09T07:47:54.480+00:00Z,DECODE_SUCCESS,15,,,37,,,,True,1479,Msg #16,1749455273.0,0.761,-0.264,0.635,0.0,0.0,0.0,-22.5,-47.8,0.0,35.14756774902344,129.02674865722656,136.9
2025-06-09T07:47:55.936+00:00Z,CTRL_PKT_RECV,16,0x50,,,,,,,,,,,,,,,,,,,,,
2025-06-09T07:47:55.947+00:00Z,SEND_PERMIT_ACK_SENT_OK,,,,,,16,0x55,,,,,,,,,,,,,,,,
2025-06-09T07:47:56.579+00:00Z,DATA_LEN_BYTE_RECV,,LEN_0x26,38,,,,,,,,,,,,,,,,,,,,
2025-06-09T07:47:56.608+00:00Z,DATA_FRAME_RECV_FULL,16,DATA_FRAME,38,37,-93,,,,,,,,,,,,,,,,,,
2025-06-09T07:47:56.619+00:00Z,DATA_ACK_SENT_OK,,,,,,16,0xaa,,,,,,,,,,,,,,,,
2025-06-09T07:47:56.620+00:00Z,DECODE_SUCCESS,16,,,37,,,,True,1620,Msg #17,1749455275.0,0.76,-0.267,0.636,0.0,0.0,0.0,-22.5,-47.8,0.0,35.14756393432617,129.02674865722656,136.7
2025-06-09T07:47:58.073+00:00Z,CTRL_PKT_RECV,17,0x50,,,,,,,,,,,,,,,,,,,,,
2025-06-09T07:47:58.082+00:00Z,SEND_PERMIT_ACK_SENT_OK,,,,,,17,0x55,,,,,,,,,,,,,,,,
2025-06-09T07:47:58.716+00:00Z,DATA_LEN_BYTE_RECV,,LEN_0x26,38,,,,,,,,,,,,,,,,,,,,
2025-06-09T07:47:58.745+00:00Z,DATA_FRAME_RECV_FULL,17,DATA_FRAME,38,37,-94,,,,,,,,,,,,,,,,,,
2025-06-09T07:47:58.755+00:00Z,DATA_ACK_SENT_OK,,,,,,17,0xaa,,,,,,,,,,,,,,,,
2025-06-09T07:47:58.756+00:00Z,DECODE_SUCCESS,17,,,37,,,,True,1756,Msg #18,1749455277.0,0.76,-0.264,0.636,0.0,0.0,0.0,-22.5,-47.8,0.0,35.14756393432617,129.02676391601562,136.5
2025-06-09T07:48:00.215+00:00Z,CTRL_PKT_RECV,18,0x50,,,,,,,,,,,,,,,,,,,,,
2025-06-09T07:48:00.227+00:00Z,SEND_PERMIT_ACK_SENT_OK,,,,,,18,0x55,,,,,,,,,,,,,,,,
2025-06-09T07:48:00.858+00:00Z,DATA_LEN_BYTE_RECV,,LEN_0x26,38,,,,,,,,,,,,,,,,,,,,
2025-06-09T07:48:00.887+00:00Z,DATA_FRAME_RECV_FULL,18,DATA_FRAME,38,37,-93,,,,,,,,,,,,,,,,,,
2025-06-09T07:48:00.898+00:00Z,DATA_ACK_SENT_OK,,,,,,18,0xaa,,,,,,,,,,,,,,,,
2025-06-09T07:48:00.900+00:00Z,DECODE_SUCCESS,18,,,37,,,,True,1899,Msg #19,1749455279.0,0.759,-0.263,0.635,0.0,0.0,0.0,-22.5,-47.8,0.0,35.14756393432617,129.02676391601562,136.5
2025-06-09T07:48:02.361+00:00Z,CTRL_PKT_RECV,19,0x50,,,,,,,,,,,,,,,,,,,,,
2025-06-09T07:48:02.374+00:00Z,SEND_PERMIT_ACK_SENT_OK,,,,,,19,0x55,,,,,,,,,,,,,,,,
2025-06-09T07:48:03.004+00:00Z,DATA_LEN_BYTE_RECV,,LEN_0x26,38,,,,,,,,,,,,,,,,,,,,
2025-06-09T07:48:03.033+00:00Z,DATA_FRAME_RECV_FULL,19,DATA_FRAME,38,37,-94,,,,,,,,,,,,,,,,,,
2025-06-09T07:48:03.042+00:00Z,DATA_ACK_SENT_OK,,,,,,19,0xaa,,,,,,,,,,,,,,,,
2025-06-09T07:48:03.044+00:00Z,DECODE_SUCCESS,19,,,37,,,,True,1043,Msg #20,1749455282.0,0.759,-0.263,0.635,0.0,0.0,0.0,-22.5,-47.8,0.0,35.14756393432617,129.02676391601562,136.0
2025-06-09T07:48:04.497+00:00Z,CTRL_PKT_RECV,20,0x50,,,,,,,,,,,,,,,,,,,,,
2025-06-09T07:48:04.506+00:00Z,SEND_PERMIT_ACK_SENT_OK,,,,,,20,0x55,,,,,,,,,,,,,,,,
2025-06-09T07:48:05.140+00:00Z,DATA_LEN_BYTE_RECV,,LEN_0x26,38,,,,,,,,,,,,,,,,,,,,
2025-06-09T07:48:05.169+00:00Z,DATA_FRAME_RECV_FULL,20,DATA_FRAME,38,37,-95,,,,,,,,,,,,,,,,,,
2025-06-09T07:48:05.178+00:00Z,DATA_ACK_SENT_OK,,,,,,20,0xaa,,,,,,,,,,,,,,,,
2025-06-09T07:48:05.179+00:00Z,DECODE_SUCCESS,20,,,37,,,,True,1179,Msg #21,1749455284.0,0.758,-0.264,0.636,0.0,0.0,0.0,-22.5,-47.8,0.0,35.14757537841797,129.02676391601562,135.9
2025-06-09T07:48:06.636+00:00Z,CTRL_PKT_RECV,21,0x50,,,,,,,,,,,,,,,,,,,,,
2025-06-09T07:48:06.647+00:00Z,SEND_PERMIT_ACK_SENT_OK,,,,,,21,0x55,,,,,,,,,,,,,,,,
2025-06-09T07:48:07.279+00:00Z,DATA_LEN_BYTE_RECV,,LEN_0x26,38,,,,,,,,,,,,,,,,,,,,
2025-06-09T07:48:07.308+00:00Z,DATA_FRAME_RECV_FULL,21,DATA_FRAME,38,37,-93,,,,,,,,,,,,,,,,,,
2025-06-09T07:48:07.318+00:00Z,DATA_ACK_SENT_OK,,,,,,21,0xaa,,,,,,,,,,,,,,,,
2025-06-09T07:48:07.320+00:00Z,DECODE_SUCCESS,21,,,37,,,,True,1319,Msg #22,1749455286.0,0.759,-0.265,0.637,0.0,0.0,0.0,-22.5,-47.8,0.0,35.147586822509766,129.02676391601562,135.5
2025-06-09T07:48:08.774+00:00Z,CTRL_PKT_RECV,22,0x50,,,,,,,,,,,,,,,,,,,,,
2025-06-09T07:48:08.786+00:00Z,SEND_PERMIT_ACK_SENT_OK,,,,,,22,0x55,,,,,,,,,,,,,,,,
2025-06-09T07:48:09.417+00:00Z,DATA_LEN_BYTE_RECV,,LEN_0x26,38,,,,,,,,,,,,,,,,,,,,
2025-06-09T07:48:09.446+00:00Z,DATA_FRAME_RECV_FULL,22,DATA_FRAME,38,37,-94,,,,,,,,,,,,,,,,,,
2025-06-09T07:48:09.458+00:00Z,DATA_ACK_SENT_OK,,,,,,22,0xaa,,,,,,,,,,,,,,,,
2025-06-09T07:48:09.460+00:00Z,DECODE_SUCCESS,22,,,37,,,,True,1459,Msg #23,1749455288.0,0.76,-0.265,0.638,0.0,0.0,0.0,-22.5,-47.8,0.0,35.147586822509766,129.02676391601562,135.4
2025-06-09T07:48:10.916+00:00Z,CTRL_PKT_RECV,23,0x50,,,,,,,,,,,,,,,,,,,,,
2025-06-09T07:48:10.926+00:00Z,SEND_PERMIT_ACK_SENT_OK,,,,,,23,0x55,,,,,,,,,,,,,,,,
2025-06-09T07:48:11.559+00:00Z,DATA_LEN_BYTE_RECV,,LEN_0x26,38,,,,,,,,,,,,,,,,,,,,
2025-06-09T07:48:11.588+00:00Z,DATA_FRAME_RECV_FULL,23,DATA_FRAME,38,37,-93,,,,,,,,,,,,,,,,,,
2025-06-09T07:48:11.599+00:00Z,DATA_ACK_SENT_OK,,,,,,23,0xaa,,,,,,,,,,,,,,,,
2025-06-09T07:48:11.600+00:00Z,DECODE_SUCCESS,23,,,37,,,,True,1600,Msg #24,1749455290.0,0.76,-0.263,0.636,0.0,0.0,0.0,-22.5,-47.8,0.0,35.147586822509766,129.02676391601562,135.7
2025-06-09T07:48:13.058+00:00Z,CTRL_PKT_RECV,24,0x50,,,,,,,,,,,,,,,,,,,,,
2025-06-09T07:48:13.070+00:00Z,SEND_PERMIT_ACK_SENT_OK,,,,,,24,0x55,,,,,,,,,,,,,,,,
2025-06-09T07:48:13.700+00:00Z,DATA_LEN_BYTE_RECV,,LEN_0x26,38,,,,,,,,,,,,,,,,,,,,
2025-06-09T07:48:13.729+00:00Z,DATA_FRAME_RECV_FULL,24,DATA_FRAME,38,37,-93,,,,,,,,,,,,,,,,,,
2025-06-09T07:48:13.738+00:00Z,DATA_ACK_SENT_OK,,,,,,24,0xaa,,,,,,,,,,,,,,,,
2025-06-09T07:48:13.739+00:00Z,DECODE_SUCCESS,24,,,37,,,,True,1739,Msg #25,1749455292.0,0.761,-0.266,0.639,0.0,0.0,0.0,-22.5,-47.8,0.0,35.14759063720703,129.02676391601562,135.9
2025-06-09T07:48:15.199+00:00Z,CTRL_PKT_RECV,25,0x50,,,,,,,,,,,,,,,,,,,,,
2025-06-09T07:48:15.211+00:00Z,SEND_PERMIT_ACK_SENT_OK,,,,,,25,0x55,,,,,,,,,,,,,,,,
2025-06-09T07:48:15.841+00:00Z,DATA_LEN_BYTE_RECV,,LEN_0x26,38,,,,,,,,,,,,,,,,,,,,
2025-06-09T07:48:15.870+00:00Z,DATA_FRAME_RECV_FULL,25,DATA_FRAME,38,37,-93,,,,,,,,,,,,,,,,,,
2025-06-09T07:48:15.882+00:00Z,DATA_ACK_SENT_OK,,,,,,25,0xaa,,,,,,,,,,,,,,,,
2025-06-09T07:48:15.883+00:00Z,DECODE_SUCCESS,25,,,37,,,,True,1883,Msg #26,1749455294.0,0.762,-0.264,0.637,0.0,0.0,0.0,-22.5,-47.8,0.0,35.14759826660156,129.02676391601562,135.9
2025-06-09T07:48:17.342+00:00Z,CTRL_PKT_RECV,26,0x50,,,,,,,,,,,,,,,,,,,,,
2025-06-09T07:48:17.354+00:00Z,SEND_PERMIT_ACK_SENT_OK,,,,,,26,0x55,,,,,,,,,,,,,,,,
2025-06-09T07:48:17.985+00:00Z,DATA_LEN_BYTE_RECV,,LEN_0x26,38,,,,,,,,,,,,,,,,,,,,
2025-06-09T07:48:18.014+00:00Z,DATA_FRAME_RECV_FULL,26,DATA_FRAME,38,37,-95,,,,,,,,,,,,,,,,,,
2025-06-09T07:48:18.022+00:00Z,DATA_ACK_SENT_OK,,,,,,26,0xaa,,,,,,,,,,,,,,,,
2025-06-09T07:48:18.024+00:00Z,DECODE_SUCCESS,26,,,37,,,,True,1023,Msg #27,1749455297.0,0.762,-0.264,0.635,0.0,0.0,0.0,-22.5,-47.8,0.0,35.147605895996094,129.02676391601562,135.6
2025-06-09T07:48:19.486+00:00Z,CTRL_PKT_RECV,27,0x50,,,,,,,,,,,,,,,,,,,,,
2025-06-09T07:48:19.498+00:00Z,SEND_PERMIT_ACK_SENT_OK,,,,,,27,0x55,,,,,,,,,,,,,,,,
2025-06-09T07:48:20.129+00:00Z,DATA_LEN_BYTE_RECV,,LEN_0x26,38,,,,,,,,,,,,,,,,,,,,
2025-06-09T07:48:20.158+00:00Z,DATA_FRAME_RECV_FULL,27,DATA_FRAME,38,37,-94,,,,,,,,,,,,,,,,,,
2025-06-09T07:48:20.170+00:00Z,DATA_ACK_SENT_OK,,,,,,27,0xaa,,,,,,,,,,,,,,,,
2025-06-09T07:48:20.171+00:00Z,DECODE_SUCCESS,27,,,37,,,,True,1171,Msg #28,1749455299.0,0.76,-0.264,0.633,0.0,0.0,0.0,-22.5,-47.8,0.0,35.147613525390625,129.02676391601562,135.9
2025-06-09T07:48:21.627+00:00Z,CTRL_PKT_RECV,28,0x50,,,,,,,,,,,,,,,,,,,,,
2025-06-09T07:48:21.638+00:00Z,SEND_PERMIT_ACK_SENT_OK,,,,,,28,0x55,,,,,,,,,,,,,,,,
2025-06-09T07:48:22.269+00:00Z,DATA_LEN_BYTE_RECV,,LEN_0x26,38,,,,,,,,,,,,,,,,,,,,
2025-06-09T07:48:22.298+00:00Z,DATA_FRAME_RECV_FULL,28,DATA_FRAME,38,37,-93,,,,,,,,,,,,,,,,,,
2025-06-09T07:48:22.310+00:00Z,DATA_ACK_SENT_OK,,,,,,28,0xaa,,,,,,,,,,,,,,,,
2025-06-09T07:48:22.311+00:00Z,DECODE_SUCCESS,28,,,37,,,,True,1311,Msg #29,1749455301.0,0.76,-0.264,0.635,0.0,0.0,0.0,-22.5,-47.8,0.0,35.147621154785156,129.02676391601562,136.0
2025-06-09T07:48:23.768+00:00Z,CTRL_PKT_RECV,29,0x50,,,,,,,,,,,,,,,,,,,,,
2025-06-09T07:48:23.778+00:00Z,SEND_PERMIT_ACK_SENT_OK,,,,,,29,0x55,,,,,,,,,,,,,,,,
2025-06-09T07:48:24.411+00:00Z,DATA_LEN_BYTE_RECV,,LEN_0x26,38,,,,,,,,,,,,,,,,,,,,
2025-06-09T07:48:24.440+00:00Z,DATA_FRAME_RECV_FULL,29,DATA_FRAME,38,37,-94,,,,,,,,,,,,,,,,,,
2025-06-09T07:48:24.450+00:00Z,DATA_ACK_SENT_OK,,,,,,29,0xaa,,,,,,,,,,,,,,,,
2025-06-09T07:48:24.452+00:00Z,DECODE_SUCCESS,29,,,37,,,,True,1451,Msg #30,1749455303.0,0.759,-0.265,0.638,0.0,0.0,0.0,-22.5,-47.8,0.0,35.14762496948242,129.02676391601562,136.1
2025-06-09T07:48:25.910+00:00Z,CTRL_PKT_RECV,30,0x50,,,,,,,,,,,,,,,,,,,,,
2025-06-09T07:48:25.922+00:00Z,SEND_PERMIT_ACK_SENT_OK,,,,,,30,0x55,,,,,,,,,,,,,,,,
2025-06-09T07:48:26.553+00:00Z,DATA_LEN_BYTE_RECV,,LEN_0x26,38,,,,,,,,,,,,,,,,,,,,
2025-06-09T07:48:26.582+00:00Z,DATA_FRAME_RECV_FULL,30,DATA_FRAME,38,37,-93,,,,,,,,,,,,,,,,,,
2025-06-09T07:48:26.594+00:00Z,DATA_ACK_SENT_OK,,,,,,30,0xaa,,,,,,,,,,,,,,,,
2025-06-09T07:48:26.595+00:00Z,DECODE_SUCCESS,30,,,37,,,,True,1595,Msg #31,1749455305.0,0.758,-0.262,0.638,0.0,0.0,0.0,-22.5,-47.8,0.0,35.147621154785156,129.02676391601562,136.3
2025-06-09T07:48:28.052+00:00Z,CTRL_PKT_RECV,31,0x50,,,,,,,,,,,,,,,,,,,,,
2025-06-09T07:48:28.062+00:00Z,SEND_PERMIT_ACK_SENT_OK,,,,,,31,0x55,,,,,,,,,,,,,,,,
2025-06-09T07:48:28.694+00:00Z,DATA_LEN_BYTE_RECV,,LEN_0x26,38,,,,,,,,,,,,,,,,,,,,
2025-06-09T07:48:28.723+00:00Z,DATA_FRAME_RECV_FULL,31,DATA_FRAME,38,37,-93,,,,,,,,,,,,,,,,,,
2025-06-09T07:48:28.734+00:00Z,DATA_ACK_SENT_OK,,,,,,31,0xaa,,,,,,,,,,,,,,,,
2025-06-09T07:48:28.736+00:00Z,DECODE_SUCCESS,31,,,37,,,,True,1735,Msg #32,1749455307.0,0.759,-0.263,0.636,0.0,0.0,0.0,-22.5,-47.8,0.0,35.14762496948242,129.02676391601562,136.6
2025-06-09T07:48:30.198+00:00Z,CTRL_PKT_RECV,32,0x50,,,,,,,,,,,,,,,,,,,,,
2025-06-09T07:48:30.210+00:00Z,SEND_PERMIT_ACK_SENT_OK,,,,,,32,0x55,,,,,,,,,,,,,,,,
2025-06-09T07:48:30.841+00:00Z,DATA_LEN_BYTE_RECV,,LEN_0x26,38,,,,,,,,,,,,,,,,,,,,
2025-06-09T07:48:30.870+00:00Z,DATA_FRAME_RECV_FULL,32,DATA_FRAME,38,37,-94,,,,,,,,,,,,,,,,,,
2025-06-09T07:48:30.882+00:00Z,DATA_ACK_SENT_OK,,,,,,32,0xaa,,,,,,,,,,,,,,,,
2025-06-09T07:48:30.884+00:00Z,DECODE_SUCCESS,32,,,37,,,,True,1883,Msg #33,1749455309.0,0.76,-0.264,0.637,0.0,0.0,0.0,-22.5,-47.8,0.0,35.14763259887695,129.02676391601562,136.9
2025-06-09T07:48:32.343+00:00Z,CTRL_PKT_RECV,33,0x50,,,,,,,,,,,,,,,,,,,,,
2025-06-09T07:48:32.354+00:00Z,SEND_PERMIT_ACK_SENT_OK,,,,,,33,0x55,,,,,,,,,,,,,,,,
2025-06-09T07:48:32.985+00:00Z,DATA_LEN_BYTE_RECV,,LEN_0x26,38,,,,,,,,,,,,,,,,,,,,
2025-06-09T07:48:33.014+00:00Z,DATA_FRAME_RECV_FULL,33,DATA_FRAME,38,37,-94,,,,,,,,,,,,,,,,,,
2025-06-09T07:48:33.026+00:00Z,DATA_ACK_SENT_OK,,,,,,33,0xaa,,,,,,,,,,,,,,,,
2025-06-09T07:48:33.027+00:00Z,DECODE_SUCCESS,33,,,37,,,,True,1027,Msg #34,1749455312.0,0.762,-0.265,0.635,0.0,0.0,0.0,-22.5,-47.8,0.0,35.14762878417969,129.02676391601562,137.4
2025-06-09T07:48:34.482+00:00Z,CTRL_PKT_RECV,34,0x50,,,,,,,,,,,,,,,,,,,,,
2025-06-09T07:48:34.494+00:00Z,SEND_PERMIT_ACK_SENT_OK,,,,,,34,0x55,,,,,,,,,,,,,,,,
2025-06-09T07:48:35.125+00:00Z,DATA_LEN_BYTE_RECV,,LEN_0x26,38,,,,,,,,,,,,,,,,,,,,
2025-06-09T07:48:35.154+00:00Z,DATA_FRAME_RECV_FULL,34,DATA_FRAME,38,37,-94,,,,,,,,,,,,,,,,,,
2025-06-09T07:48:35.166+00:00Z,DATA_ACK_SENT_OK,,,,,,34,0xaa,,,,,,,,,,,,,,,,
2025-06-09T07:48:35.168+00:00Z,DECODE_SUCCESS,34,,,37,,,,True,1167,Msg #35,1749455314.0,0.76,-0.267,0.635,0.0,0.0,0.0,-22.5,-47.8,0.0,35.14763259887695,129.02676391601562,137.8
2025-06-09T07:48:36.623+00:00Z,CTRL_PKT_RECV,35,0x50,,,,,,,,,,,,,,,,,,,,,
2025-06-09T07:48:36.634+00:00Z,SEND_PERMIT_ACK_SENT_OK,,,,,,35,0x55,,,,,,,,,,,,,,,,
2025-06-09T07:48:37.266+00:00Z,DATA_LEN_BYTE_RECV,,LEN_0x26,38,,,,,,,,,,,,,,,,,,,,
2025-06-09T07:48:37.295+00:00Z,DATA_FRAME_RECV_FULL,35,DATA_FRAME,38,37,-94,,,,,,,,,,,,,,,,,,
2025-06-09T07:48:37.306+00:00Z,DATA_ACK_SENT_OK,,,,,,35,0xaa,,,,,,,,,,,,,,,,
2025-06-09T07:48:37.308+00:00Z,DECODE_SUCCESS,35,,,37,,,,True,1307,Msg #36,1749455316.0,0.759,-0.265,0.636,0.0,0.0,0.0,-22.5,-47.8,0.0,35.14763259887695,129.02676391601562,137.9
2025-06-09T07:48:38.766+00:00Z,CTRL_PKT_RECV,36,0x50,,,,,,,,,,,,,,,,,,,,,
2025-06-09T07:48:38.778+00:00Z,SEND_PERMIT_ACK_SENT_OK,,,,,,36,0x55,,,,,,,,,,,,,,,,
2025-06-09T07:48:39.409+00:00Z,DATA_LEN_BYTE_RECV,,LEN_0x26,38,,,,,,,,,,,,,,,,,,,,
2025-06-09T07:48:39.438+00:00Z,DATA_FRAME_RECV_FULL,36,DATA_FRAME,38,37,-93,,,,,,,,,,,,,,,,,,
2025-06-09T07:48:39.450+00:00Z,DATA_ACK_SENT_OK,,,,,,36,0xaa,,,,,,,,,,,,,,,,
2025-06-09T07:48:39.452+00:00Z,DECODE_SUCCESS,36,,,37,,,,True,1451,Msg #37,1749455318.0,0.76,-0.266,0.632,0.0,0.0,0.0,-22.5,-47.8,0.0,35.14763259887695,129.02676391601562,138.3
2025-06-09T07:48:40.898+00:00Z,CTRL_PKT_RECV,37,0x50,,,,,,,,,,,,,,,,,,,,,
2025-06-09T07:48:40.910+00:00Z,SEND_PERMIT_ACK_SENT_OK,,,,,,37,0x55,,,,,,,,,,,,,,,,
2025-06-09T07:48:41.566+00:00Z,DATA_LEN_BYTE_RECV,,LEN_0x2a,42,,,,,,,,,,,,,,,,,,,,
2025-06-09T07:48:41.599+00:00Z,DATA_FRAME_RECV_FULL,37,DATA_FRAME,42,41,-94,,,,,,,,,,,,,,,,,,
2025-06-09T07:48:41.610+00:00Z,DATA_ACK_SENT_OK,,,,,,37,0xaa,,,,,,,,,,,,,,,,
2025-06-09T07:48:41.612+00:00Z,DECODE_SUCCESS,37,,,41,,,,True,1611,Msg #38,1749455320.0,0.759,-0.264,0.635,0.0,0.1,0.0,-22.5,-47.8,0.0,35.14763641357422,129.0267791748047,138.4
2025-06-09T07:48:43.069+00:00Z,CTRL_PKT_RECV,38,0x50,,,,,,,,,,,,,,,,,,,,,
2025-06-09T07:48:43.078+00:00Z,SEND_PERMIT_ACK_SENT_OK,,,,,,38,0x55,,,,,,,,,,,,,,,,
2025-06-09T07:48:43.711+00:00Z,DATA_LEN_BYTE_RECV,,LEN_0x26,38,,,,,,,,,,,,,,,,,,,,
2025-06-09T07:48:43.740+00:00Z,DATA_FRAME_RECV_FULL,38,DATA_FRAME,38,37,-93,,,,,,,,,,,,,,,,,,
2025-06-09T07:48:43.750+00:00Z,DATA_ACK_SENT_OK,,,,,,38,0xaa,,,,,,,,,,,,,,,,
2025-06-09T07:48:43.752+00:00Z,DECODE_SUCCESS,38,,,37,,,,True,1751,Msg #39,1749455322.0,0.759,-0.266,0.639,0.0,0.0,0.0,-22.5,-47.8,0.0,35.14763641357422,129.0267791748047,138.7
2025-06-09T07:48:45.213+00:00Z,CTRL_PKT_RECV,39,0x50,,,,,,,,,,,,,,,,,,,,,
2025-06-09T07:48:45.222+00:00Z,SEND_PERMIT_ACK_SENT_OK,,,,,,39,0x55,,,,,,,,,,,,,,,,
2025-06-09T07:48:45.856+00:00Z,DATA_LEN_BYTE_RECV,,LEN_0x26,38,,,,,,,,,,,,,,,,,,,,
2025-06-09T07:48:45.885+00:00Z,DATA_FRAME_RECV_FULL,39,DATA_FRAME,38,37,-94,,,,,,,,,,,,,,,,,,
2025-06-09T07:48:45.894+00:00Z,DATA_ACK_SENT_OK,,,,,,39,0xaa,,,,,,,,,,,,,,,,
2025-06-09T07:48:45.896+00:00Z,DECODE_SUCCESS,39,,,37,,,,True,1895,Msg #40,1749455324.0,0.758,-0.263,0.638,0.0,0.0,0.0,-22.5,-47.8,0.0,35.14764404296875,129.0267791748047,139.2
2025-06-09T07:48:47.352+00:00Z,CTRL_PKT_RECV,40,0x50,,,,,,,,,,,,,,,,,,,,,
2025-06-09T07:48:47.362+00:00Z,SEND_PERMIT_ACK_SENT_OK,,,,,,40,0x55,,,,,,,,,,,,,,,,
2025-06-09T07:48:47.995+00:00Z,DATA_LEN_BYTE_RECV,,LEN_0x26,38,,,,,,,,,,,,,,,,,,,,
2025-06-09T07:48:48.024+00:00Z,DATA_FRAME_RECV_FULL,40,DATA_FRAME,38,37,-93,,,,,,,,,,,,,,,,,,
2025-06-09T07:48:48.034+00:00Z,DATA_ACK_SENT_OK,,,,,,40,0xaa,,,,,,,,,,,,,,,,
2025-06-09T07:48:48.035+00:00Z,DECODE_SUCCESS,40,,,37,,,,True,1035,Msg #41,1749455327.0,0.759,-0.265,0.635,0.0,0.0,0.0,-22.5,-47.8,0.0,35.14764404296875,129.0267791748047,139.3
2025-06-09T07:48:49.491+00:00Z,CTRL_PKT_RECV,41,0x50,,,,,,,,,,,,,,,,,,,,,
2025-06-09T07:48:49.502+00:00Z,SEND_PERMIT_ACK_SENT_OK,,,,,,41,0x55,,,,,,,,,,,,,,,,
2025-06-09T07:48:50.134+00:00Z,DATA_LEN_BYTE_RECV,,LEN_0x26,38,,,,,,,,,,,,,,,,,,,,
2025-06-09T07:48:50.163+00:00Z,DATA_FRAME_RECV_FULL,41,DATA_FRAME,38,37,-96,,,,,,,,,,,,,,,,,,
2025-06-09T07:48:50.174+00:00Z,DATA_ACK_SENT_OK,,,,,,41,0xaa,,,,,,,,,,,,,,,,
2025-06-09T07:48:50.176+00:00Z,DECODE_SUCCESS,41,,,37,,,,True,1175,Msg #42,1749455329.0,0.76,-0.264,0.636,0.0,0.0,0.0,-22.5,-47.8,0.0,35.147640228271484,129.0267791748047,139.7
2025-06-09T07:48:51.635+00:00Z,CTRL_PKT_RECV,42,0x50,,,,,,,,,,,,,,,,,,,,,
2025-06-09T07:48:51.646+00:00Z,SEND_PERMIT_ACK_SENT_OK,,,,,,42,0x55,,,,,,,,,,,,,,,,
2025-06-09T07:48:52.278+00:00Z,DATA_LEN_BYTE_RECV,,LEN_0x26,38,,,,,,,,,,,,,,,,,,,,
2025-06-09T07:48:52.307+00:00Z,DATA_FRAME_RECV_FULL,42,DATA_FRAME,38,37,-97,,,,,,,,,,,,,,,,,,
2025-06-09T07:48:52.318+00:00Z,DATA_ACK_SENT_OK,,,,,,42,0xaa,,,,,,,,,,,,,,,,
2025-06-09T07:48:52.319+00:00Z,DECODE_SUCCESS,42,,,37,,,,True,1319,Msg #43,1749455331.0,0.762,-0.265,0.634,0.0,0.0,0.0,-22.5,-47.8,0.0,35.147647857666016,129.02676391601562,140.2
2025-06-09T07:48:53.780+00:00Z,CTRL_PKT_RECV,43,0x50,,,,,,,,,,,,,,,,,,,,,
2025-06-09T07:48:53.790+00:00Z,SEND_PERMIT_ACK_SENT_OK,,,,,,43,0x55,,,,,,,,,,,,,,,,
2025-06-09T07:48:54.423+00:00Z,DATA_LEN_BYTE_RECV,,LEN_0x26,38,,,,,,,,,,,,,,,,,,,,
2025-06-09T07:48:54.452+00:00Z,DATA_FRAME_RECV_FULL,43,DATA_FRAME,38,37,-97,,,,,,,,,,,,,,,,,,
2025-06-09T07:48:54.463+00:00Z,DATA_ACK_SENT_OK,,,,,,43,0xaa,,,,,,,,,,,,,,,,
2025-06-09T07:48:54.464+00:00Z,DECODE_FAIL,43,,,37,,,,,,decompress_data returned None,,,,,,,,,,,,,
2025-06-09T07:49:00.307+00:00Z,CTRL_PKT_RECV,44,0x50,,,,,,,,,,,,,,,,,,,,,
2025-06-09T07:49:00.318+00:00Z,SEND_PERMIT_ACK_SENT_OK,,,,,,44,0x55,,,,,,,,,,,,,,,,
2025-06-09T07:49:00.950+00:00Z,DATA_LEN_BYTE_RECV,,LEN_0x26,38,,,,,,,,,,,,,,,,,,,,
2025-06-09T07:49:00.979+00:00Z,DATA_FRAME_RECV_FULL,44,DATA_FRAME,38,37,-96,,,,,,,,,,,,,,,,,,
2025-06-09T07:49:00.990+00:00Z,DATA_ACK_SENT_OK,,,,,,44,0xaa,,,,,,,,,,,,,,,,
2025-06-09T07:49:00.992+00:00Z,DECODE_SUCCESS,44,,,37,,,,True,992,Msg #44,1749455340.0,0.758,-0.265,0.637,0.0,0.0,0.0,-22.5,-47.8,0.0,35.14765548706055,129.02676391601562,139.8
2025-06-09T07:49:02.453+00:00Z,CTRL_PKT_RECV,45,0x50,,,,,,,,,,,,,,,,,,,,,
2025-06-09T07:49:02.462+00:00Z,SEND_PERMIT_ACK_SENT_OK,,,,,,45,0x55,,,,,,,,,,,,,,,,
2025-06-09T07:49:03.096+00:00Z,DATA_LEN_BYTE_RECV,,LEN_0x26,38,,,,,,,,,,,,,,,,,,,,
2025-06-09T07:49:03.125+00:00Z,DATA_FRAME_RECV_FULL,45,DATA_FRAME,38,37,-97,,,,,,,,,,,,,,,,,,
2025-06-09T07:49:03.135+00:00Z,DATA_ACK_SENT_OK,,,,,,45,0xaa,,,,,,,,,,,,,,,,
2025-06-09T07:49:03.136+00:00Z,DECODE_SUCCESS,45,,,37,,,,True,1136,Msg #45,1749455342.0,0.759,-0.263,0.636,0.0,0.0,0.0,-22.5,-47.8,0.0,35.14765167236328,129.0267791748047,139.3
2025-06-09T07:49:04.595+00:00Z,CTRL_PKT_RECV,46,0x50,,,,,,,,,,,,,,,,,,,,,
2025-06-09T07:49:04.606+00:00Z,SEND_PERMIT_ACK_SENT_OK,,,,,,46,0x55,,,,,,,,,,,,,,,,
2025-06-09T07:49:05.238+00:00Z,DATA_LEN_BYTE_RECV,,LEN_0x26,38,,,,,,,,,,,,,,,,,,,,
2025-06-09T07:49:05.267+00:00Z,DATA_FRAME_RECV_FULL,46,DATA_FRAME,38,37,-97,,,,,,,,,,,,,,,,,,
2025-06-09T07:49:05.278+00:00Z,DATA_ACK_SENT_OK,,,,,,46,0xaa,,,,,,,,,,,,,,,,
2025-06-09T07:49:05.279+00:00Z,DECODE_SUCCESS,46,,,37,,,,True,1279,Msg #46,1749455344.0,0.759,-0.264,0.635,0.0,0.0,0.0,-22.5,-47.8,0.0,35.14765930175781,129.02676391601562,139.1
2025-06-09T07:49:11.121+00:00Z,CTRL_PKT_RECV,47,0x50,,,,,,,,,,,,,,,,,,,,,
2025-06-09T07:49:11.130+00:00Z,SEND_PERMIT_ACK_SENT_OK,,,,,,47,0x55,,,,,,,,,,,,,,,,
2025-06-09T07:49:11.764+00:00Z,DATA_LEN_BYTE_RECV,,LEN_0x26,38,,,,,,,,,,,,,,,,,,,,
2025-06-09T07:49:11.793+00:00Z,DATA_FRAME_RECV_FULL,47,DATA_FRAME,38,37,-95,,,,,,,,,,,,,,,,,,
2025-06-09T07:49:11.802+00:00Z,DATA_ACK_SENT_OK,,,,,,47,0xaa,,,,,,,,,,,,,,,,
2025-06-09T07:49:11.803+00:00Z,DECODE_SUCCESS,47,,,37,,,,True,1803,Msg #47,1749455350.0,0.759,-0.264,0.637,0.0,0.0,0.0,-22.5,-47.8,0.0,35.14765548706055,129.02676391601562,139.0
2025-06-09T07:49:13.269+00:00Z,CTRL_PKT_RECV,48,0x50,,,,,,,,,,,,,,,,,,,,,
2025-06-09T07:49:13.278+00:00Z,SEND_PERMIT_ACK_SENT_OK,,,,,,48,0x55,,,,,,,,,,,,,,,,
2025-06-09T07:49:13.912+00:00Z,DATA_LEN_BYTE_RECV,,LEN_0x26,38,,,,,,,,,,,,,,,,,,,,
2025-06-09T07:49:13.941+00:00Z,DATA_FRAME_RECV_FULL,48,DATA_FRAME,38,37,-95,,,,,,,,,,,,,,,,,,
2025-06-09T07:49:13.950+00:00Z,DATA_ACK_SENT_OK,,,,,,48,0xaa,,,,,,,,,,,,,,,,
2025-06-09T07:49:13.952+00:00Z,DECODE_SUCCESS,48,,,37,,,,True,951,Msg #48,1749455353.0,0.758,-0.264,0.636,0.0,0.0,0.0,-22.5,-47.8,0.0,35.14765930175781,129.02674865722656,140.8
2025-06-09T07:49:15.405+00:00Z,CTRL_PKT_RECV,49,0x50,,,,,,,,,,,,,,,,,,,,,
2025-06-09T07:49:15.418+00:00Z,SEND_PERMIT_ACK_SENT_OK,,,,,,49,0x55,,,,,,,,,,,,,,,,
2025-06-09T07:49:16.048+00:00Z,DATA_LEN_BYTE_RECV,,LEN_0x26,38,,,,,,,,,,,,,,,,,,,,
2025-06-09T07:49:16.077+00:00Z,DATA_FRAME_RECV_FULL,49,DATA_FRAME,38,37,-96,,,,,,,,,,,,,,,,,,
2025-06-09T07:49:16.086+00:00Z,DATA_ACK_SENT_OK,,,,,,49,0xaa,,,,,,,,,,,,,,,,
2025-06-09T07:49:16.088+00:00Z,DECODE_SUCCESS,49,,,37,,,,True,1087,Msg #49,1749455355.0,0.76,-0.264,0.635,0.0,0.0,0.0,-22.5,-47.8,0.0,35.14766311645508,129.02674865722656,141.3
2025-06-09T07:49:17.548+00:00Z,CTRL_PKT_RECV,50,0x50,,,,,,,,,,,,,,,,,,,,,
2025-06-09T07:49:17.559+00:00Z,SEND_PERMIT_ACK_SENT_OK,,,,,,50,0x55,,,,,,,,,,,,,,,,
2025-06-09T07:49:18.191+00:00Z,DATA_LEN_BYTE_RECV,,LEN_0x26,38,,,,,,,,,,,,,,,,,,,,
2025-06-09T07:49:18.220+00:00Z,DATA_FRAME_RECV_FULL,50,DATA_FRAME,38,37,-95,,,,,,,,,,,,,,,,,,
2025-06-09T07:49:18.230+00:00Z,DATA_ACK_SENT_OK,,,,,,50,0xaa,,,,,,,,,,,,,,,,
2025-06-09T07:49:18.231+00:00Z,DECODE_SUCCESS,50,,,37,,,,True,1231,Msg #50,1749455357.0,0.759,-0.263,0.635,0.0,0.0,0.0,-22.5,-47.8,0.0,35.14765930175781,129.02674865722656,141.1
2025-06-09T07:49:19.692+00:00Z,CTRL_PKT_RECV,51,0x50,,,,,,,,,,,,,,,,,,,,,
2025-06-09T07:49:19.703+00:00Z,SEND_PERMIT_ACK_SENT_OK,,,,,,51,0x55,,,,,,,,,,,,,,,,
2025-06-09T07:49:20.335+00:00Z,DATA_LEN_BYTE_RECV,,LEN_0x26,38,,,,,,,,,,,,,,,,,,,,
2025-06-09T07:49:20.364+00:00Z,DATA_FRAME_RECV_FULL,51,DATA_FRAME,38,37,-95,,,,,,,,,,,,,,,,,,
2025-06-09T07:49:20.374+00:00Z,DATA_ACK_SENT_OK,,,,,,51,0xaa,,,,,,,,,,,,,,,,
2025-06-09T07:49:20.375+00:00Z,DECODE_SUCCESS,51,,,37,,,,True,1375,Msg #51,1749455359.0,0.759,-0.263,0.635,0.0,0.0,0.0,-22.5,-47.8,0.0,35.147666931152344,129.02674865722656,140.6
2025-06-09T07:49:21.838+00:00Z,CTRL_PKT_RECV,52,0x50,,,,,,,,,,,,,,,,,,,,,
2025-06-09T07:49:21.850+00:00Z,SEND_PERMIT_ACK_SENT_OK,,,,,,52,0x55,,,,,,,,,,,,,,,,
2025-06-09T07:49:22.481+00:00Z,DATA_LEN_BYTE_RECV,,LEN_0x26,38,,,,,,,,,,,,,,,,,,,,
2025-06-09T07:49:22.510+00:00Z,DATA_FRAME_RECV_FULL,52,DATA_FRAME,38,37,-96,,,,,,,,,,,,,,,,,,
2025-06-09T07:49:22.522+00:00Z,DATA_ACK_SENT_OK,,,,,,52,0xaa,,,,,,,,,,,,,,,,
2025-06-09T07:49:22.523+00:00Z,DECODE_SUCCESS,52,,,37,,,,True,1523,Msg #52,1749455361.0,0.76,-0.262,0.636,0.0,0.0,0.0,-22.5,-47.8,0.0,35.14766311645508,129.0267333984375,139.5
2025-06-09T07:49:23.976+00:00Z,CTRL_PKT_RECV,53,0x50,,,,,,,,,,,,,,,,,,,,,
2025-06-09T07:49:23.986+00:00Z,SEND_PERMIT_ACK_SENT_OK,,,,,,53,0x55,,,,,,,,,,,,,,,,
2025-06-09T07:49:24.618+00:00Z,DATA_LEN_BYTE_RECV,,LEN_0x26,38,,,,,,,,,,,,,,,,,,,,
2025-06-09T07:49:24.647+00:00Z,DATA_FRAME_RECV_FULL,53,DATA_FRAME,38,37,-96,,,,,,,,,,,,,,,,,,
2025-06-09T07:49:24.658+00:00Z,DATA_ACK_SENT_OK,,,,,,53,0xaa,,,,,,,,,,,,,,,,
2025-06-09T07:49:24.660+00:00Z,DECODE_SUCCESS,53,,,37,,,,True,1660,Msg #53,1749455363.0,0.76,-0.264,0.638,0.0,0.0,0.0,-22.5,-47.8,0.0,35.14765930175781,129.0267333984375,139.3
2025-06-09T07:49:26.124+00:00Z,CTRL_PKT_RECV,54,0x50,,,,,,,,,,,,,,,,,,,,,
2025-06-09T07:49:26.134+00:00Z,SEND_PERMIT_ACK_SENT_OK,,,,,,54,0x55,,,,,,,,,,,,,,,,
2025-06-09T07:49:26.767+00:00Z,DATA_LEN_BYTE_RECV,,LEN_0x26,38,,,,,,,,,,,,,,,,,,,,
2025-06-09T07:49:26.796+00:00Z,DATA_FRAME_RECV_FULL,54,DATA_FRAME,38,37,-95,,,,,,,,,,,,,,,,,,
2025-06-09T07:49:26.806+00:00Z,DATA_ACK_SENT_OK,,,,,,54,0xaa,,,,,,,,,,,,,,,,
2025-06-09T07:49:26.808+00:00Z,DECODE_SUCCESS,54,,,37,,,,True,1808,Msg #54,1749455365.0,0.76,-0.264,0.638,0.0,0.0,0.0,-22.5,-47.8,0.0,35.14765548706055,129.0267333984375,138.9
2025-06-09T07:49:28.270+00:00Z,CTRL_PKT_RECV,55,0x50,,,,,,,,,,,,,,,,,,,,,
2025-06-09T07:49:28.282+00:00Z,SEND_PERMIT_ACK_SENT_OK,,,,,,55,0x55,,,,,,,,,,,,,,,,
2025-06-09T07:49:28.913+00:00Z,DATA_LEN_BYTE_RECV,,LEN_0x26,38,,,,,,,,,,,,,,,,,,,,
2025-06-09T07:49:28.942+00:00Z,DATA_FRAME_RECV_FULL,55,DATA_FRAME,38,37,-96,,,,,,,,,,,,,,,,,,
2025-06-09T07:49:28.954+00:00Z,DATA_ACK_SENT_OK,,,,,,55,0xaa,,,,,,,,,,,,,,,,
2025-06-09T07:49:28.955+00:00Z,DECODE_SUCCESS,55,,,37,,,,True,955,Msg #55,1749455368.0,0.761,-0.266,0.637,0.0,0.0,0.0,-22.5,-47.8,0.0,35.147647857666016,129.02674865722656,138.5
2025-06-09T07:49:30.410+00:00Z,CTRL_PKT_RECV,56,0x50,,,,,,,,,,,,,,,,,,,,,
2025-06-09T07:49:30.422+00:00Z,SEND_PERMIT_ACK_SENT_OK,,,,,,56,0x55,,,,,,,,,,,,,,,,
2025-06-09T07:49:31.053+00:00Z,DATA_LEN_BYTE_RECV,,LEN_0x26,38,,,,,,,,,,,,,,,,,,,,
2025-06-09T07:49:31.082+00:00Z,DATA_FRAME_RECV_FULL,56,DATA_FRAME,38,37,-95,,,,,,,,,,,,,,,,,,
2025-06-09T07:49:31.094+00:00Z,DATA_ACK_SENT_OK,,,,,,56,0xaa,,,,,,,,,,,,,,,,
2025-06-09T07:49:31.095+00:00Z,DECODE_SUCCESS,56,,,37,,,,True,1095,Msg #56,1749455370.0,0.76,-0.265,0.635,0.0,0.0,0.0,-22.5,-47.8,0.0,35.147647857666016,129.02676391601562,137.9
2025-06-09T07:49:32.553+00:00Z,CTRL_PKT_RECV,57,0x50,,,,,,,,,,,,,,,,,,,,,
2025-06-09T07:49:32.562+00:00Z,SEND_PERMIT_ACK_SENT_OK,,,,,,57,0x55,,,,,,,,,,,,,,,,
2025-06-09T07:49:33.195+00:00Z,DATA_LEN_BYTE_RECV,,LEN_0x26,38,,,,,,,,,,,,,,,,,,,,
2025-06-09T07:49:33.224+00:00Z,DATA_FRAME_RECV_FULL,57,DATA_FRAME,38,37,-96,,,,,,,,,,,,,,,,,,
2025-06-09T07:49:33.234+00:00Z,DATA_ACK_SENT_OK,,,,,,57,0xaa,,,,,,,,,,,,,,,,
2025-06-09T07:49:33.236+00:00Z,DECODE_SUCCESS,57,,,37,,,,True,1235,Msg #57,1749455372.0,0.761,-0.264,0.636,0.0,0.0,0.0,-22.5,-47.8,0.0,35.14764404296875,129.02676391601562,137.0
2025-06-09T07:49:34.694+00:00Z,CTRL_PKT_RECV,58,0x50,,,,,,,,,,,,,,,,,,,,,
2025-06-09T07:49:34.706+00:00Z,SEND_PERMIT_ACK_SENT_OK,,,,,,58,0x55,,,,,,,,,,,,,,,,
2025-06-09T07:49:35.337+00:00Z,DATA_LEN_BYTE_RECV,,LEN_0x26,38,,,,,,,,,,,,,,,,,,,,
2025-06-09T07:49:35.366+00:00Z,DATA_FRAME_RECV_FULL,58,DATA_FRAME,38,37,-95,,,,,,,,,,,,,,,,,,
2025-06-09T07:49:35.378+00:00Z,DATA_ACK_SENT_OK,,,,,,58,0xaa,,,,,,,,,,,,,,,,
2025-06-09T07:49:35.380+00:00Z,DECODE_SUCCESS,58,,,37,,,,True,1379,Msg #58,1749455374.0,0.76,-0.265,0.633,0.0,0.0,0.0,-22.5,-47.8,0.0,35.147640228271484,129.02676391601562,136.6
2025-06-09T07:49:36.838+00:00Z,CTRL_PKT_RECV,59,0x50,,,,,,,,,,,,,,,,,,,,,
2025-06-09T07:49:36.850+00:00Z,SEND_PERMIT_ACK_SENT_OK,,,,,,59,0x55,,,,,,,,,,,,,,,,
2025-06-09T07:49:37.481+00:00Z,DATA_LEN_BYTE_RECV,,LEN_0x26,38,,,,,,,,,,,,,,,,,,,,
2025-06-09T07:49:37.510+00:00Z,DATA_FRAME_RECV_FULL,59,DATA_FRAME,38,37,-95,,,,,,,,,,,,,,,,,,
2025-06-09T07:49:37.523+00:00Z,DATA_ACK_SENT_OK,,,,,,59,0xaa,,,,,,,,,,,,,,,,
2025-06-09T07:49:37.524+00:00Z,DECODE_SUCCESS,59,,,37,,,,True,1524,Msg #59,1749455376.0,0.761,-0.267,0.635,0.0,0.0,0.0,-22.5,-47.8,0.0,35.147640228271484,129.02676391601562,136.3
2025-06-09T07:49:38.984+00:00Z,CTRL_PKT_RECV,60,0x50,,,,,,,,,,,,,,,,,,,,,
2025-06-09T07:49:38.995+00:00Z,SEND_PERMIT_ACK_SENT_OK,,,,,,60,0x55,,,,,,,,,,,,,,,,
2025-06-09T07:49:39.627+00:00Z,DATA_LEN_BYTE_RECV,,LEN_0x26,38,,,,,,,,,,,,,,,,,,,,
2025-06-09T07:49:39.656+00:00Z,DATA_FRAME_RECV_FULL,60,DATA_FRAME,38,37,-96,,,,,,,,,,,,,,,,,,
2025-06-09T07:49:39.666+00:00Z,DATA_ACK_SENT_OK,,,,,,60,0xaa,,,,,,,,,,,,,,,,
2025-06-09T07:49:39.667+00:00Z,DECODE_SUCCESS,60,,,37,,,,True,1667,Msg #60,1749455378.0,0.761,-0.266,0.635,0.0,0.0,0.0,-22.5,-47.8,0.0,35.14763641357422,129.02676391601562,136.0
2025-06-09T07:49:41.117+00:00Z,CTRL_PKT_RECV,61,0x50,,,,,,,,,,,,,,,,,,,,,
2025-06-09T07:49:41.127+00:00Z,SEND_PERMIT_ACK_SENT_OK,,,,,,61,0x55,,,,,,,,,,,,,,,,
2025-06-09T07:49:41.759+00:00Z,DATA_LEN_BYTE_RECV,,LEN_0x26,38,,,,,,,,,,,,,,,,,,,,
2025-06-09T07:49:41.789+00:00Z,DATA_FRAME_RECV_FULL,61,DATA_FRAME,38,37,-96,,,,,,,,,,,,,,,,,,
2025-06-09T07:49:41.798+00:00Z,DATA_ACK_SENT_OK,,,,,,61,0xaa,,,,,,,,,,,,,,,,
2025-06-09T07:49:41.799+00:00Z,DECODE_SUCCESS,61,,,37,,,,True,1799,Msg #61,1749455380.0,0.761,-0.265,0.635,0.0,0.0,0.0,-22.5,-47.8,0.0,35.14763259887695,129.02676391601562,135.9
2025-06-09T07:49:43.259+00:00Z,CTRL_PKT_RECV,62,0x50,,,,,,,,,,,,,,,,,,,,,
2025-06-09T07:49:43.271+00:00Z,SEND_PERMIT_ACK_SENT_OK,,,,,,62,0x55,,,,,,,,,,,,,,,,
2025-06-09T07:49:43.902+00:00Z,DATA_LEN_BYTE_RECV,,LEN_0x26,38,,,,,,,,,,,,,,,,,,,,
2025-06-09T07:49:43.931+00:00Z,DATA_FRAME_RECV_FULL,62,DATA_FRAME,38,37,-95,,,,,,,,,,,,,,,,,,
2025-06-09T07:49:43.943+00:00Z,DATA_ACK_SENT_OK,,,,,,62,0xaa,,,,,,,,,,,,,,,,
2025-06-09T07:49:43.944+00:00Z,DECODE_SUCCESS,62,,,37,,,,True,943,Msg #62,1749455383.0,0.761,-0.266,0.637,0.0,0.0,0.0,-22.5,-47.8,0.0,35.14762878417969,129.02676391601562,135.9
2025-06-09T07:49:45.402+00:00Z,CTRL_PKT_RECV,63,0x50,,,,,,,,,,,,,,,,,,,,,
2025-06-09T07:49:45.414+00:00Z,SEND_PERMIT_ACK_SENT_OK,,,,,,63,0x55,,,,,,,,,,,,,,,,
2025-06-09T07:49:46.045+00:00Z,DATA_LEN_BYTE_RECV,,LEN_0x26,38,,,,,,,,,,,,,,,,,,,,
2025-06-09T07:49:46.074+00:00Z,DATA_FRAME_RECV_FULL,63,DATA_FRAME,38,37,-94,,,,,,,,,,,,,,,,,,
2025-06-09T07:49:46.090+00:00Z,DATA_ACK_SENT_OK,,,,,,63,0xaa,,,,,,,,,,,,,,,,
2025-06-09T07:49:46.091+00:00Z,DECODE_SUCCESS,63,,,37,,,,True,1091,Msg #63,1749455385.0,0.761,-0.266,0.635,0.0,0.0,0.0,-22.5,-47.8,0.0,35.14762878417969,129.02674865722656,135.8
2025-06-09T07:49:47.555+00:00Z,CTRL_PKT_RECV,64,0x50,,,,,,,,,,,,,,,,,,,,,
2025-06-09T07:49:47.566+00:00Z,SEND_PERMIT_ACK_SENT_OK,,,,,,64,0x55,,,,,,,,,,,,,,,,
2025-06-09T07:49:48.198+00:00Z,DATA_LEN_BYTE_RECV,,LEN_0x26,38,,,,,,,,,,,,,,,,,,,,
2025-06-09T07:49:48.227+00:00Z,DATA_FRAME_RECV_FULL,64,DATA_FRAME,38,37,-95,,,,,,,,,,,,,,,,,,
2025-06-09T07:49:48.238+00:00Z,DATA_ACK_SENT_OK,,,,,,64,0xaa,,,,,,,,,,,,,,,,
2025-06-09T07:49:48.239+00:00Z,DECODE_SUCCESS,64,,,37,,,,True,1239,Msg #64,1749455387.0,0.761,-0.264,0.635,0.0,0.0,0.0,-22.5,-47.8,0.0,35.14763641357422,129.02682495117188,136.3
2025-06-09T07:49:49.692+00:00Z,CTRL_PKT_RECV,65,0x50,,,,,,,,,,,,,,,,,,,,,
2025-06-09T07:49:49.703+00:00Z,SEND_PERMIT_ACK_SENT_OK,,,,,,65,0x55,,,,,,,,,,,,,,,,
2025-06-09T07:49:50.335+00:00Z,DATA_LEN_BYTE_RECV,,LEN_0x26,38,,,,,,,,,,,,,,,,,,,,
2025-06-09T07:49:50.364+00:00Z,DATA_FRAME_RECV_FULL,65,DATA_FRAME,38,37,-93,,,,,,,,,,,,,,,,,,
2025-06-09T07:49:50.374+00:00Z,DATA_ACK_SENT_OK,,,,,,65,0xaa,,,,,,,,,,,,,,,,
2025-06-09T07:49:50.375+00:00Z,DECODE_SUCCESS,65,,,37,,,,True,1375,Msg #65,1749455389.0,0.759,-0.264,0.638,0.0,0.0,0.0,-22.5,-47.8,0.0,35.147640228271484,129.02685546875,136.7
2025-06-09T07:49:51.831+00:00Z,CTRL_PKT_RECV,66,0x50,,,,,,,,,,,,,,,,,,,,,
2025-06-09T07:49:51.842+00:00Z,SEND_PERMIT_ACK_SENT_OK,,,,,,66,0x55,,,,,,,,,,,,,,,,
2025-06-09T07:49:52.474+00:00Z,DATA_LEN_BYTE_RECV,,LEN_0x26,38,,,,,,,,,,,,,,,,,,,,
2025-06-09T07:49:52.503+00:00Z,DATA_FRAME_RECV_FULL,66,DATA_FRAME,38,37,-97,,,,,,,,,,,,,,,,,,
2025-06-09T07:49:52.514+00:00Z,DATA_ACK_SENT_OK,,,,,,66,0xaa,,,,,,,,,,,,,,,,
2025-06-09T07:49:52.515+00:00Z,DECODE_SUCCESS,66,,,37,,,,True,1515,Msg #66,1749455391.0,0.759,-0.265,0.634,0.0,0.0,0.0,-22.5,-47.8,0.0,35.14764404296875,129.02688598632812,137.6
2025-06-09T07:49:53.971+00:00Z,CTRL_PKT_RECV,67,0x50,,,,,,,,,,,,,,,,,,,,,
2025-06-09T07:49:53.982+00:00Z,SEND_PERMIT_ACK_SENT_OK,,,,,,67,0x55,,,,,,,,,,,,,,,,
2025-06-09T07:49:54.614+00:00Z,DATA_LEN_BYTE_RECV,,LEN_0x26,38,,,,,,,,,,,,,,,,,,,,
2025-06-09T07:49:54.643+00:00Z,DATA_FRAME_RECV_FULL,67,DATA_FRAME,38,37,-93,,,,,,,,,,,,,,,,,,
2025-06-09T07:49:54.654+00:00Z,DATA_ACK_SENT_OK,,,,,,67,0xaa,,,,,,,,,,,,,,,,
2025-06-09T07:49:54.656+00:00Z,DECODE_SUCCESS,67,,,37,,,,True,1655,Msg #67,1749455393.0,0.759,-0.264,0.636,0.0,0.0,0.0,-22.5,-47.8,0.0,35.147647857666016,129.0269012451172,138.1
2025-06-09T07:49:56.113+00:00Z,CTRL_PKT_RECV,68,0x50,,,,,,,,,,,,,,,,,,,,,
2025-06-09T07:49:56.122+00:00Z,SEND_PERMIT_ACK_SENT_OK,,,,,,68,0x55,,,,,,,,,,,,,,,,
2025-06-09T07:49:56.756+00:00Z,DATA_LEN_BYTE_RECV,,LEN_0x26,38,,,,,,,,,,,,,,,,,,,,
2025-06-09T07:49:56.785+00:00Z,DATA_FRAME_RECV_FULL,68,DATA_FRAME,38,37,-95,,,,,,,,,,,,,,,,,,
2025-06-09T07:49:56.798+00:00Z,DATA_ACK_SENT_OK,,,,,,68,0xaa,,,,,,,,,,,,,,,,
2025-06-09T07:49:56.800+00:00Z,DECODE_SUCCESS,68,,,37,,,,True,1799,Msg #68,1749455395.0,0.76,-0.267,0.637,0.0,0.0,0.0,-22.5,-47.8,0.0,35.147647857666016,129.02691650390625,138.2
2025-06-09T07:49:58.257+00:00Z,CTRL_PKT_RECV,69,0x50,,,,,,,,,,,,,,,,,,,,,
2025-06-09T07:49:58.266+00:00Z,SEND_PERMIT_ACK_SENT_OK,,,,,,69,0x55,,,,,,,,,,,,,,,,
2025-06-09T07:49:58.899+00:00Z,DATA_LEN_BYTE_RECV,,LEN_0x26,38,,,,,,,,,,,,,,,,,,,,
2025-06-09T07:49:58.928+00:00Z,DATA_FRAME_RECV_FULL,69,DATA_FRAME,38,37,-96,,,,,,,,,,,,,,,,,,
2025-06-09T07:49:58.939+00:00Z,DATA_ACK_SENT_OK,,,,,,69,0xaa,,,,,,,,,,,,,,,,
2025-06-09T07:49:58.940+00:00Z,DECODE_SUCCESS,69,,,37,,,,True,940,Msg #69,1749455398.0,0.759,-0.264,0.637,0.0,0.0,0.0,-22.5,-47.8,0.0,35.147647857666016,129.02691650390625,138.3
2025-06-09T07:50:00.401+00:00Z,CTRL_PKT_RECV,70,0x50,,,,,,,,,,,,,,,,,,,,,
2025-06-09T07:50:00.411+00:00Z,SEND_PERMIT_ACK_SENT_OK,,,,,,70,0x55,,,,,,,,,,,,,,,,
2025-06-09T07:50:01.044+00:00Z,DATA_LEN_BYTE_RECV,,LEN_0x26,38,,,,,,,,,,,,,,,,,,,,
2025-06-09T07:50:01.073+00:00Z,DATA_FRAME_RECV_FULL,70,DATA_FRAME,38,37,-95,,,,,,,,,,,,,,,,,,
2025-06-09T07:50:01.083+00:00Z,DATA_ACK_SENT_OK,,,,,,70,0xaa,,,,,,,,,,,,,,,,
2025-06-09T07:50:01.084+00:00Z,DECODE_SUCCESS,70,,,37,,,,True,1084,Msg #70,1749455400.0,0.761,-0.265,0.637,0.0,0.0,0.0,-22.5,-47.8,0.0,35.147647857666016,129.02691650390625,138.4
2025-06-09T07:50:02.547+00:00Z,CTRL_PKT_RECV,71,0x50,,,,,,,,,,,,,,,,,,,,,
2025-06-09T07:50:02.558+00:00Z,SEND_PERMIT_ACK_SENT_OK,,,,,,71,0x55,,,,,,,,,,,,,,,,
2025-06-09T07:50:03.189+00:00Z,DATA_LEN_BYTE_RECV,,LEN_0x26,38,,,,,,,,,,,,,,,,,,,,
2025-06-09T07:50:03.218+00:00Z,DATA_FRAME_RECV_FULL,71,DATA_FRAME,38,37,-97,,,,,,,,,,,,,,,,,,
2025-06-09T07:50:03.230+00:00Z,DATA_ACK_SENT_OK,,,,,,71,0xaa,,,,,,,,,,,,,,,,
2025-06-09T07:50:03.232+00:00Z,DECODE_SUCCESS,71,,,37,,,,True,1231,Msg #71,1749455402.0,0.76,-0.263,0.635,0.0,0.0,0.0,-22.5,-47.8,0.0,35.147647857666016,129.02691650390625,138.3
2025-06-09T07:50:04.689+00:00Z,CTRL_PKT_RECV,72,0x50,,,,,,,,,,,,,,,,,,,,,
2025-06-09T07:50:04.699+00:00Z,SEND_PERMIT_ACK_SENT_OK,,,,,,72,0x55,,,,,,,,,,,,,,,,
2025-06-09T07:50:05.331+00:00Z,DATA_LEN_BYTE_RECV,,LEN_0x26,38,,,,,,,,,,,,,,,,,,,,
2025-06-09T07:50:05.360+00:00Z,DATA_FRAME_RECV_FULL,72,DATA_FRAME,38,37,-96,,,,,,,,,,,,,,,,,,
2025-06-09T07:50:05.370+00:00Z,DATA_ACK_SENT_OK,,,,,,72,0xaa,,,,,,,,,,,,,,,,
2025-06-09T07:50:05.372+00:00Z,DECODE_SUCCESS,72,,,37,,,,True,1371,Msg #72,1749455404.0,0.759,-0.265,0.635,0.0,0.0,0.0,-22.5,-47.8,0.0,35.14764404296875,129.02691650390625,138.3
2025-06-09T07:50:06.826+00:00Z,CTRL_PKT_RECV,73,0x50,,,,,,,,,,,,,,,,,,,,,
2025-06-09T07:50:06.838+00:00Z,SEND_PERMIT_ACK_SENT_OK,,,,,,73,0x55,,,,,,,,,,,,,,,,
2025-06-09T07:50:07.468+00:00Z,DATA_LEN_BYTE_RECV,,LEN_0x26,38,,,,,,,,,,,,,,,,,,,,
2025-06-09T07:50:07.497+00:00Z,DATA_FRAME_RECV_FULL,73,DATA_FRAME,38,37,-96,,,,,,,,,,,,,,,,,,
2025-06-09T07:50:07.506+00:00Z,DATA_ACK_SENT_OK,,,,,,73,0xaa,,,,,,,,,,,,,,,,
2025-06-09T07:50:07.507+00:00Z,DECODE_SUCCESS,73,,,37,,,,True,1507,Msg #73,1749455406.0,0.76,-0.265,0.635,0.0,0.0,0.0,-22.5,-47.8,0.0,35.14763641357422,129.02691650390625,138.3
2025-06-09T07:50:08.965+00:00Z,CTRL_PKT_RECV,74,0x50,,,,,,,,,,,,,,,,,,,,,
2025-06-09T07:50:08.974+00:00Z,SEND_PERMIT_ACK_SENT_OK,,,,,,74,0x55,,,,,,,,,,,,,,,,
2025-06-09T07:50:09.607+00:00Z,DATA_LEN_BYTE_RECV,,LEN_0x26,38,,,,,,,,,,,,,,,,,,,,
2025-06-09T07:50:09.636+00:00Z,DATA_FRAME_RECV_FULL,74,DATA_FRAME,38,37,-96,,,,,,,,,,,,,,,,,,
2025-06-09T07:50:09.646+00:00Z,DATA_ACK_SENT_OK,,,,,,74,0xaa,,,,,,,,,,,,,,,,
2025-06-09T07:50:09.647+00:00Z,DECODE_SUCCESS,74,,,37,,,,True,1647,Msg #74,1749455408.0,0.759,-0.266,0.635,0.0,0.0,0.0,-22.5,-47.8,0.0,35.14763259887695,129.02691650390625,138.3
2025-06-09T07:50:11.107+00:00Z,CTRL_PKT_RECV,75,0x50,,,,,,,,,,,,,,,,,,,,,
2025-06-09T07:50:11.118+00:00Z,SEND_PERMIT_ACK_SENT_OK,,,,,,75,0x55,,,,,,,,,,,,,,,,
2025-06-09T07:50:11.750+00:00Z,DATA_LEN_BYTE_RECV,,LEN_0x26,38,,,,,,,,,,,,,,,,,,,,
2025-06-09T07:50:11.779+00:00Z,DATA_FRAME_RECV_FULL,75,DATA_FRAME,38,37,-96,,,,,,,,,,,,,,,,,,
2025-06-09T07:50:11.790+00:00Z,DATA_ACK_SENT_OK,,,,,,75,0xaa,,,,,,,,,,,,,,,,
2025-06-09T07:50:11.791+00:00Z,DECODE_SUCCESS,75,,,37,,,,True,1791,Msg #75,1749455410.0,0.76,-0.265,0.637,0.0,0.0,0.0,-22.5,-47.8,0.0,35.14765167236328,129.02694702148438,136.8
2025-06-09T07:50:13.253+00:00Z,CTRL_PKT_RECV,76,0x50,,,,,,,,,,,,,,,,,,,,,
2025-06-09T07:50:13.262+00:00Z,SEND_PERMIT_ACK_SENT_OK,,,,,,76,0x55,,,,,,,,,,,,,,,,
2025-06-09T07:50:13.896+00:00Z,DATA_LEN_BYTE_RECV,,LEN_0x26,38,,,,,,,,,,,,,,,,,,,,
2025-06-09T07:50:13.925+00:00Z,DATA_FRAME_RECV_FULL,76,DATA_FRAME,38,37,-96,,,,,,,,,,,,,,,,,,
2025-06-09T07:50:13.934+00:00Z,DATA_ACK_SENT_OK,,,,,,76,0xaa,,,,,,,,,,,,,,,,
2025-06-09T07:50:13.936+00:00Z,DECODE_SUCCESS,76,,,37,,,,True,935,Msg #76,1749455413.0,0.759,-0.265,0.636,0.0,0.0,0.0,-22.5,-47.8,0.0,35.14766311645508,129.02694702148438,132.6
2025-06-09T07:50:15.397+00:00Z,CTRL_PKT_RECV,77,0x50,,,,,,,,,,,,,,,,,,,,,
2025-06-09T07:50:15.407+00:00Z,SEND_PERMIT_ACK_SENT_OK,,,,,,77,0x55,,,,,,,,,,,,,,,,
2025-06-09T07:50:16.040+00:00Z,DATA_LEN_BYTE_RECV,,LEN_0x26,38,,,,,,,,,,,,,,,,,,,,
2025-06-09T07:50:16.069+00:00Z,DATA_FRAME_RECV_FULL,77,DATA_FRAME,38,37,-95,,,,,,,,,,,,,,,,,,
2025-06-09T07:50:16.078+00:00Z,DATA_ACK_SENT_OK,,,,,,77,0xaa,,,,,,,,,,,,,,,,
2025-06-09T07:50:16.080+00:00Z,DECODE_SUCCESS,77,,,37,,,,True,1079,Msg #77,1749455415.0,0.757,-0.263,0.636,0.0,0.0,0.0,-22.5,-47.8,0.0,35.14767837524414,129.0269012451172,126.6
2025-06-09T07:50:17.540+00:00Z,CTRL_PKT_RECV,78,0x50,,,,,,,,,,,,,,,,,,,,,
2025-06-09T07:50:17.550+00:00Z,SEND_PERMIT_ACK_SENT_OK,,,,,,78,0x55,,,,,,,,,,,,,,,,
2025-06-09T07:50:18.183+00:00Z,DATA_LEN_BYTE_RECV,,LEN_0x26,38,,,,,,,,,,,,,,,,,,,,
2025-06-09T07:50:18.212+00:00Z,DATA_FRAME_RECV_FULL,78,DATA_FRAME,38,37,-96,,,,,,,,,,,,,,,,,,
2025-06-09T07:50:18.222+00:00Z,DATA_ACK_SENT_OK,,,,,,78,0xaa,,,,,,,,,,,,,,,,
2025-06-09T07:50:18.224+00:00Z,DECODE_SUCCESS,78,,,37,,,,True,1223,Msg #78,1749455417.0,0.761,-0.263,0.633,0.0,0.0,0.0,-22.5,-47.8,0.0,35.1476936340332,129.02687072753906,120.7
2025-06-09T07:50:19.687+00:00Z,CTRL_PKT_RECV,79,0x50,,,,,,,,,,,,,,,,,,,,,
2025-06-09T07:50:19.698+00:00Z,SEND_PERMIT_ACK_SENT_OK,,,,,,79,0x55,,,,,,,,,,,,,,,,
2025-06-09T07:50:20.329+00:00Z,DATA_LEN_BYTE_RECV,,LEN_0x26,38,,,,,,,,,,,,,,,,,,,,
2025-06-09T07:50:20.358+00:00Z,DATA_FRAME_RECV_FULL,79,DATA_FRAME,38,37,-97,,,,,,,,,,,,,,,,,,
2025-06-09T07:50:20.370+00:00Z,DATA_ACK_SENT_OK,,,,,,79,0xaa,,,,,,,,,,,,,,,,
2025-06-09T07:50:20.371+00:00Z,DECODE_SUCCESS,79,,,37,,,,True,1371,Msg #79,1749455419.0,0.761,-0.263,0.633,0.0,0.0,0.0,-22.5,-47.8,0.0,35.147705078125,129.02682495117188,114.4
2025-06-09T07:50:21.834+00:00Z,CTRL_PKT_RECV,80,0x50,,,,,,,,,,,,,,,,,,,,,
2025-06-09T07:50:21.846+00:00Z,SEND_PERMIT_ACK_SENT_OK,,,,,,80,0x55,,,,,,,,,,,,,,,,
2025-06-09T07:50:22.476+00:00Z,DATA_LEN_BYTE_RECV,,LEN_0x26,38,,,,,,,,,,,,,,,,,,,,
2025-06-09T07:50:22.505+00:00Z,DATA_FRAME_RECV_FULL,80,DATA_FRAME,38,37,-95,,,,,,,,,,,,,,,,,,
2025-06-09T07:50:22.518+00:00Z,DATA_ACK_SENT_OK,,,,,,80,0xaa,,,,,,,,,,,,,,,,
2025-06-09T07:50:22.519+00:00Z,DECODE_SUCCESS,80,,,37,,,,True,1519,Msg #80,1749455421.0,0.759,-0.263,0.634,0.0,0.0,0.0,-22.5,-47.8,0.0,35.14772415161133,129.0268096923828,109.6
2025-06-09T07:50:23.974+00:00Z,CTRL_PKT_RECV,81,0x50,,,,,,,,,,,,,,,,,,,,,
2025-06-09T07:50:23.986+00:00Z,SEND_PERMIT_ACK_SENT_OK,,,,,,81,0x55,,,,,,,,,,,,,,,,
2025-06-09T07:50:24.617+00:00Z,DATA_LEN_BYTE_RECV,,LEN_0x26,38,,,,,,,,,,,,,,,,,,,,
2025-06-09T07:50:24.646+00:00Z,DATA_FRAME_RECV_FULL,81,DATA_FRAME,38,37,-93,,,,,,,,,,,,,,,,,,
2025-06-09T07:50:24.658+00:00Z,DATA_ACK_SENT_OK,,,,,,81,0xaa,,,,,,,,,,,,,,,,
2025-06-09T07:50:24.660+00:00Z,DECODE_SUCCESS,81,,,37,,,,True,1659,Msg #81,1749455423.0,0.76,-0.262,0.636,0.0,0.0,0.0,-22.5,-47.8,0.0,35.147735595703125,129.0267791748047,105.3
2025-06-09T07:50:26.121+00:00Z,CTRL_PKT_RECV,82,0x50,,,,,,,,,,,,,,,,,,,,,
2025-06-09T07:50:26.130+00:00Z,SEND_PERMIT_ACK_SENT_OK,,,,,,82,0x55,,,,,,,,,,,,,,,,
2025-06-09T07:50:26.763+00:00Z,DATA_LEN_BYTE_RECV,,LEN_0x26,38,,,,,,,,,,,,,,,,,,,,
2025-06-09T07:50:26.792+00:00Z,DATA_FRAME_RECV_FULL,82,DATA_FRAME,38,37,-93,,,,,,,,,,,,,,,,,,
2025-06-09T07:50:26.802+00:00Z,DATA_ACK_SENT_OK,,,,,,82,0xaa,,,,,,,,,,,,,,,,
2025-06-09T07:50:26.804+00:00Z,DECODE_SUCCESS,82,,,37,,,,True,1803,Msg #82,1749455425.0,0.759,-0.264,0.634,0.0,0.0,0.0,-22.5,-47.8,0.0,35.14772415161133,129.0267791748047,104.8
2025-06-09T07:50:28.261+00:00Z,CTRL_PKT_RECV,83,0x50,,,,,,,,,,,,,,,,,,,,,
2025-06-09T07:50:28.274+00:00Z,SEND_PERMIT_ACK_SENT_OK,,,,,,83,0x55,,,,,,,,,,,,,,,,
2025-06-09T07:50:28.904+00:00Z,DATA_LEN_BYTE_RECV,,LEN_0x26,38,,,,,,,,,,,,,,,,,,,,
2025-06-09T07:50:28.933+00:00Z,DATA_FRAME_RECV_FULL,83,DATA_FRAME,38,37,-93,,,,,,,,,,,,,,,,,,
2025-06-09T07:50:28.943+00:00Z,DATA_ACK_SENT_OK,,,,,,83,0xaa,,,,,,,,,,,,,,,,
2025-06-09T07:50:28.944+00:00Z,DECODE_SUCCESS,83,,,37,,,,True,944,Msg #83,1749455428.0,0.761,-0.263,0.634,0.0,0.0,0.0,-22.5,-47.8,0.0,35.14772415161133,129.0267791748047,104.8
2025-06-09T07:50:30.398+00:00Z,CTRL_PKT_RECV,84,0x50,,,,,,,,,,,,,,,,,,,,,
2025-06-09T07:50:30.410+00:00Z,SEND_PERMIT_ACK_SENT_OK,,,,,,84,0x55,,,,,,,,,,,,,,,,
2025-06-09T07:50:31.040+00:00Z,DATA_LEN_BYTE_RECV,,LEN_0x26,38,,,,,,,,,,,,,,,,,,,,
2025-06-09T07:50:31.069+00:00Z,DATA_FRAME_RECV_FULL,84,DATA_FRAME,38,37,-96,,,,,,,,,,,,,,,,,,
2025-06-09T07:50:31.078+00:00Z,DATA_ACK_SENT_OK,,,,,,84,0xaa,,,,,,,,,,,,,,,,
2025-06-09T07:50:31.079+00:00Z,DECODE_SUCCESS,84,,,37,,,,True,1079,Msg #84,1749455430.0,0.761,-0.265,0.634,0.0,0.0,0.0,-22.5,-47.8,0.0,35.14772033691406,129.0267791748047,104.1
2025-06-09T07:50:32.536+00:00Z,CTRL_PKT_RECV,85,0x50,,,,,,,,,,,,,,,,,,,,,
2025-06-09T07:50:32.546+00:00Z,SEND_PERMIT_ACK_SENT_OK,,,,,,85,0x55,,,,,,,,,,,,,,,,
2025-06-09T07:50:33.179+00:00Z,DATA_LEN_BYTE_RECV,,LEN_0x26,38,,,,,,,,,,,,,,,,,,,,
2025-06-09T07:50:33.208+00:00Z,DATA_FRAME_RECV_FULL,85,DATA_FRAME,38,37,-96,,,,,,,,,,,,,,,,,,
2025-06-09T07:50:33.218+00:00Z,DATA_ACK_SENT_OK,,,,,,85,0xaa,,,,,,,,,,,,,,,,
2025-06-09T07:50:33.220+00:00Z,DECODE_SUCCESS,85,,,37,,,,True,1219,Msg #85,1749455432.0,0.76,-0.265,0.635,0.0,0.0,0.0,-22.5,-47.8,0.0,35.1477165222168,129.02676391601562,102.9
2025-06-09T07:50:34.683+00:00Z,CTRL_PKT_RECV,86,0x50,,,,,,,,,,,,,,,,,,,,,
2025-06-09T07:50:34.694+00:00Z,SEND_PERMIT_ACK_SENT_OK,,,,,,86,0x55,,,,,,,,,,,,,,,,
2025-06-09T07:50:35.326+00:00Z,DATA_LEN_BYTE_RECV,,LEN_0x26,38,,,,,,,,,,,,,,,,,,,,
2025-06-09T07:50:35.355+00:00Z,DATA_FRAME_RECV_FULL,86,DATA_FRAME,38,37,-92,,,,,,,,,,,,,,,,,,
2025-06-09T07:50:35.366+00:00Z,DATA_ACK_SENT_OK,,,,,,86,0xaa,,,,,,,,,,,,,,,,
2025-06-09T07:50:35.367+00:00Z,DECODE_SUCCESS,86,,,37,,,,True,1367,Msg #86,1749455434.0,0.758,-0.264,0.638,0.0,0.0,0.0,-22.5,-47.8,0.0,35.1477165222168,129.02676391601562,102.4
2025-06-09T07:50:36.831+00:00Z,CTRL_PKT_RECV,87,0x50,,,,,,,,,,,,,,,,,,,,,
2025-06-09T07:50:36.842+00:00Z,SEND_PERMIT_ACK_SENT_OK,,,,,,87,0x55,,,,,,,,,,,,,,,,
2025-06-09T07:50:37.474+00:00Z,DATA_LEN_BYTE_RECV,,LEN_0x26,38,,,,,,,,,,,,,,,,,,,,
2025-06-09T07:50:37.503+00:00Z,DATA_FRAME_RECV_FULL,87,DATA_FRAME,38,37,-93,,,,,,,,,,,,,,,,,,
2025-06-09T07:50:37.514+00:00Z,DATA_ACK_SENT_OK,,,,,,87,0xaa,,,,,,,,,,,,,,,,
2025-06-09T07:50:37.515+00:00Z,DECODE_SUCCESS,87,,,37,,,,True,1515,Msg #87,1749455436.0,0.76,-0.265,0.636,0.0,0.0,0.0,-22.5,-47.8,0.0,35.14772033691406,129.02676391601562,101.8
2025-06-09T07:50:38.975+00:00Z,CTRL_PKT_RECV,88,0x50,,,,,,,,,,,,,,,,,,,,,
2025-06-09T07:50:38.986+00:00Z,SEND_PERMIT_ACK_SENT_OK,,,,,,88,0x55,,,,,,,,,,,,,,,,
2025-06-09T07:50:39.617+00:00Z,DATA_LEN_BYTE_RECV,,LEN_0x26,38,,,,,,,,,,,,,,,,,,,,
2025-06-09T07:50:39.646+00:00Z,DATA_FRAME_RECV_FULL,88,DATA_FRAME,38,37,-94,,,,,,,,,,,,,,,,,,
2025-06-09T07:50:39.658+00:00Z,DATA_ACK_SENT_OK,,,,,,88,0xaa,,,,,,,,,,,,,,,,
2025-06-09T07:50:39.659+00:00Z,DECODE_SUCCESS,88,,,37,,,,True,1659,Msg #88,1749455438.0,0.761,-0.264,0.636,0.0,0.0,0.0,-22.5,-47.8,0.0,35.14772033691406,129.02676391601562,101.9
2025-06-09T07:50:41.116+00:00Z,CTRL_PKT_RECV,89,0x50,,,,,,,,,,,,,,,,,,,,,
2025-06-09T07:50:41.126+00:00Z,SEND_PERMIT_ACK_SENT_OK,,,,,,89,0x55,,,,,,,,,,,,,,,,
2025-06-09T07:50:41.759+00:00Z,DATA_LEN_BYTE_RECV,,LEN_0x26,38,,,,,,,,,,,,,,,,,,,,
2025-06-09T07:50:41.788+00:00Z,DATA_FRAME_RECV_FULL,89,DATA_FRAME,38,37,-95,,,,,,,,,,,,,,,,,,
2025-06-09T07:50:41.799+00:00Z,DATA_ACK_SENT_OK,,,,,,89,0xaa,,,,,,,,,,,,,,,,
2025-06-09T07:50:41.800+00:00Z,DECODE_SUCCESS,89,,,37,,,,True,1800,Msg #89,1749455440.0,0.761,-0.265,0.635,0.0,0.0,0.0,-22.5,-47.8,0.0,35.1477165222168,129.02676391601562,103.3
2025-06-09T07:50:43.257+00:00Z,CTRL_PKT_RECV,90,0x50,,,,,,,,,,,,,,,,,,,,,
2025-06-09T07:50:43.267+00:00Z,SEND_PERMIT_ACK_SENT_OK,,,,,,90,0x55,,,,,,,,,,,,,,,,
2025-06-09T07:50:43.900+00:00Z,DATA_LEN_BYTE_RECV,,LEN_0x26,38,,,,,,,,,,,,,,,,,,,,
2025-06-09T07:50:43.929+00:00Z,DATA_FRAME_RECV_FULL,90,DATA_FRAME,38,37,-95,,,,,,,,,,,,,,,,,,
2025-06-09T07:50:43.939+00:00Z,DATA_ACK_SENT_OK,,,,,,90,0xaa,,,,,,,,,,,,,,,,
2025-06-09T07:50:43.940+00:00Z,DECODE_SUCCESS,90,,,37,,,,True,940,Msg #90,1749455443.0,0.761,-0.264,0.635,0.0,0.0,0.0,-22.5,-47.8,0.0,35.147708892822266,129.0267791748047,103.9
2025-06-09T07:50:45.402+00:00Z,CTRL_PKT_RECV,91,0x50,,,,,,,,,,,,,,,,,,,,,
2025-06-09T07:50:45.414+00:00Z,SEND_PERMIT_ACK_SENT_OK,,,,,,91,0x55,,,,,,,,,,,,,,,,
2025-06-09T07:50:46.044+00:00Z,DATA_LEN_BYTE_RECV,,LEN_0x26,38,,,,,,,,,,,,,,,,,,,,
2025-06-09T07:50:46.074+00:00Z,DATA_FRAME_RECV_FULL,91,DATA_FRAME,38,37,-95,,,,,,,,,,,,,,,,,,
2025-06-09T07:50:46.086+00:00Z,DATA_ACK_SENT_OK,,,,,,91,0xaa,,,,,,,,,,,,,,,,
2025-06-09T07:50:46.087+00:00Z,DECODE_SUCCESS,91,,,37,,,,True,1087,Msg #91,1749455445.0,0.761,-0.263,0.635,0.0,0.0,0.0,-22.5,-47.8,0.0,35.1476936340332,129.0267791748047,105.1
2025-06-09T07:50:47.541+00:00Z,CTRL_PKT_RECV,92,0x50,,,,,,,,,,,,,,,,,,,,,
2025-06-09T07:50:47.551+00:00Z,SEND_PERMIT_ACK_SENT_OK,,,,,,92,0x55,,,,,,,,,,,,,,,,
2025-06-09T07:50:48.184+00:00Z,DATA_LEN_BYTE_RECV,,LEN_0x26,38,,,,,,,,,,,,,,,,,,,,
2025-06-09T07:50:48.213+00:00Z,DATA_FRAME_RECV_FULL,92,DATA_FRAME,38,37,-93,,,,,,,,,,,,,,,,,,
2025-06-09T07:50:48.222+00:00Z,DATA_ACK_SENT_OK,,,,,,92,0xaa,,,,,,,,,,,,,,,,
2025-06-09T07:50:48.224+00:00Z,DECODE_SUCCESS,92,,,37,,,,True,1223,Msg #92,1749455447.0,0.761,-0.263,0.637,0.0,0.0,0.0,-22.5,-47.8,0.0,35.14768600463867,129.0267791748047,106.1
2025-06-09T07:50:49.690+00:00Z,CTRL_PKT_RECV,93,0x50,,,,,,,,,,,,,,,,,,,,,
2025-06-09T07:50:49.702+00:00Z,SEND_PERMIT_ACK_SENT_OK,,,,,,93,0x55,,,,,,,,,,,,,,,,
2025-06-09T07:50:50.333+00:00Z,DATA_LEN_BYTE_RECV,,LEN_0x26,38,,,,,,,,,,,,,,,,,,,,
2025-06-09T07:50:50.362+00:00Z,DATA_FRAME_RECV_FULL,93,DATA_FRAME,38,37,-94,,,,,,,,,,,,,,,,,,
2025-06-09T07:50:50.374+00:00Z,DATA_ACK_SENT_OK,,,,,,93,0xaa,,,,,,,,,,,,,,,,
