log_timestamp_utc,event_type,frame_seq_recv,rssi_dbm,notes,packet_type_recv_hex,data_len_byte_value,payload_len_on_wire,ack_seq_sent,ack_type_sent_hex,is_decoded_ts_valid,calculated_latency_ms,decoded_ts,decoded_accel_ax,decoded_accel_ay,decoded_accel_az,decoded_gyro_gx,decoded_gyro_gy,decoded_gyro_gz,decoded_angle_roll,decoded_angle_pitch,decoded_angle_yaw,decoded_gps_lat,decoded_gps_lon,decoded_gps_altitude
2025-06-13T06:20:21.772+00:00Z,SERIAL_PORT_OPEN,,,,,,,,,,,,,,,,,,,,,,,
2025-06-13T06:20:28.781+00:00Z,HANDSHAKE_SYN_TIMEOUT,,,,,,,,,,,,,,,,,,,,,,,
2025-06-13T06:20:35.789+00:00Z,HANDSHAKE_SYN_TIMEOUT,,,,,,,,,,,,,,,,,,,,,,,
2025-06-13T06:20:42.797+00:00Z,HANDSHAKE_SYN_TIMEOUT,,,,,,,,,,,,,,,,,,,,,,,
2025-06-13T06:20:49.806+00:00Z,HANDSHAKE_SYN_TIMEOUT,,,,,,,,,,,,,,,,,,,,,,,
2025-06-13T06:20:56.814+00:00Z,HANDSHAKE_SYN_TIMEOUT,,,,,,,,,,,,,,,,,,,,,,,
2025-06-13T06:21:00.470+00:00Z,HANDSHAKE_SYN_RECV,,,,,,,,,,,,,,,,,,,,,,,
2025-06-13T06:21:00.482+00:00Z,HANDSHAKE_ACK_SENT,,,,,,,0,0x00,,,,,,,,,,,,,,,
2025-06-13T06:21:00.483+00:00Z,HANDSHAKE_SUCCESS,,,,,,,,,,,,,,,,,,,,,,,
2025-06-13T06:21:05.037+00:00Z,CTRL_PKT_RECV,0,,,0x50,,,,,,,,,,,,,,,,,,,
2025-06-13T06:21:05.050+00:00Z,SEND_PERMIT_ACK_SENT,,,,,,,0,0x55,,,,,,,,,,,,,,,
2025-06-13T06:21:08.379+00:00Z,CTRL_PKT_RECV,1,,,0x50,,,,,,,,,,,,,,,,,,,
2025-06-13T06:21:08.391+00:00Z,SEND_PERMIT_ACK_SENT,,,,,,,1,0x55,,,,,,,,,,,,,,,
2025-06-13T06:21:15.401+00:00Z,CTRL_PKT_RECV,3,,,0x50,,,,,,,,,,,,,,,,,,,
2025-06-13T06:21:15.410+00:00Z,SEND_PERMIT_ACK_SENT,,,,,,,3,0x55,,,,,,,,,,,,,,,
2025-06-13T06:21:18.956+00:00Z,DATA_FRAME_RECV,3,-22,,,33,32,,,,,,,,,,,,,,,,,
2025-06-13T06:21:18.966+00:00Z,DATA_ACK_SENT,,,,,,,3,0xaa,,,,,,,,,,,,,,,
2025-06-13T06:21:18.970+00:00Z,DECODE_SUCCESS,3,-22,,,,,,,True,4967,1749795674.0,-0.615,0.274,0.777,0.0,0.0,0.0,19.5,36.8,-20.9,33.215328216552734,127.40106964111328,0.0
2025-06-13T06:21:22.298+00:00Z,CTRL_PKT_RECV,4,,,0x50,,,,,,,,,,,,,,,,,,,
2025-06-13T06:21:22.310+00:00Z,SEND_PERMIT_ACK_SENT,,,,,,,4,0x55,,,,,,,,,,,,,,,
2025-06-13T06:21:29.321+00:00Z,CTRL_PKT_RECV,6,,,0x50,,,,,,,,,,,,,,,,,,,
2025-06-13T06:21:29.330+00:00Z,SEND_PERMIT_ACK_SENT,,,,,,,6,0x55,,,,,,,,,,,,,,,
2025-06-13T06:21:32.876+00:00Z,DATA_FRAME_RECV,6,-22,,,33,32,,,,,,,,,,,,,,,,,
2025-06-13T06:21:32.886+00:00Z,DATA_ACK_SENT,,,,,,,6,0xaa,,,,,,,,,,,,,,,
2025-06-13T06:21:32.890+00:00Z,DECODE_SUCCESS,6,-22,,,,,,,True,4887,1749795688.0,-0.617,0.275,0.774,0.0,0.0,0.0,19.5,36.8,-20.9,35.08311462402344,128.816650390625,0.0
2025-06-13T06:21:36.218+00:00Z,CTRL_PKT_RECV,7,,,0x50,,,,,,,,,,,,,,,,,,,
2025-06-13T06:21:36.230+00:00Z,SEND_PERMIT_ACK_SENT,,,,,,,7,0x55,,,,,,,,,,,,,,,
2025-06-13T06:21:43.237+00:00Z,CTRL_PKT_RECV,9,,,0x50,,,,,,,,,,,,,,,,,,,
2025-06-13T06:21:43.246+00:00Z,SEND_PERMIT_ACK_SENT,,,,,,,9,0x55,,,,,,,,,,,,,,,
2025-06-13T06:21:46.792+00:00Z,DATA_FRAME_RECV,9,-22,,,33,32,,,,,,,,,,,,,,,,,
2025-06-13T06:21:46.802+00:00Z,DATA_ACK_SENT,,,,,,,9,0xaa,,,,,,,,,,,,,,,
2025-06-13T06:21:46.806+00:00Z,DECODE_SUCCESS,9,-22,,,,,,,True,4803,1749795702.0,-0.616,0.275,0.775,0.0,0.0,0.0,19.5,36.8,-20.9,35.19514465332031,129.1696014404297,0.0
2025-06-13T06:21:50.135+00:00Z,CTRL_PKT_RECV,10,,,0x50,,,,,,,,,,,,,,,,,,,
2025-06-13T06:21:50.146+00:00Z,SEND_PERMIT_ACK_SENT,,,,,,,10,0x55,,,,,,,,,,,,,,,
2025-06-13T06:21:57.158+00:00Z,CTRL_PKT_RECV,12,,,0x50,,,,,,,,,,,,,,,,,,,
2025-06-13T06:21:57.170+00:00Z,SEND_PERMIT_ACK_SENT,,,,,,,12,0x55,,,,,,,,,,,,,,,
2025-06-13T06:22:00.713+00:00Z,DATA_FRAME_RECV,12,-22,,,33,32,,,,,,,,,,,,,,,,,
2025-06-13T06:22:00.722+00:00Z,DATA_ACK_SENT,,,,,,,12,0xaa,,,,,,,,,,,,,,,
2025-06-13T06:22:00.726+00:00Z,DECODE_SUCCESS,12,-22,,,,,,,True,5723,1749795715.0,-0.615,0.275,0.772,0.0,0.0,0.0,19.5,36.8,-20.9,37.29897689819336,126.48993682861328,0.0
2025-06-13T06:22:04.055+00:00Z,CTRL_PKT_RECV,13,,,0x50,,,,,,,,,,,,,,,,,,,
2025-06-13T06:22:04.066+00:00Z,SEND_PERMIT_ACK_SENT,,,,,,,13,0x55,,,,,,,,,,,,,,,
2025-06-13T06:22:11.077+00:00Z,CTRL_PKT_RECV,15,,,0x50,,,,,,,,,,,,,,,,,,,
2025-06-13T06:22:11.086+00:00Z,SEND_PERMIT_ACK_SENT,,,,,,,15,0x55,,,,,,,,,,,,,,,
2025-06-13T06:22:14.632+00:00Z,DATA_FRAME_RECV,15,-22,,,33,32,,,,,,,,,,,,,,,,,
2025-06-13T06:22:14.642+00:00Z,DATA_ACK_SENT,,,,,,,15,0xaa,,,,,,,,,,,,,,,
2025-06-13T06:22:14.645+00:00Z,DECODE_SUCCESS,15,-22,,,,,,,True,5643,1749795729.0,-0.617,0.275,0.772,0.0,0.0,0.0,19.5,36.8,-20.9,34.945091247558594,127.2764892578125,0.0
2025-06-13T06:22:17.974+00:00Z,CTRL_PKT_RECV,16,,,0x50,,,,,,,,,,,,,,,,,,,
2025-06-13T06:22:17.986+00:00Z,SEND_PERMIT_ACK_SENT,,,,,,,16,0x55,,,,,,,,,,,,,,,
2025-06-13T06:22:24.993+00:00Z,CTRL_PKT_RECV,18,,,0x50,,,,,,,,,,,,,,,,,,,
2025-06-13T06:22:25.002+00:00Z,SEND_PERMIT_ACK_SENT,,,,,,,18,0x55,,,,,,,,,,,,,,,
2025-06-13T06:22:28.548+00:00Z,DATA_FRAME_RECV,18,-22,,,33,32,,,,,,,,,,,,,,,,,
2025-06-13T06:22:28.558+00:00Z,DATA_ACK_SENT,,,,,,,18,0xaa,,,,,,,,,,,,,,,
2025-06-13T06:22:28.561+00:00Z,DECODE_SUCCESS,18,-22,,,,,,,True,5559,1749795743.0,-0.615,0.276,0.775,0.0,0.0,0.0,19.5,36.8,-20.9,34.917049407958984,129.17979431152344,0.0
2025-06-13T06:22:31.890+00:00Z,CTRL_PKT_RECV,19,,,0x50,,,,,,,,,,,,,,,,,,,
2025-06-13T06:22:31.902+00:00Z,SEND_PERMIT_ACK_SENT,,,,,,,19,0x55,,,,,,,,,,,,,,,
2025-06-13T06:22:38.913+00:00Z,CTRL_PKT_RECV,21,,,0x50,,,,,,,,,,,,,,,,,,,
2025-06-13T06:22:38.922+00:00Z,SEND_PERMIT_ACK_SENT,,,,,,,21,0x55,,,,,,,,,,,,,,,
2025-06-13T06:22:42.468+00:00Z,DATA_FRAME_RECV,21,-22,,,33,32,,,,,,,,,,,,,,,,,
2025-06-13T06:22:42.478+00:00Z,DATA_ACK_SENT,,,,,,,21,0xaa,,,,,,,,,,,,,,,
2025-06-13T06:22:42.482+00:00Z,DECODE_SUCCESS,21,-22,,,,,,,True,5480,1749795757.0,-0.617,0.275,0.773,0.0,0.0,0.0,19.5,36.8,-20.9,37.7170295715332,128.55946350097656,15.9
2025-06-13T06:22:45.810+00:00Z,CTRL_PKT_RECV,22,,,0x50,,,,,,,,,,,,,,,,,,,
2025-06-13T06:22:45.822+00:00Z,SEND_PERMIT_ACK_SENT,,,,,,,22,0x55,,,,,,,,,,,,,,,
2025-06-13T06:22:52.829+00:00Z,CTRL_PKT_RECV,24,,,0x50,,,,,,,,,,,,,,,,,,,
2025-06-13T06:22:52.838+00:00Z,SEND_PERMIT_ACK_SENT,,,,,,,24,0x55,,,,,,,,,,,,,,,
2025-06-13T06:22:56.384+00:00Z,DATA_FRAME_RECV,24,-21,,,33,32,,,,,,,,,,,,,,,,,
2025-06-13T06:22:56.394+00:00Z,DATA_ACK_SENT,,,,,,,24,0xaa,,,,,,,,,,,,,,,
2025-06-13T06:22:56.398+00:00Z,DECODE_SUCCESS,24,-21,,,,,,,True,5395,1749795771.0,-0.615,0.273,0.773,0.0,0.0,0.0,19.5,36.8,-20.9,36.439090728759766,129.59608459472656,0.0
2025-06-13T06:22:59.727+00:00Z,CTRL_PKT_RECV,25,,,0x50,,,,,,,,,,,,,,,,,,,
2025-06-13T06:22:59.738+00:00Z,SEND_PERMIT_ACK_SENT,,,,,,,25,0x55,,,,,,,,,,,,,,,
2025-06-13T06:23:06.750+00:00Z,CTRL_PKT_RECV,27,,,0x50,,,,,,,,,,,,,,,,,,,
2025-06-13T06:23:06.762+00:00Z,SEND_PERMIT_ACK_SENT,,,,,,,27,0x55,,,,,,,,,,,,,,,
2025-06-13T06:23:10.305+00:00Z,DATA_FRAME_RECV,27,-21,,,33,32,,,,,,,,,,,,,,,,,
2025-06-13T06:23:10.314+00:00Z,DATA_ACK_SENT,,,,,,,27,0xaa,,,,,,,,,,,,,,,
2025-06-13T06:23:10.317+00:00Z,DECODE_SUCCESS,27,-21,,,,,,,True,5315,1749795785.0,-0.615,0.275,0.773,0.0,0.0,0.0,19.5,36.8,-20.9,33.74839401245117,126.54024505615234,0.0
2025-06-13T06:23:13.648+00:00Z,CTRL_PKT_RECV,28,,,0x50,,,,,,,,,,,,,,,,,,,
2025-06-13T06:23:13.658+00:00Z,SEND_PERMIT_ACK_SENT,,,,,,,28,0x55,,,,,,,,,,,,,,,
2025-06-13T06:23:20.665+00:00Z,CTRL_PKT_RECV,30,,,0x50,,,,,,,,,,,,,,,,,,,
2025-06-13T06:23:20.674+00:00Z,SEND_PERMIT_ACK_SENT,,,,,,,30,0x55,,,,,,,,,,,,,,,
2025-06-13T06:23:24.220+00:00Z,DATA_FRAME_RECV,30,-21,,,33,32,,,,,,,,,,,,,,,,,
2025-06-13T06:23:24.230+00:00Z,DATA_ACK_SENT,,,,,,,30,0xaa,,,,,,,,,,,,,,,
2025-06-13T06:23:24.234+00:00Z,DECODE_SUCCESS,30,-21,,,,,,,True,5231,1749795799.0,-0.615,0.276,0.776,0.0,0.0,0.0,19.5,36.8,-20.9,35.56979751586914,129.53363037109375,96.3
2025-06-13T06:23:27.561+00:00Z,CTRL_PKT_RECV,31,,,0x50,,,,,,,,,,,,,,,,,,,
2025-06-13T06:23:27.574+00:00Z,SEND_PERMIT_ACK_SENT,,,,,,,31,0x55,,,,,,,,,,,,,,,
2025-06-13T06:23:34.580+00:00Z,CTRL_PKT_RECV,33,,,0x50,,,,,,,,,,,,,,,,,,,
2025-06-13T06:23:34.590+00:00Z,SEND_PERMIT_ACK_SENT,,,,,,,33,0x55,,,,,,,,,,,,,,,
2025-06-13T06:23:38.135+00:00Z,DATA_FRAME_RECV,33,-21,,,33,32,,,,,,,,,,,,,,,,,
2025-06-13T06:23:38.146+00:00Z,DATA_ACK_SENT,,,,,,,33,0xaa,,,,,,,,,,,,,,,
2025-06-13T06:23:38.150+00:00Z,DECODE_SUCCESS,33,-21,,,,,,,True,5148,1749795813.0,-0.615,0.275,0.775,0.0,0.0,0.0,19.5,36.8,-20.9,34.77009963989258,127.63622283935547,0.0
2025-06-13T06:23:41.478+00:00Z,CTRL_PKT_RECV,34,,,0x50,,,,,,,,,,,,,,,,,,,
2025-06-13T06:23:41.490+00:00Z,SEND_PERMIT_ACK_SENT,,,,,,,34,0x55,,,,,,,,,,,,,,,
2025-06-13T06:23:48.501+00:00Z,CTRL_PKT_RECV,36,,,0x50,,,,,,,,,,,,,,,,,,,
2025-06-13T06:23:48.514+00:00Z,SEND_PERMIT_ACK_SENT,,,,,,,36,0x55,,,,,,,,,,,,,,,
2025-06-13T06:23:52.056+00:00Z,DATA_FRAME_RECV,36,-22,,,33,32,,,,,,,,,,,,,,,,,
2025-06-13T06:23:52.066+00:00Z,DATA_ACK_SENT,,,,,,,36,0xaa,,,,,,,,,,,,,,,
2025-06-13T06:23:52.069+00:00Z,DECODE_SUCCESS,36,-22,,,,,,,True,5067,1749795827.0,-0.617,0.276,0.774,0.0,0.0,0.0,19.5,36.8,-20.9,33.02595138549805,128.1448974609375,0.0
2025-06-13T06:23:55.399+00:00Z,CTRL_PKT_RECV,37,,,0x50,,,,,,,,,,,,,,,,,,,
2025-06-13T06:23:55.410+00:00Z,SEND_PERMIT_ACK_SENT,,,,,,,37,0x55,,,,,,,,,,,,,,,
2025-06-13T06:24:02.422+00:00Z,CTRL_PKT_RECV,39,,,0x50,,,,,,,,,,,,,,,,,,,
2025-06-13T06:24:02.434+00:00Z,SEND_PERMIT_ACK_SENT,,,,,,,39,0x55,,,,,,,,,,,,,,,
2025-06-13T06:24:05.977+00:00Z,DATA_FRAME_RECV,39,-23,,,33,32,,,,,,,,,,,,,,,,,
2025-06-13T06:24:05.990+00:00Z,DATA_ACK_SENT,,,,,,,39,0xaa,,,,,,,,,,,,,,,
2025-06-13T06:24:05.993+00:00Z,DECODE_SUCCESS,39,-23,,,,,,,True,4991,1749795841.0,-0.615,0.274,0.777,0.0,0.0,0.0,19.5,36.8,-20.9,33.80799865722656,127.01179504394531,0.0
2025-06-13T06:24:09.320+00:00Z,CTRL_PKT_RECV,40,,,0x50,,,,,,,,,,,,,,,,,,,
2025-06-13T06:24:09.330+00:00Z,SEND_PERMIT_ACK_SENT,,,,,,,40,0x55,,,,,,,,,,,,,,,
2025-06-13T06:24:16.342+00:00Z,CTRL_PKT_RECV,42,,,0x50,,,,,,,,,,,,,,,,,,,
2025-06-13T06:24:16.354+00:00Z,SEND_PERMIT_ACK_SENT,,,,,,,42,0x55,,,,,,,,,,,,,,,
2025-06-13T06:24:19.897+00:00Z,DATA_FRAME_RECV,42,-23,,,33,32,,,,,,,,,,,,,,,,,
2025-06-13T06:24:19.907+00:00Z,DATA_ACK_SENT,,,,,,,42,0xaa,,,,,,,,,,,,,,,
2025-06-13T06:24:19.913+00:00Z,DECODE_SUCCESS,42,-23,,,,,,,True,4908,1749795855.0,-0.615,0.273,0.775,0.0,0.0,0.0,19.5,36.8,-20.9,34.09138107299805,126.31977844238281,0.0
2025-06-13T06:24:23.239+00:00Z,CTRL_PKT_RECV,43,,,0x50,,,,,,,,,,,,,,,,,,,
2025-06-13T06:24:23.250+00:00Z,SEND_PERMIT_ACK_SENT,,,,,,,43,0x55,,,,,,,,,,,,,,,
2025-06-13T06:24:30.258+00:00Z,CTRL_PKT_RECV,45,,,0x50,,,,,,,,,,,,,,,,,,,
2025-06-13T06:24:30.270+00:00Z,SEND_PERMIT_ACK_SENT,,,,,,,45,0x55,,,,,,,,,,,,,,,
2025-06-13T06:24:33.813+00:00Z,DATA_FRAME_RECV,45,-23,,,33,32,,,,,,,,,,,,,,,,,
2025-06-13T06:24:33.822+00:00Z,DATA_ACK_SENT,,,,,,,45,0xaa,,,,,,,,,,,,,,,
2025-06-13T06:24:33.825+00:00Z,DECODE_SUCCESS,45,-23,,,,,,,True,4823,1749795869.0,-0.615,0.275,0.774,0.0,0.0,0.0,19.5,36.8,-20.9,33.552181243896484,127.22147369384766,0.0
2025-06-13T06:24:37.155+00:00Z,CTRL_PKT_RECV,46,,,0x50,,,,,,,,,,,,,,,,,,,
2025-06-13T06:24:37.166+00:00Z,SEND_PERMIT_ACK_SENT,,,,,,,46,0x55,,,,,,,,,,,,,,,
2025-06-13T06:24:44.177+00:00Z,CTRL_PKT_RECV,48,,,0x50,,,,,,,,,,,,,,,,,,,
2025-06-13T06:24:44.190+00:00Z,SEND_PERMIT_ACK_SENT,,,,,,,48,0x55,,,,,,,,,,,,,,,
2025-06-13T06:24:47.732+00:00Z,DATA_FRAME_RECV,48,-23,,,33,32,,,,,,,,,,,,,,,,,
2025-06-13T06:24:47.742+00:00Z,DATA_ACK_SENT,,,,,,,48,0xaa,,,,,,,,,,,,,,,
2025-06-13T06:24:47.745+00:00Z,DECODE_SUCCESS,48,-23,,,,,,,True,4743,1749795883.0,-0.616,0.274,0.776,0.0,0.0,0.0,19.5,36.8,-20.9,34.70054626464844,126.64111328125,0.0
2025-06-13T06:24:51.075+00:00Z,CTRL_PKT_RECV,49,,,0x50,,,,,,,,,,,,,,,,,,,
2025-06-13T06:24:51.090+00:00Z,SEND_PERMIT_ACK_SENT,,,,,,,49,0x55,,,,,,,,,,,,,,,
2025-06-13T06:24:58.098+00:00Z,CTRL_PKT_RECV,51,,,0x50,,,,,,,,,,,,,,,,,,,
2025-06-13T06:24:58.110+00:00Z,SEND_PERMIT_ACK_SENT,,,,,,,51,0x55,,,,,,,,,,,,,,,
2025-06-13T06:25:01.653+00:00Z,DATA_FRAME_RECV,51,-23,,,33,32,,,,,,,,,,,,,,,,,
2025-06-13T06:25:01.662+00:00Z,DATA_ACK_SENT,,,,,,,51,0xaa,,,,,,,,,,,,,,,
2025-06-13T06:25:01.666+00:00Z,DECODE_SUCCESS,51,-23,,,,,,,True,5663,1749795896.0,-0.617,0.276,0.774,0.0,0.0,0.0,19.5,36.8,-20.9,36.35033416748047,129.9795684814453,0.0
2025-06-13T06:25:04.995+00:00Z,CTRL_PKT_RECV,52,,,0x50,,,,,,,,,,,,,,,,,,,
2025-06-13T06:25:05.006+00:00Z,SEND_PERMIT_ACK_SENT,,,,,,,52,0x55,,,,,,,,,,,,,,,
2025-06-13T06:25:12.017+00:00Z,CTRL_PKT_RECV,54,,,0x50,,,,,,,,,,,,,,,,,,,
2025-06-13T06:25:12.026+00:00Z,SEND_PERMIT_ACK_SENT,,,,,,,54,0x55,,,,,,,,,,,,,,,
2025-06-13T06:25:15.572+00:00Z,DATA_FRAME_RECV,54,-23,,,33,32,,,,,,,,,,,,,,,,,
2025-06-13T06:25:15.582+00:00Z,DATA_ACK_SENT,,,,,,,54,0xaa,,,,,,,,,,,,,,,
2025-06-13T06:25:15.585+00:00Z,DECODE_SUCCESS,54,-23,,,,,,,True,5583,1749795910.0,-0.616,0.275,0.774,0.0,0.0,0.0,19.5,36.8,-20.9,37.22430419921875,126.26541900634766,0.0
2025-06-13T06:25:18.915+00:00Z,CTRL_PKT_RECV,55,,,0x50,,,,,,,,,,,,,,,,,,,
2025-06-13T06:25:18.926+00:00Z,SEND_PERMIT_ACK_SENT,,,,,,,55,0x55,,,,,,,,,,,,,,,
2025-06-13T06:25:25.937+00:00Z,CTRL_PKT_RECV,57,,,0x50,,,,,,,,,,,,,,,,,,,
2025-06-13T06:25:25.950+00:00Z,SEND_PERMIT_ACK_SENT,,,,,,,57,0x55,,,,,,,,,,,,,,,
2025-06-13T06:25:29.492+00:00Z,DATA_FRAME_RECV,57,-22,,,33,32,,,,,,,,,,,,,,,,,
2025-06-13T06:25:29.503+00:00Z,DATA_ACK_SENT,,,,,,,57,0xaa,,,,,,,,,,,,,,,
2025-06-13T06:25:29.507+00:00Z,DECODE_SUCCESS,57,-22,,,,,,,True,5504,1749795924.0,-0.616,0.274,0.772,0.0,0.0,0.0,19.5,36.8,-20.9,35.97282028198242,128.9299774169922,58.3
2025-06-13T06:25:32.834+00:00Z,CTRL_PKT_RECV,58,,,0x50,,,,,,,,,,,,,,,,,,,
2025-06-13T06:25:32.846+00:00Z,SEND_PERMIT_ACK_SENT,,,,,,,58,0x55,,,,,,,,,,,,,,,
2025-06-13T06:25:39.857+00:00Z,CTRL_PKT_RECV,60,,,0x50,,,,,,,,,,,,,,,,,,,
2025-06-13T06:25:39.866+00:00Z,SEND_PERMIT_ACK_SENT,,,,,,,60,0x55,,,,,,,,,,,,,,,
2025-06-13T06:25:43.412+00:00Z,DATA_FRAME_RECV,60,-22,,,33,32,,,,,,,,,,,,,,,,,
2025-06-13T06:25:43.422+00:00Z,DATA_ACK_SENT,,,,,,,60,0xaa,,,,,,,,,,,,,,,
2025-06-13T06:25:43.426+00:00Z,DECODE_SUCCESS,60,-22,,,,,,,True,5423,1749795938.0,-0.617,0.276,0.775,0.0,0.0,0.0,19.5,36.8,-20.9,34.00339889526367,129.78079223632812,0.0
2025-06-13T06:25:46.755+00:00Z,CTRL_PKT_RECV,61,,,0x50,,,,,,,,,,,,,,,,,,,
2025-06-13T06:25:46.766+00:00Z,SEND_PERMIT_ACK_SENT,,,,,,,61,0x55,,,,,,,,,,,,,,,
2025-06-13T06:25:53.777+00:00Z,CTRL_PKT_RECV,63,,,0x50,,,,,,,,,,,,,,,,,,,
2025-06-13T06:25:53.786+00:00Z,SEND_PERMIT_ACK_SENT,,,,,,,63,0x55,,,,,,,,,,,,,,,
2025-06-13T06:25:57.332+00:00Z,DATA_FRAME_RECV,63,-22,,,33,32,,,,,,,,,,,,,,,,,
2025-06-13T06:25:57.342+00:00Z,DATA_ACK_SENT,,,,,,,63,0xaa,,,,,,,,,,,,,,,
2025-06-13T06:25:57.345+00:00Z,DECODE_SUCCESS,63,-22,,,,,,,True,5343,1749795952.0,-0.616,0.275,0.776,0.0,0.0,0.0,19.5,36.8,-20.9,37.30012130737305,128.5774688720703,0.0
2025-06-13T06:26:00.675+00:00Z,CTRL_PKT_RECV,64,,,0x50,,,,,,,,,,,,,,,,,,,
2025-06-13T06:26:00.686+00:00Z,SEND_PERMIT_ACK_SENT,,,,,,,64,0x55,,,,,,,,,,,,,,,
2025-06-13T06:26:07.698+00:00Z,CTRL_PKT_RECV,66,,,0x50,,,,,,,,,,,,,,,,,,,
2025-06-13T06:26:07.710+00:00Z,SEND_PERMIT_ACK_SENT,,,,,,,66,0x55,,,,,,,,,,,,,,,
2025-06-13T06:26:11.253+00:00Z,DATA_FRAME_RECV,66,-22,,,33,32,,,,,,,,,,,,,,,,,
2025-06-13T06:26:11.262+00:00Z,DATA_ACK_SENT,,,,,,,66,0xaa,,,,,,,,,,,,,,,
2025-06-13T06:26:11.266+00:00Z,DECODE_SUCCESS,66,-22,,,,,,,True,5263,1749795966.0,-0.613,0.275,0.774,0.0,0.0,0.0,19.5,36.8,-20.9,34.13725662231445,128.32510375976562,0.0
2025-06-13T06:26:14.595+00:00Z,CTRL_PKT_RECV,67,,,0x50,,,,,,,,,,,,,,,,,,,
2025-06-13T06:26:14.606+00:00Z,SEND_PERMIT_ACK_SENT,,,,,,,67,0x55,,,,,,,,,,,,,,,
2025-06-13T06:26:21.618+00:00Z,CTRL_PKT_RECV,69,,,0x50,,,,,,,,,,,,,,,,,,,
2025-06-13T06:26:21.630+00:00Z,SEND_PERMIT_ACK_SENT,,,,,,,69,0x55,,,,,,,,,,,,,,,
2025-06-13T06:26:25.173+00:00Z,DATA_FRAME_RECV,69,-22,,,33,32,,,,,,,,,,,,,,,,,
2025-06-13T06:26:25.182+00:00Z,DATA_ACK_SENT,,,,,,,69,0xaa,,,,,,,,,,,,,,,
2025-06-13T06:26:25.185+00:00Z,DECODE_SUCCESS,69,-22,,,,,,,True,5183,1749795980.0,-0.616,0.275,0.775,0.0,0.0,0.0,19.5,36.8,-20.9,33.13788986206055,127.87857055664062,0.0
2025-06-13T06:26:28.515+00:00Z,CTRL_PKT_RECV,70,,,0x50,,,,,,,,,,,,,,,,,,,
2025-06-13T06:26:28.526+00:00Z,SEND_PERMIT_ACK_SENT,,,,,,,70,0x55,,,,,,,,,,,,,,,
2025-06-13T06:26:35.536+00:00Z,CTRL_PKT_RECV,72,,,0x50,,,,,,,,,,,,,,,,,,,
2025-06-13T06:26:35.546+00:00Z,SEND_PERMIT_ACK_SENT,,,,,,,72,0x55,,,,,,,,,,,,,,,
2025-06-13T06:26:39.091+00:00Z,DATA_FRAME_RECV,72,-22,,,33,32,,,,,,,,,,,,,,,,,
2025-06-13T06:26:39.102+00:00Z,DATA_ACK_SENT,,,,,,,72,0xaa,,,,,,,,,,,,,,,
2025-06-13T06:26:39.105+00:00Z,DECODE_SUCCESS,72,-22,,,,,,,True,5103,1749795994.0,-0.617,0.277,0.778,0.0,0.0,0.0,19.5,36.8,-20.9,34.195560455322266,126.8794174194336,25.5
2025-06-13T06:26:42.435+00:00Z,CTRL_PKT_RECV,73,,,0x50,,,,,,,,,,,,,,,,,,,
2025-06-13T06:26:42.446+00:00Z,SEND_PERMIT_ACK_SENT,,,,,,,73,0x55,,,,,,,,,,,,,,,
2025-06-13T06:26:49.458+00:00Z,CTRL_PKT_RECV,75,,,0x50,,,,,,,,,,,,,,,,,,,
2025-06-13T06:26:49.470+00:00Z,SEND_PERMIT_ACK_SENT,,,,,,,75,0x55,,,,,,,,,,,,,,,
2025-06-13T06:26:53.013+00:00Z,DATA_FRAME_RECV,75,-22,,,33,32,,,,,,,,,,,,,,,,,
2025-06-13T06:26:53.022+00:00Z,DATA_ACK_SENT,,,,,,,75,0xaa,,,,,,,,,,,,,,,
2025-06-13T06:26:53.026+00:00Z,DECODE_SUCCESS,75,-22,,,,,,,True,5023,1749796008.0,-0.613,0.274,0.774,0.0,0.0,0.0,19.5,36.8,-20.9,36.59754180908203,126.11431884765625,61.0
2025-06-13T06:26:56.356+00:00Z,CTRL_PKT_RECV,76,,,0x50,,,,,,,,,,,,,,,,,,,
2025-06-13T06:26:56.366+00:00Z,SEND_PERMIT_ACK_SENT,,,,,,,76,0x55,,,,,,,,,,,,,,,
2025-06-13T06:27:03.374+00:00Z,CTRL_PKT_RECV,78,,,0x50,,,,,,,,,,,,,,,,,,,
2025-06-13T06:27:03.386+00:00Z,SEND_PERMIT_ACK_SENT,,,,,,,78,0x55,,,,,,,,,,,,,,,
2025-06-13T06:27:06.930+00:00Z,DATA_FRAME_RECV,78,-23,,,33,32,,,,,,,,,,,,,,,,,
2025-06-13T06:27:06.942+00:00Z,DATA_ACK_SENT,,,,,,,78,0xaa,,,,,,,,,,,,,,,
2025-06-13T06:27:06.944+00:00Z,DECODE_SUCCESS,78,-23,,,,,,,True,4943,1749796022.0,-0.616,0.275,0.772,0.0,0.0,0.0,19.5,36.8,-20.9,34.3170166015625,128.5197296142578,0.0
2025-06-13T06:27:10.273+00:00Z,CTRL_PKT_RECV,79,,,0x50,,,,,,,,,,,,,,,,,,,
2025-06-13T06:27:10.282+00:00Z,SEND_PERMIT_ACK_SENT,,,,,,,79,0x55,,,,,,,,,,,,,,,
2025-06-13T06:27:17.294+00:00Z,CTRL_PKT_RECV,81,,,0x50,,,,,,,,,,,,,,,,,,,
2025-06-13T06:27:17.306+00:00Z,SEND_PERMIT_ACK_SENT,,,,,,,81,0x55,,,,,,,,,,,,,,,
2025-06-13T06:27:20.849+00:00Z,DATA_FRAME_RECV,81,-23,,,33,32,,,,,,,,,,,,,,,,,
2025-06-13T06:27:20.859+00:00Z,DATA_ACK_SENT,,,,,,,81,0xaa,,,,,,,,,,,,,,,
2025-06-13T06:27:20.862+00:00Z,DECODE_SUCCESS,81,-23,,,,,,,True,4859,1749796036.0,-0.615,0.277,0.775,0.0,0.0,0.0,19.5,36.8,-20.9,37.02460479736328,128.1951446533203,0.0
2025-06-13T06:27:24.191+00:00Z,CTRL_PKT_RECV,82,,,0x50,,,,,,,,,,,,,,,,,,,
2025-06-13T06:27:24.202+00:00Z,SEND_PERMIT_ACK_SENT,,,,,,,82,0x55,,,,,,,,,,,,,,,
2025-06-13T06:27:31.209+00:00Z,CTRL_PKT_RECV,84,,,0x50,,,,,,,,,,,,,,,,,,,
2025-06-13T06:27:31.218+00:00Z,SEND_PERMIT_ACK_SENT,,,,,,,84,0x55,,,,,,,,,,,,,,,
2025-06-13T06:27:34.764+00:00Z,DATA_FRAME_RECV,84,-23,,,33,32,,,,,,,,,,,,,,,,,
2025-06-13T06:27:34.774+00:00Z,DATA_ACK_SENT,,,,,,,84,0xaa,,,,,,,,,,,,,,,
2025-06-13T06:27:34.778+00:00Z,DECODE_SUCCESS,84,-23,,,,,,,True,4775,1749796050.0,-0.615,0.276,0.775,0.0,0.0,0.0,19.5,36.8,-20.9,35.714515686035156,126.848388671875,35.9
2025-06-13T06:27:38.107+00:00Z,CTRL_PKT_RECV,85,,,0x50,,,,,,,,,,,,,,,,,,,
2025-06-13T06:27:38.118+00:00Z,SEND_PERMIT_ACK_SENT,,,,,,,85,0x55,,,,,,,,,,,,,,,
2025-06-13T06:27:45.130+00:00Z,CTRL_PKT_RECV,87,,,0x50,,,,,,,,,,,,,,,,,,,
2025-06-13T06:27:45.142+00:00Z,SEND_PERMIT_ACK_SENT,,,,,,,87,0x55,,,,,,,,,,,,,,,
2025-06-13T06:27:48.685+00:00Z,DATA_FRAME_RECV,87,-22,,,33,32,,,,,,,,,,,,,,,,,
2025-06-13T06:27:48.698+00:00Z,DATA_ACK_SENT,,,,,,,87,0xaa,,,,,,,,,,,,,,,
2025-06-13T06:27:48.703+00:00Z,DECODE_SUCCESS,87,-22,,,,,,,True,5699,1749796063.0,-0.614,0.276,0.777,0.0,0.0,0.0,19.5,36.8,-20.9,34.44905471801758,128.87294006347656,0.0
2025-06-13T06:27:52.029+00:00Z,CTRL_PKT_RECV,88,,,0x50,,,,,,,,,,,,,,,,,,,
2025-06-13T06:27:52.038+00:00Z,SEND_PERMIT_ACK_SENT,,,,,,,88,0x55,,,,,,,,,,,,,,,
2025-06-13T06:27:59.050+00:00Z,CTRL_PKT_RECV,90,,,0x50,,,,,,,,,,,,,,,,,,,
2025-06-13T06:27:59.062+00:00Z,SEND_PERMIT_ACK_SENT,,,,,,,90,0x55,,,,,,,,,,,,,,,
2025-06-13T06:28:02.605+00:00Z,DATA_FRAME_RECV,90,-23,,,33,32,,,,,,,,,,,,,,,,,
2025-06-13T06:28:02.615+00:00Z,DATA_ACK_SENT,,,,,,,90,0xaa,,,,,,,,,,,,,,,
2025-06-13T06:28:02.618+00:00Z,DECODE_SUCCESS,90,-23,,,,,,,True,5616,1749796077.0,-0.615,0.276,0.773,0.0,0.0,0.0,19.5,36.8,-20.9,36.80951690673828,129.43609619140625,0.0
2025-06-13T06:28:05.947+00:00Z,CTRL_PKT_RECV,91,,,0x50,,,,,,,,,,,,,,,,,,,
2025-06-13T06:28:05.958+00:00Z,SEND_PERMIT_ACK_SENT,,,,,,,91,0x55,,,,,,,,,,,,,,,
2025-06-13T06:28:12.970+00:00Z,CTRL_PKT_RECV,93,,,0x50,,,,,,,,,,,,,,,,,,,
2025-06-13T06:28:12.982+00:00Z,SEND_PERMIT_ACK_SENT,,,,,,,93,0x55,,,,,,,,,,,,,,,
2025-06-13T06:28:16.525+00:00Z,DATA_FRAME_RECV,93,-23,,,33,32,,,,,,,,,,,,,,,,,
2025-06-13T06:28:16.538+00:00Z,DATA_ACK_SENT,,,,,,,93,0xaa,,,,,,,,,,,,,,,
2025-06-13T06:28:16.541+00:00Z,DECODE_SUCCESS,93,-23,,,,,,,True,5539,1749796091.0,-0.616,0.276,0.773,0.0,0.0,0.0,19.5,36.8,-20.9,33.04457092285156,127.29534149169922,0.0
2025-06-13T06:28:19.868+00:00Z,CTRL_PKT_RECV,94,,,0x50,,,,,,,,,,,,,,,,,,,
2025-06-13T06:28:19.879+00:00Z,SEND_PERMIT_ACK_SENT,,,,,,,94,0x55,,,,,,,,,,,,,,,
2025-06-13T06:28:26.890+00:00Z,CTRL_PKT_RECV,96,,,0x50,,,,,,,,,,,,,,,,,,,
2025-06-13T06:28:26.902+00:00Z,SEND_PERMIT_ACK_SENT,,,,,,,96,0x55,,,,,,,,,,,,,,,
2025-06-13T06:28:30.445+00:00Z,DATA_FRAME_RECV,96,-22,,,33,32,,,,,,,,,,,,,,,,,
2025-06-13T06:28:30.455+00:00Z,DATA_ACK_SENT,,,,,,,96,0xaa,,,,,,,,,,,,,,,
2025-06-13T06:28:30.459+00:00Z,DECODE_SUCCESS,96,-22,,,,,,,True,5456,1749796105.0,-0.616,0.277,0.775,0.0,0.0,0.0,19.5,36.8,-20.9,35.17401123046875,128.44993591308594,49.3
2025-06-13T06:28:33.787+00:00Z,CTRL_PKT_RECV,97,,,0x50,,,,,,,,,,,,,,,,,,,
2025-06-13T06:28:33.798+00:00Z,SEND_PERMIT_ACK_SENT,,,,,,,97,0x55,,,,,,,,,,,,,,,
2025-06-13T06:28:40.810+00:00Z,CTRL_PKT_RECV,99,,,0x50,,,,,,,,,,,,,,,,,,,
2025-06-13T06:28:40.822+00:00Z,SEND_PERMIT_ACK_SENT,,,,,,,99,0x55,,,,,,,,,,,,,,,
2025-06-13T06:28:44.365+00:00Z,DATA_FRAME_RECV,99,-23,,,33,32,,,,,,,,,,,,,,,,,
2025-06-13T06:28:44.374+00:00Z,DATA_ACK_SENT,,,,,,,99,0xaa,,,,,,,,,,,,,,,
2025-06-13T06:28:44.378+00:00Z,DECODE_SUCCESS,99,-23,,,,,,,True,5375,1749796119.0,-0.615,0.276,0.771,0.0,0.0,0.0,19.5,36.8,-20.9,35.63370132446289,128.282470703125,0.0
2025-06-13T06:28:47.708+00:00Z,CTRL_PKT_RECV,100,,,0x50,,,,,,,,,,,,,,,,,,,
2025-06-13T06:28:47.718+00:00Z,SEND_PERMIT_ACK_SENT,,,,,,,100,0x55,,,,,,,,,,,,,,,
2025-06-13T06:28:54.730+00:00Z,CTRL_PKT_RECV,102,,,0x50,,,,,,,,,,,,,,,,,,,
2025-06-13T06:28:54.742+00:00Z,SEND_PERMIT_ACK_SENT,,,,,,,102,0x55,,,,,,,,,,,,,,,
2025-06-13T06:28:58.285+00:00Z,DATA_FRAME_RECV,102,-23,,,33,32,,,,,,,,,,,,,,,,,
2025-06-13T06:28:58.294+00:00Z,DATA_ACK_SENT,,,,,,,102,0xaa,,,,,,,,,,,,,,,
2025-06-13T06:28:58.298+00:00Z,DECODE_SUCCESS,102,-23,,,,,,,True,5295,1749796133.0,-0.614,0.275,0.777,0.0,0.0,0.0,19.5,36.8,-20.9,34.57878875732422,129.62265014648438,75.0
2025-06-13T06:29:01.628+00:00Z,CTRL_PKT_RECV,103,,,0x50,,,,,,,,,,,,,,,,,,,
2025-06-13T06:29:01.638+00:00Z,SEND_PERMIT_ACK_SENT,,,,,,,103,0x55,,,,,,,,,,,,,,,
2025-06-13T06:29:08.645+00:00Z,CTRL_PKT_RECV,105,,,0x50,,,,,,,,,,,,,,,,,,,
2025-06-13T06:29:08.654+00:00Z,SEND_PERMIT_ACK_SENT,,,,,,,105,0x55,,,,,,,,,,,,,,,
2025-06-13T06:29:12.200+00:00Z,DATA_FRAME_RECV,105,-23,,,33,32,,,,,,,,,,,,,,,,,
2025-06-13T06:29:12.210+00:00Z,DATA_ACK_SENT,,,,,,,105,0xaa,,,,,,,,,,,,,,,
2025-06-13T06:29:12.213+00:00Z,DECODE_SUCCESS,105,-23,,,,,,,True,5211,1749796147.0,-0.616,0.276,0.774,0.0,0.0,0.0,19.5,36.8,-20.9,37.18408966064453,126.82598114013672,0.0
2025-06-13T06:29:15.543+00:00Z,CTRL_PKT_RECV,106,,,0x50,,,,,,,,,,,,,,,,,,,
2025-06-13T06:29:15.554+00:00Z,SEND_PERMIT_ACK_SENT,,,,,,,106,0x55,,,,,,,,,,,,,,,
2025-06-13T06:29:22.562+00:00Z,CTRL_PKT_RECV,108,,,0x50,,,,,,,,,,,,,,,,,,,
2025-06-13T06:29:22.574+00:00Z,SEND_PERMIT_ACK_SENT,,,,,,,108,0x55,,,,,,,,,,,,,,,
2025-06-13T06:29:26.117+00:00Z,DATA_FRAME_RECV,108,-23,,,33,32,,,,,,,,,,,,,,,,,
2025-06-13T06:29:26.126+00:00Z,DATA_ACK_SENT,,,,,,,108,0xaa,,,,,,,,,,,,,,,
2025-06-13T06:29:26.130+00:00Z,DECODE_SUCCESS,108,-23,,,,,,,True,5127,1749796161.0,-0.615,0.274,0.775,0.0,0.0,0.0,19.5,36.8,-20.9,36.48023986816406,126.21712493896484,82.8
2025-06-13T06:29:29.458+00:00Z,CTRL_PKT_RECV,109,,,0x50,,,,,,,,,,,,,,,,,,,
2025-06-13T06:29:29.470+00:00Z,SEND_PERMIT_ACK_SENT,,,,,,,109,0x55,,,,,,,,,,,,,,,
2025-06-13T06:29:36.478+00:00Z,CTRL_PKT_RECV,111,,,0x50,,,,,,,,,,,,,,,,,,,
2025-06-13T06:29:36.490+00:00Z,SEND_PERMIT_ACK_SENT,,,,,,,111,0x55,,,,,,,,,,,,,,,
2025-06-13T06:29:40.033+00:00Z,DATA_FRAME_RECV,111,-21,,,33,32,,,,,,,,,,,,,,,,,
2025-06-13T06:29:40.043+00:00Z,DATA_ACK_SENT,,,,,,,111,0xaa,,,,,,,,,,,,,,,
2025-06-13T06:29:40.046+00:00Z,DECODE_SUCCESS,111,-21,,,,,,,True,5044,1749796175.0,-0.615,0.275,0.772,0.0,0.0,0.0,19.5,36.8,-20.9,36.97986602783203,129.4099884033203,0.0
2025-06-13T06:29:43.375+00:00Z,CTRL_PKT_RECV,112,,,0x50,,,,,,,,,,,,,,,,,,,
2025-06-13T06:29:43.386+00:00Z,SEND_PERMIT_ACK_SENT,,,,,,,112,0x55,,,,,,,,,,,,,,,
2025-06-13T06:29:50.400+00:00Z,CTRL_PKT_RECV,114,,,0x50,,,,,,,,,,,,,,,,,,,
2025-06-13T06:29:50.410+00:00Z,SEND_PERMIT_ACK_SENT,,,,,,,114,0x55,,,,,,,,,,,,,,,
2025-06-13T06:29:53.955+00:00Z,DATA_FRAME_RECV,114,-21,,,33,32,,,,,,,,,,,,,,,,,
2025-06-13T06:29:53.967+00:00Z,DATA_ACK_SENT,,,,,,,114,0xaa,,,,,,,,,,,,,,,
2025-06-13T06:29:53.970+00:00Z,DECODE_SUCCESS,114,-21,,,,,,,True,4968,1749796189.0,-0.615,0.276,0.772,0.0,0.0,0.0,19.5,36.8,-20.9,36.97024154663086,128.5054168701172,78.8
2025-06-13T06:29:57.297+00:00Z,CTRL_PKT_RECV,115,,,0x50,,,,,,,,,,,,,,,,,,,
2025-06-13T06:29:57.306+00:00Z,SEND_PERMIT_ACK_SENT,,,,,,,115,0x55,,,,,,,,,,,,,,,
2025-06-13T06:30:04.318+00:00Z,CTRL_PKT_RECV,117,,,0x50,,,,,,,,,,,,,,,,,,,
2025-06-13T06:30:04.330+00:00Z,SEND_PERMIT_ACK_SENT,,,,,,,117,0x55,,,,,,,,,,,,,,,
2025-06-13T06:30:07.873+00:00Z,DATA_FRAME_RECV,117,-22,,,33,32,,,,,,,,,,,,,,,,,
2025-06-13T06:30:07.882+00:00Z,DATA_ACK_SENT,,,,,,,117,0xaa,,,,,,,,,,,,,,,
2025-06-13T06:30:07.886+00:00Z,DECODE_SUCCESS,117,-22,,,,,,,True,4883,1749796203.0,-0.616,0.274,0.775,0.0,0.0,0.0,19.5,36.8,-20.9,36.74244689941406,126.55970001220703,98.0
2025-06-13T06:30:11.217+00:00Z,CTRL_PKT_RECV,118,,,0x50,,,,,,,,,,,,,,,,,,,
2025-06-13T06:30:11.226+00:00Z,SEND_PERMIT_ACK_SENT,,,,,,,118,0x55,,,,,,,,,,,,,,,
2025-06-13T06:30:18.238+00:00Z,CTRL_PKT_RECV,120,,,0x50,,,,,,,,,,,,,,,,,,,
2025-06-13T06:30:18.250+00:00Z,SEND_PERMIT_ACK_SENT,,,,,,,120,0x55,,,,,,,,,,,,,,,
2025-06-13T06:30:21.793+00:00Z,DATA_FRAME_RECV,120,-22,,,33,32,,,,,,,,,,,,,,,,,
2025-06-13T06:30:21.802+00:00Z,DATA_ACK_SENT,,,,,,,120,0xaa,,,,,,,,,,,,,,,
2025-06-13T06:30:21.805+00:00Z,DECODE_SUCCESS,120,-22,,,,,,,True,4803,1749796217.0,-0.617,0.274,0.774,0.0,0.0,0.0,19.5,36.8,-20.9,35.60157012939453,128.99853515625,44.8
2025-06-13T06:30:25.135+00:00Z,CTRL_PKT_RECV,121,,,0x50,,,,,,,,,,,,,,,,,,,
2025-06-13T06:30:25.146+00:00Z,SEND_PERMIT_ACK_SENT,,,,,,,121,0x55,,,,,,,,,,,,,,,
2025-06-13T06:30:32.158+00:00Z,CTRL_PKT_RECV,123,,,0x50,,,,,,,,,,,,,,,,,,,
2025-06-13T06:30:32.170+00:00Z,SEND_PERMIT_ACK_SENT,,,,,,,123,0x55,,,,,,,,,,,,,,,
2025-06-13T06:30:35.713+00:00Z,DATA_FRAME_RECV,123,-22,,,33,32,,,,,,,,,,,,,,,,,
2025-06-13T06:30:35.722+00:00Z,DATA_ACK_SENT,,,,,,,123,0xaa,,,,,,,,,,,,,,,
2025-06-13T06:30:35.725+00:00Z,DECODE_SUCCESS,123,-22,,,,,,,True,5723,1749796230.0,-0.617,0.276,0.774,0.0,0.0,0.0,19.5,36.8,-20.9,35.02152633666992,127.41668701171875,60.6
2025-06-13T06:30:39.054+00:00Z,CTRL_PKT_RECV,124,,,0x50,,,,,,,,,,,,,,,,,,,
2025-06-13T06:30:39.066+00:00Z,SEND_PERMIT_ACK_SENT,,,,,,,124,0x55,,,,,,,,,,,,,,,
2025-06-13T06:30:46.072+00:00Z,CTRL_PKT_RECV,126,,,0x50,,,,,,,,,,,,,,,,,,,
2025-06-13T06:30:46.082+00:00Z,SEND_PERMIT_ACK_SENT,,,,,,,126,0x55,,,,,,,,,,,,,,,
2025-06-13T06:30:49.627+00:00Z,DATA_FRAME_RECV,126,-22,,,33,32,,,,,,,,,,,,,,,,,
2025-06-13T06:30:49.638+00:00Z,DATA_ACK_SENT,,,,,,,126,0xaa,,,,,,,,,,,,,,,
2025-06-13T06:30:49.642+00:00Z,DECODE_SUCCESS,126,-22,,,,,,,True,5639,1749796244.0,-0.616,0.275,0.776,0.0,0.0,0.0,19.5,36.8,-20.9,33.938533782958984,126.95123291015625,0.0
2025-06-13T06:30:52.970+00:00Z,CTRL_PKT_RECV,127,,,0x50,,,,,,,,,,,,,,,,,,,
2025-06-13T06:30:52.982+00:00Z,SEND_PERMIT_ACK_SENT,,,,,,,127,0x55,,,,,,,,,,,,,,,
2025-06-13T06:30:59.993+00:00Z,CTRL_PKT_RECV,129,,,0x50,,,,,,,,,,,,,,,,,,,
2025-06-13T06:31:00.002+00:00Z,SEND_PERMIT_ACK_SENT,,,,,,,129,0x55,,,,,,,,,,,,,,,
2025-06-13T06:31:03.548+00:00Z,DATA_FRAME_RECV,129,-22,,,33,32,,,,,,,,,,,,,,,,,
2025-06-13T06:31:03.558+00:00Z,DATA_ACK_SENT,,,,,,,129,0xaa,,,,,,,,,,,,,,,
2025-06-13T06:31:03.561+00:00Z,DECODE_SUCCESS,129,-22,,,,,,,True,5559,1749796258.0,-0.616,0.277,0.773,0.0,0.0,0.0,19.5,36.8,-20.9,35.939353942871094,127.72557067871094,0.0
2025-06-13T06:31:06.890+00:00Z,CTRL_PKT_RECV,130,,,0x50,,,,,,,,,,,,,,,,,,,
2025-06-13T06:31:06.902+00:00Z,SEND_PERMIT_ACK_SENT,,,,,,,130,0x55,,,,,,,,,,,,,,,
2025-06-13T06:31:13.914+00:00Z,CTRL_PKT_RECV,132,,,0x50,,,,,,,,,,,,,,,,,,,
2025-06-13T06:31:13.926+00:00Z,SEND_PERMIT_ACK_SENT,,,,,,,132,0x55,,,,,,,,,,,,,,,
2025-06-13T06:31:17.469+00:00Z,DATA_FRAME_RECV,132,-22,,,33,32,,,,,,,,,,,,,,,,,
2025-06-13T06:31:17.478+00:00Z,DATA_ACK_SENT,,,,,,,132,0xaa,,,,,,,,,,,,,,,
2025-06-13T06:31:17.482+00:00Z,DECODE_SUCCESS,132,-22,,,,,,,True,5479,1749796272.0,-0.616,0.276,0.774,0.0,0.0,0.0,19.5,36.8,-20.9,36.47655487060547,129.13473510742188,0.0
2025-06-13T06:31:20.812+00:00Z,CTRL_PKT_RECV,133,,,0x50,,,,,,,,,,,,,,,,,,,
2025-06-13T06:31:20.822+00:00Z,SEND_PERMIT_ACK_SENT,,,,,,,133,0x55,,,,,,,,,,,,,,,
2025-06-13T06:31:27.834+00:00Z,CTRL_PKT_RECV,135,,,0x50,,,,,,,,,,,,,,,,,,,
2025-06-13T06:31:27.846+00:00Z,SEND_PERMIT_ACK_SENT,,,,,,,135,0x55,,,,,,,,,,,,,,,
2025-06-13T06:31:31.389+00:00Z,DATA_FRAME_RECV,135,-22,,,33,32,,,,,,,,,,,,,,,,,
2025-06-13T06:31:31.398+00:00Z,DATA_ACK_SENT,,,,,,,135,0xaa,,,,,,,,,,,,,,,
2025-06-13T06:31:31.401+00:00Z,DECODE_SUCCESS,135,-22,,,,,,,True,5399,1749796286.0,-0.615,0.276,0.775,0.0,0.0,0.0,19.5,36.8,-20.9,33.00196075439453,128.16903686523438,89.9
2025-06-13T06:31:34.732+00:00Z,CTRL_PKT_RECV,136,,,0x50,,,,,,,,,,,,,,,,,,,
2025-06-13T06:31:34.742+00:00Z,SEND_PERMIT_ACK_SENT,,,,,,,136,0x55,,,,,,,,,,,,,,,
2025-06-13T06:31:41.754+00:00Z,CTRL_PKT_RECV,138,,,0x50,,,,,,,,,,,,,,,,,,,
2025-06-13T06:31:41.766+00:00Z,SEND_PERMIT_ACK_SENT,,,,,,,138,0x55,,,,,,,,,,,,,,,
2025-06-13T06:31:45.309+00:00Z,DATA_FRAME_RECV,138,-22,,,33,32,,,,,,,,,,,,,,,,,
2025-06-13T06:31:45.318+00:00Z,DATA_ACK_SENT,,,,,,,138,0xaa,,,,,,,,,,,,,,,
2025-06-13T06:31:45.322+00:00Z,DECODE_SUCCESS,138,-22,,,,,,,True,5319,1749796300.0,-0.616,0.274,0.772,0.0,0.0,0.0,19.5,36.8,-20.9,34.54732131958008,128.1100311279297,0.0
2025-06-13T06:31:48.651+00:00Z,CTRL_PKT_RECV,139,,,0x50,,,,,,,,,,,,,,,,,,,
2025-06-13T06:31:48.662+00:00Z,SEND_PERMIT_ACK_SENT,,,,,,,139,0x55,,,,,,,,,,,,,,,
2025-06-13T06:31:55.673+00:00Z,CTRL_PKT_RECV,141,,,0x50,,,,,,,,,,,,,,,,,,,
2025-06-13T06:31:55.682+00:00Z,SEND_PERMIT_ACK_SENT,,,,,,,141,0x55,,,,,,,,,,,,,,,
2025-06-13T06:31:59.228+00:00Z,DATA_FRAME_RECV,141,-22,,,33,32,,,,,,,,,,,,,,,,,
2025-06-13T06:31:59.238+00:00Z,DATA_ACK_SENT,,,,,,,141,0xaa,,,,,,,,,,,,,,,
2025-06-13T06:31:59.242+00:00Z,DECODE_SUCCESS,141,-22,,,,,,,True,5239,1749796314.0,-0.615,0.275,0.776,0.0,0.0,0.0,19.5,36.8,-20.9,36.00674057006836,129.75933837890625,0.0
2025-06-13T06:32:02.570+00:00Z,CTRL_PKT_RECV,142,,,0x50,,,,,,,,,,,,,,,,,,,
2025-06-13T06:32:02.582+00:00Z,SEND_PERMIT_ACK_SENT,,,,,,,142,0x55,,,,,,,,,,,,,,,
2025-06-13T06:32:09.593+00:00Z,CTRL_PKT_RECV,144,,,0x50,,,,,,,,,,,,,,,,,,,
2025-06-13T06:32:09.602+00:00Z,SEND_PERMIT_ACK_SENT,,,,,,,144,0x55,,,,,,,,,,,,,,,
2025-06-13T06:32:13.148+00:00Z,DATA_FRAME_RECV,144,-22,,,33,32,,,,,,,,,,,,,,,,,
2025-06-13T06:32:13.158+00:00Z,DATA_ACK_SENT,,,,,,,144,0xaa,,,,,,,,,,,,,,,
2025-06-13T06:32:13.161+00:00Z,DECODE_SUCCESS,144,-22,,,,,,,True,5159,1749796328.0,-0.615,0.275,0.775,0.0,0.0,0.0,19.5,36.8,-20.9,35.34437942504883,126.62618255615234,30.4
2025-06-13T06:32:16.491+00:00Z,CTRL_PKT_RECV,145,,,0x50,,,,,,,,,,,,,,,,,,,
2025-06-13T06:32:16.502+00:00Z,SEND_PERMIT_ACK_SENT,,,,,,,145,0x55,,,,,,,,,,,,,,,
2025-06-13T06:32:23.513+00:00Z,CTRL_PKT_RECV,147,,,0x50,,,,,,,,,,,,,,,,,,,
2025-06-13T06:32:23.522+00:00Z,SEND_PERMIT_ACK_SENT,,,,,,,147,0x55,,,,,,,,,,,,,,,
2025-06-13T06:32:27.068+00:00Z,DATA_FRAME_RECV,147,-22,,,33,32,,,,,,,,,,,,,,,,,
2025-06-13T06:32:27.078+00:00Z,DATA_ACK_SENT,,,,,,,147,0xaa,,,,,,,,,,,,,,,
2025-06-13T06:32:27.081+00:00Z,DECODE_SUCCESS,147,-22,,,,,,,True,5079,1749796342.0,-0.614,0.273,0.774,0.0,0.0,0.0,19.5,36.8,-20.9,37.447357177734375,126.37723541259766,0.0
2025-06-13T06:32:30.410+00:00Z,CTRL_PKT_RECV,148,,,0x50,,,,,,,,,,,,,,,,,,,
2025-06-13T06:32:30.422+00:00Z,SEND_PERMIT_ACK_SENT,,,,,,,148,0x55,,,,,,,,,,,,,,,
2025-06-13T06:32:37.434+00:00Z,CTRL_PKT_RECV,150,,,0x50,,,,,,,,,,,,,,,,,,,
2025-06-13T06:32:37.446+00:00Z,SEND_PERMIT_ACK_SENT,,,,,,,150,0x55,,,,,,,,,,,,,,,
2025-06-13T06:32:40.989+00:00Z,DATA_FRAME_RECV,150,-22,,,33,32,,,,,,,,,,,,,,,,,
2025-06-13T06:32:41.002+00:00Z,DATA_ACK_SENT,,,,,,,150,0xaa,,,,,,,,,,,,,,,
2025-06-13T06:32:41.005+00:00Z,DECODE_SUCCESS,150,-22,,,,,,,True,5003,1749796356.0,-0.618,0.275,0.775,0.0,0.0,0.0,19.5,36.8,-20.9,37.946006774902344,129.72640991210938,0.0
2025-06-13T06:32:44.332+00:00Z,CTRL_PKT_RECV,151,,,0x50,,,,,,,,,,,,,,,,,,,
2025-06-13T06:32:44.342+00:00Z,SEND_PERMIT_ACK_SENT,,,,,,,151,0x55,,,,,,,,,,,,,,,
2025-06-13T06:32:51.349+00:00Z,CTRL_PKT_RECV,153,,,0x50,,,,,,,,,,,,,,,,,,,
2025-06-13T06:32:51.362+00:00Z,SEND_PERMIT_ACK_SENT,,,,,,,153,0x55,,,,,,,,,,,,,,,
2025-06-13T06:32:54.904+00:00Z,DATA_FRAME_RECV,153,-22,,,33,32,,,,,,,,,,,,,,,,,
2025-06-13T06:32:54.914+00:00Z,DATA_ACK_SENT,,,,,,,153,0xaa,,,,,,,,,,,,,,,
2025-06-13T06:32:54.917+00:00Z,DECODE_SUCCESS,153,-22,,,,,,,True,4915,1749796370.0,-0.617,0.273,0.775,0.0,0.0,0.0,19.5,36.8,-20.9,33.1537971496582,129.68101501464844,89.4
2025-06-13T06:32:58.247+00:00Z,CTRL_PKT_RECV,154,,,0x50,,,,,,,,,,,,,,,,,,,
2025-06-13T06:32:58.258+00:00Z,SEND_PERMIT_ACK_SENT,,,,,,,154,0x55,,,,,,,,,,,,,,,
2025-06-13T06:33:05.270+00:00Z,CTRL_PKT_RECV,156,,,0x50,,,,,,,,,,,,,,,,,,,
2025-06-13T06:33:05.282+00:00Z,SEND_PERMIT_ACK_SENT,,,,,,,156,0x55,,,,,,,,,,,,,,,
2025-06-13T06:33:08.825+00:00Z,DATA_FRAME_RECV,156,-22,,,33,32,,,,,,,,,,,,,,,,,
2025-06-13T06:33:08.834+00:00Z,DATA_ACK_SENT,,,,,,,156,0xaa,,,,,,,,,,,,,,,
2025-06-13T06:33:08.838+00:00Z,DECODE_SUCCESS,156,-22,,,,,,,True,4835,1749796384.0,-0.615,0.277,0.777,0.0,0.0,0.0,19.5,36.8,-20.9,34.506893157958984,126.3161849975586,0.0
2025-06-13T06:33:12.167+00:00Z,CTRL_PKT_RECV,157,,,0x50,,,,,,,,,,,,,,,,,,,
2025-06-13T06:33:12.178+00:00Z,SEND_PERMIT_ACK_SENT,,,,,,,157,0x55,,,,,,,,,,,,,,,
2025-06-13T06:33:19.190+00:00Z,CTRL_PKT_RECV,159,,,0x50,,,,,,,,,,,,,,,,,,,
2025-06-13T06:33:19.202+00:00Z,SEND_PERMIT_ACK_SENT,,,,,,,159,0x55,,,,,,,,,,,,,,,
2025-06-13T06:33:22.745+00:00Z,DATA_FRAME_RECV,159,-22,,,33,32,,,,,,,,,,,,,,,,,
2025-06-13T06:33:22.754+00:00Z,DATA_ACK_SENT,,,,,,,159,0xaa,,,,,,,,,,,,,,,
2025-06-13T06:33:22.758+00:00Z,DECODE_SUCCESS,159,-22,,,,,,,True,4755,1749796398.0,-0.616,0.275,0.775,0.0,0.0,0.0,19.5,36.8,-20.9,34.280067443847656,127.57255554199219,0.0
2025-06-13T06:33:26.087+00:00Z,CTRL_PKT_RECV,160,,,0x50,,,,,,,,,,,,,,,,,,,
2025-06-13T06:33:26.098+00:00Z,SEND_PERMIT_ACK_SENT,,,,,,,160,0x55,,,,,,,,,,,,,,,
2025-06-13T06:33:33.110+00:00Z,CTRL_PKT_RECV,162,,,0x50,,,,,,,,,,,,,,,,,,,
2025-06-13T06:33:33.122+00:00Z,SEND_PERMIT_ACK_SENT,,,,,,,162,0x55,,,,,,,,,,,,,,,
2025-06-13T06:33:36.665+00:00Z,DATA_FRAME_RECV,162,-22,,,33,32,,,,,,,,,,,,,,,,,
2025-06-13T06:33:36.674+00:00Z,DATA_ACK_SENT,,,,,,,162,0xaa,,,,,,,,,,,,,,,
2025-06-13T06:33:36.679+00:00Z,DECODE_SUCCESS,162,-22,,,,,,,True,5675,1749796411.0,-0.616,0.276,0.777,0.0,0.0,0.0,19.5,36.8,-20.9,35.232208251953125,127.2658462524414,49.2
2025-06-13T06:33:40.006+00:00Z,CTRL_PKT_RECV,163,,,0x50,,,,,,,,,,,,,,,,,,,
2025-06-13T06:33:40.018+00:00Z,SEND_PERMIT_ACK_SENT,,,,,,,163,0x55,,,,,,,,,,,,,,,
2025-06-13T06:33:47.030+00:00Z,CTRL_PKT_RECV,165,,,0x50,,,,,,,,,,,,,,,,,,,
2025-06-13T06:33:47.042+00:00Z,SEND_PERMIT_ACK_SENT,,,,,,,165,0x55,,,,,,,,,,,,,,,
2025-06-13T06:33:50.585+00:00Z,DATA_FRAME_RECV,165,-22,,,33,32,,,,,,,,,,,,,,,,,
2025-06-13T06:33:50.594+00:00Z,DATA_ACK_SENT,,,,,,,165,0xaa,,,,,,,,,,,,,,,
2025-06-13T06:33:50.598+00:00Z,DECODE_SUCCESS,165,-22,,,,,,,True,5595,1749796425.0,-0.616,0.276,0.775,0.0,0.0,0.0,19.5,36.8,-20.9,36.13645553588867,126.92861938476562,0.0
2025-06-13T06:33:53.927+00:00Z,CTRL_PKT_RECV,166,,,0x50,,,,,,,,,,,,,,,,,,,
2025-06-13T06:33:53.938+00:00Z,SEND_PERMIT_ACK_SENT,,,,,,,166,0x55,,,,,,,,,,,,,,,
2025-06-13T06:34:00.950+00:00Z,CTRL_PKT_RECV,168,,,0x50,,,,,,,,,,,,,,,,,,,
2025-06-13T06:34:00.962+00:00Z,SEND_PERMIT_ACK_SENT,,,,,,,168,0x55,,,,,,,,,,,,,,,
2025-06-13T06:34:04.505+00:00Z,DATA_FRAME_RECV,168,-22,,,33,32,,,,,,,,,,,,,,,,,
2025-06-13T06:34:04.514+00:00Z,DATA_ACK_SENT,,,,,,,168,0xaa,,,,,,,,,,,,,,,
2025-06-13T06:34:04.518+00:00Z,DECODE_SUCCESS,168,-22,,,,,,,True,5515,1749796439.0,-0.615,0.274,0.774,0.0,0.0,0.0,19.5,36.8,-20.9,34.559059143066406,129.92726135253906,0.0
2025-06-13T06:34:07.847+00:00Z,CTRL_PKT_RECV,169,,,0x50,,,,,,,,,,,,,,,,,,,
2025-06-13T06:34:07.858+00:00Z,SEND_PERMIT_ACK_SENT,,,,,,,169,0x55,,,,,,,,,,,,,,,
2025-06-13T06:34:14.866+00:00Z,CTRL_PKT_RECV,171,,,0x50,,,,,,,,,,,,,,,,,,,
2025-06-13T06:34:14.878+00:00Z,SEND_PERMIT_ACK_SENT,,,,,,,171,0x55,,,,,,,,,,,,,,,
2025-06-13T06:34:18.421+00:00Z,DATA_FRAME_RECV,171,-22,,,33,32,,,,,,,,,,,,,,,,,
2025-06-13T06:34:18.430+00:00Z,DATA_ACK_SENT,,,,,,,171,0xaa,,,,,,,,,,,,,,,
2025-06-13T06:34:18.433+00:00Z,DECODE_SUCCESS,171,-22,,,,,,,True,5431,1749796453.0,-0.615,0.274,0.776,0.0,0.0,0.0,19.5,36.8,-20.9,33.222713470458984,126.34876251220703,0.0
2025-06-13T06:34:21.764+00:00Z,CTRL_PKT_RECV,172,,,0x50,,,,,,,,,,,,,,,,,,,
2025-06-13T06:34:21.774+00:00Z,SEND_PERMIT_ACK_SENT,,,,,,,172,0x55,,,,,,,,,,,,,,,
2025-06-13T06:34:28.786+00:00Z,CTRL_PKT_RECV,174,,,0x50,,,,,,,,,,,,,,,,,,,
2025-06-13T06:34:28.798+00:00Z,SEND_PERMIT_ACK_SENT,,,,,,,174,0x55,,,,,,,,,,,,,,,
2025-06-13T06:34:32.341+00:00Z,DATA_FRAME_RECV,174,-22,,,33,32,,,,,,,,,,,,,,,,,
2025-06-13T06:34:32.350+00:00Z,DATA_ACK_SENT,,,,,,,174,0xaa,,,,,,,,,,,,,,,
2025-06-13T06:34:32.354+00:00Z,DECODE_SUCCESS,174,-22,,,,,,,True,5351,1749796467.0,-0.614,0.275,0.776,0.0,0.0,0.0,19.5,36.8,-20.9,37.84701156616211,129.917236328125,61.6
2025-06-13T06:34:35.684+00:00Z,CTRL_PKT_RECV,175,,,0x50,,,,,,,,,,,,,,,,,,,
2025-06-13T06:34:35.694+00:00Z,SEND_PERMIT_ACK_SENT,,,,,,,175,0x55,,,,,,,,,,,,,,,
2025-06-13T06:34:42.702+00:00Z,CTRL_PKT_RECV,177,,,0x50,,,,,,,,,,,,,,,,,,,
2025-06-13T06:34:42.714+00:00Z,SEND_PERMIT_ACK_SENT,,,,,,,177,0x55,,,,,,,,,,,,,,,
2025-06-13T06:34:46.257+00:00Z,DATA_FRAME_RECV,177,-22,,,33,32,,,,,,,,,,,,,,,,,
2025-06-13T06:34:46.266+00:00Z,DATA_ACK_SENT,,,,,,,177,0xaa,,,,,,,,,,,,,,,
2025-06-13T06:34:46.270+00:00Z,DECODE_SUCCESS,177,-22,,,,,,,True,5267,1749796481.0,-0.616,0.276,0.773,-0.1,0.0,0.0,19.5,36.8,-20.9,37.75739669799805,127.87593078613281,0.0
2025-06-13T06:34:49.600+00:00Z,CTRL_PKT_RECV,178,,,0x50,,,,,,,,,,,,,,,,,,,
2025-06-13T06:34:49.610+00:00Z,SEND_PERMIT_ACK_SENT,,,,,,,178,0x55,,,,,,,,,,,,,,,
2025-06-13T06:34:56.622+00:00Z,CTRL_PKT_RECV,180,,,0x50,,,,,,,,,,,,,,,,,,,
2025-06-13T06:34:56.634+00:00Z,SEND_PERMIT_ACK_SENT,,,,,,,180,0x55,,,,,,,,,,,,,,,
2025-06-13T06:35:00.177+00:00Z,DATA_FRAME_RECV,180,-22,,,33,32,,,,,,,,,,,,,,,,,
2025-06-13T06:35:00.186+00:00Z,DATA_ACK_SENT,,,,,,,180,0xaa,,,,,,,,,,,,,,,
2025-06-13T06:35:00.191+00:00Z,DECODE_SUCCESS,180,-22,,,,,,,True,5188,1749796495.0,-0.615,0.276,0.777,0.0,0.0,0.0,19.5,36.8,-20.9,36.40861511230469,129.41648864746094,0.0
2025-06-13T06:35:03.520+00:00Z,CTRL_PKT_RECV,181,,,0x50,,,,,,,,,,,,,,,,,,,
2025-06-13T06:35:03.530+00:00Z,SEND_PERMIT_ACK_SENT,,,,,,,181,0x55,,,,,,,,,,,,,,,
2025-06-13T06:35:10.542+00:00Z,CTRL_PKT_RECV,183,,,0x50,,,,,,,,,,,,,,,,,,,
2025-06-13T06:35:10.554+00:00Z,SEND_PERMIT_ACK_SENT,,,,,,,183,0x55,,,,,,,,,,,,,,,
2025-06-13T06:35:14.097+00:00Z,DATA_FRAME_RECV,183,-22,,,33,32,,,,,,,,,,,,,,,,,
2025-06-13T06:35:14.106+00:00Z,DATA_ACK_SENT,,,,,,,183,0xaa,,,,,,,,,,,,,,,
2025-06-13T06:35:14.111+00:00Z,DECODE_SUCCESS,183,-22,,,,,,,True,5107,1749796509.0,-0.615,0.273,0.775,0.0,0.0,0.0,19.5,36.8,-20.9,34.36402893066406,127.09091186523438,0.0
2025-06-13T06:35:17.439+00:00Z,CTRL_PKT_RECV,184,,,0x50,,,,,,,,,,,,,,,,,,,
2025-06-13T06:35:17.450+00:00Z,SEND_PERMIT_ACK_SENT,,,,,,,184,0x55,,,,,,,,,,,,,,,
2025-06-13T06:35:24.457+00:00Z,CTRL_PKT_RECV,186,,,0x50,,,,,,,,,,,,,,,,,,,
2025-06-13T06:35:24.466+00:00Z,SEND_PERMIT_ACK_SENT,,,,,,,186,0x55,,,,,,,,,,,,,,,
2025-06-13T06:35:28.011+00:00Z,DATA_FRAME_RECV,186,-22,,,33,32,,,,,,,,,,,,,,,,,
2025-06-13T06:35:28.022+00:00Z,DATA_ACK_SENT,,,,,,,186,0xaa,,,,,,,,,,,,,,,
2025-06-13T06:35:28.026+00:00Z,DECODE_SUCCESS,186,-22,,,,,,,True,5023,1749796523.0,-0.615,0.272,0.775,0.0,0.0,0.0,19.5,36.8,-20.9,34.93003845214844,129.11578369140625,41.9
2025-06-13T06:35:31.354+00:00Z,CTRL_PKT_RECV,187,,,0x50,,,,,,,,,,,,,,,,,,,
2025-06-13T06:35:31.366+00:00Z,SEND_PERMIT_ACK_SENT,,,,,,,187,0x55,,,,,,,,,,,,,,,
2025-06-13T06:35:38.374+00:00Z,CTRL_PKT_RECV,189,,,0x50,,,,,,,,,,,,,,,,,,,
2025-06-13T06:35:38.386+00:00Z,SEND_PERMIT_ACK_SENT,,,,,,,189,0x55,,,,,,,,,,,,,,,
2025-06-13T06:35:41.929+00:00Z,DATA_FRAME_RECV,189,-22,,,33,32,,,,,,,,,,,,,,,,,
2025-06-13T06:35:41.938+00:00Z,DATA_ACK_SENT,,,,,,,189,0xaa,,,,,,,,,,,,,,,
2025-06-13T06:35:41.941+00:00Z,DECODE_SUCCESS,189,-22,,,,,,,True,4940,1749796537.0,-0.615,0.275,0.774,0.0,0.0,0.0,19.5,36.8,-20.9,35.586265563964844,127.96873474121094,0.0
2025-06-13T06:35:45.271+00:00Z,CTRL_PKT_RECV,190,,,0x50,,,,,,,,,,,,,,,,,,,
2025-06-13T06:35:45.282+00:00Z,SEND_PERMIT_ACK_SENT,,,,,,,190,0x55,,,,,,,,,,,,,,,
2025-06-13T06:35:52.293+00:00Z,CTRL_PKT_RECV,192,,,0x50,,,,,,,,,,,,,,,,,,,
2025-06-13T06:35:52.302+00:00Z,SEND_PERMIT_ACK_SENT,,,,,,,192,0x55,,,,,,,,,,,,,,,
2025-06-13T06:35:55.848+00:00Z,DATA_FRAME_RECV,192,-22,,,33,32,,,,,,,,,,,,,,,,,
2025-06-13T06:35:55.858+00:00Z,DATA_ACK_SENT,,,,,,,192,0xaa,,,,,,,,,,,,,,,
2025-06-13T06:35:55.861+00:00Z,DECODE_SUCCESS,192,-22,,,,,,,True,4859,1749796551.0,-0.616,0.276,0.776,0.0,0.0,0.0,19.5,36.8,-20.9,37.08282470703125,127.15064239501953,86.3
2025-06-13T06:35:59.190+00:00Z,CTRL_PKT_RECV,193,,,0x50,,,,,,,,,,,,,,,,,,,
2025-06-13T06:35:59.202+00:00Z,SEND_PERMIT_ACK_SENT,,,,,,,193,0x55,,,,,,,,,,,,,,,
2025-06-13T06:36:06.214+00:00Z,CTRL_PKT_RECV,195,,,0x50,,,,,,,,,,,,,,,,,,,
2025-06-13T06:36:06.226+00:00Z,SEND_PERMIT_ACK_SENT,,,,,,,195,0x55,,,,,,,,,,,,,,,
2025-06-13T06:36:09.769+00:00Z,DATA_FRAME_RECV,195,-22,,,33,32,,,,,,,,,,,,,,,,,
2025-06-13T06:36:09.778+00:00Z,DATA_ACK_SENT,,,,,,,195,0xaa,,,,,,,,,,,,,,,
2025-06-13T06:36:09.782+00:00Z,DECODE_SUCCESS,195,-22,,,,,,,True,4779,1749796565.0,-0.617,0.275,0.775,0.0,0.0,0.0,19.5,36.8,-20.9,37.03055191040039,127.3344955444336,0.0
2025-06-13T06:36:13.112+00:00Z,CTRL_PKT_RECV,196,,,0x50,,,,,,,,,,,,,,,,,,,
2025-06-13T06:36:13.122+00:00Z,SEND_PERMIT_ACK_SENT,,,,,,,196,0x55,,,,,,,,,,,,,,,
2025-06-13T06:36:20.129+00:00Z,CTRL_PKT_RECV,198,,,0x50,,,,,,,,,,,,,,,,,,,
2025-06-13T06:36:20.138+00:00Z,SEND_PERMIT_ACK_SENT,,,,,,,198,0x55,,,,,,,,,,,,,,,
2025-06-13T06:36:23.684+00:00Z,DATA_FRAME_RECV,198,-22,,,33,32,,,,,,,,,,,,,,,,,
2025-06-13T06:36:23.694+00:00Z,DATA_ACK_SENT,,,,,,,198,0xaa,,,,,,,,,,,,,,,
2025-06-13T06:36:23.699+00:00Z,DECODE_SUCCESS,198,-22,,,,,,,True,5695,1749796578.0,-0.615,0.275,0.775,0.0,0.0,0.0,19.5,36.8,-20.9,36.87479782104492,126.5085220336914,96.7
2025-06-13T06:36:27.026+00:00Z,CTRL_PKT_RECV,199,,,0x50,,,,,,,,,,,,,,,,,,,
2025-06-13T06:36:27.038+00:00Z,SEND_PERMIT_ACK_SENT,,,,,,,199,0x55,,,,,,,,,,,,,,,
2025-06-13T06:37:24.822+00:00Z,KEYBOARD_INTERRUPT,,,,,,,,,,,,,,,,,,,,,,,
2025-06-13T06:37:24.823+00:00Z,PDR_CALCULATED,,,33.00% (66/200),,,,,,,,,,,,,,,,,,,,
2025-06-13T06:37:24.824+00:00Z,SERIAL_PORT_CLOSED,,,,,,,,,,,,,,,,,,,,,,,
2025-06-13T06:37:27.057+00:00Z,SERIAL_PORT_OPEN,,,,,,,,,,,,,,,,,,,,,,,
2025-06-13T06:37:34.059+00:00Z,HANDSHAKE_SYN_TIMEOUT,,,,,,,,,,,,,,,,,,,,,,,
2025-06-13T06:37:41.068+00:00Z,HANDSHAKE_SYN_TIMEOUT,,,,,,,,,,,,,,,,,,,,,,,
2025-06-13T06:37:43.026+00:00Z,HANDSHAKE_SYN_RECV,,,,,,,,,,,,,,,,,,,,,,,
2025-06-13T06:37:43.039+00:00Z,HANDSHAKE_ACK_SENT,,,,,,,0,0x00,,,,,,,,,,,,,,,
2025-06-13T06:37:43.039+00:00Z,HANDSHAKE_SUCCESS,,,,,,,,,,,,,,,,,,,,,,,
2025-06-13T06:37:45.370+00:00Z,CTRL_PKT_RECV,0,,,0x50,,,,,,,,,,,,,,,,,,,
2025-06-13T06:37:45.382+00:00Z,SEND_PERMIT_ACK_SENT,,,,,,,0,0x55,,,,,,,,,,,,,,,
2025-06-13T06:37:48.711+00:00Z,CTRL_PKT_RECV,1,,,0x50,,,,,,,,,,,,,,,,,,,
2025-06-13T06:37:48.722+00:00Z,SEND_PERMIT_ACK_SENT,,,,,,,1,0x55,,,,,,,,,,,,,,,
2025-06-13T06:37:55.733+00:00Z,CTRL_PKT_RECV,3,,,0x50,,,,,,,,,,,,,,,,,,,
2025-06-13T06:37:55.742+00:00Z,SEND_PERMIT_ACK_SENT,,,,,,,3,0x55,,,,,,,,,,,,,,,
2025-06-13T06:37:58.763+00:00Z,DATA_FRAME_RECV,3,-21,,,17,16,,,,,,,,,,,,,,,,,
2025-06-13T06:37:58.774+00:00Z,DATA_ACK_SENT,,,,,,,3,0xaa,,,,,,,,,,,,,,,
2025-06-13T06:37:58.777+00:00Z,DECODE_SUCCESS_DUMMY,3,-21,"type: dummy, size: 16",,,,,,,,,,,,,,,,,,,,
2025-06-13T06:38:02.105+00:00Z,CTRL_PKT_RECV,4,,,0x50,,,,,,,,,,,,,,,,,,,
2025-06-13T06:38:02.114+00:00Z,SEND_PERMIT_ACK_SENT,,,,,,,4,0x55,,,,,,,,,,,,,,,
2025-06-13T06:38:09.125+00:00Z,CTRL_PKT_RECV,6,,,0x50,,,,,,,,,,,,,,,,,,,
2025-06-13T06:38:09.134+00:00Z,SEND_PERMIT_ACK_SENT,,,,,,,6,0x55,,,,,,,,,,,,,,,
2025-06-13T06:38:12.154+00:00Z,DATA_FRAME_RECV,6,-21,,,17,16,,,,,,,,,,,,,,,,,
2025-06-13T06:38:12.166+00:00Z,DATA_ACK_SENT,,,,,,,6,0xaa,,,,,,,,,,,,,,,
2025-06-13T06:38:12.167+00:00Z,DECODE_SUCCESS_DUMMY,6,-21,"type: dummy, size: 16",,,,,,,,,,,,,,,,,,,,
2025-06-13T06:38:15.496+00:00Z,CTRL_PKT_RECV,7,,,0x50,,,,,,,,,,,,,,,,,,,
2025-06-13T06:38:15.506+00:00Z,SEND_PERMIT_ACK_SENT,,,,,,,7,0x55,,,,,,,,,,,,,,,
2025-06-13T06:38:22.514+00:00Z,CTRL_PKT_RECV,9,,,0x50,,,,,,,,,,,,,,,,,,,
2025-06-13T06:38:22.526+00:00Z,SEND_PERMIT_ACK_SENT,,,,,,,9,0x55,,,,,,,,,,,,,,,
2025-06-13T06:38:25.544+00:00Z,DATA_FRAME_RECV,9,-21,,,17,16,,,,,,,,,,,,,,,,,
2025-06-13T06:38:25.554+00:00Z,DATA_ACK_SENT,,,,,,,9,0xaa,,,,,,,,,,,,,,,
2025-06-13T06:38:25.556+00:00Z,DECODE_SUCCESS_DUMMY,9,-21,"type: dummy, size: 16",,,,,,,,,,,,,,,,,,,,
2025-06-13T06:38:28.885+00:00Z,CTRL_PKT_RECV,10,,,0x50,,,,,,,,,,,,,,,,,,,
2025-06-13T06:38:28.894+00:00Z,SEND_PERMIT_ACK_SENT,,,,,,,10,0x55,,,,,,,,,,,,,,,
2025-06-13T06:38:35.900+00:00Z,CTRL_PKT_RECV,12,,,0x50,,,,,,,,,,,,,,,,,,,
2025-06-13T06:38:35.910+00:00Z,SEND_PERMIT_ACK_SENT,,,,,,,12,0x55,,,,,,,,,,,,,,,
2025-06-13T06:38:38.929+00:00Z,DATA_FRAME_RECV,12,-22,,,17,16,,,,,,,,,,,,,,,,,
2025-06-13T06:38:38.942+00:00Z,DATA_ACK_SENT,,,,,,,12,0xaa,,,,,,,,,,,,,,,
2025-06-13T06:38:38.943+00:00Z,DECODE_SUCCESS_DUMMY,12,-22,"type: dummy, size: 16",,,,,,,,,,,,,,,,,,,,
2025-06-13T06:38:42.271+00:00Z,CTRL_PKT_RECV,13,,,0x50,,,,,,,,,,,,,,,,,,,
2025-06-13T06:38:42.282+00:00Z,SEND_PERMIT_ACK_SENT,,,,,,,13,0x55,,,,,,,,,,,,,,,
2025-06-13T06:38:49.293+00:00Z,CTRL_PKT_RECV,15,,,0x50,,,,,,,,,,,,,,,,,,,
2025-06-13T06:38:49.302+00:00Z,SEND_PERMIT_ACK_SENT,,,,,,,15,0x55,,,,,,,,,,,,,,,
2025-06-13T06:38:52.323+00:00Z,DATA_FRAME_RECV,15,-22,,,17,16,,,,,,,,,,,,,,,,,
2025-06-13T06:38:52.334+00:00Z,DATA_ACK_SENT,,,,,,,15,0xaa,,,,,,,,,,,,,,,
2025-06-13T06:38:52.335+00:00Z,DECODE_SUCCESS_DUMMY,15,-22,"type: dummy, size: 16",,,,,,,,,,,,,,,,,,,,
2025-06-13T06:38:55.664+00:00Z,CTRL_PKT_RECV,16,,,0x50,,,,,,,,,,,,,,,,,,,
2025-06-13T06:38:55.674+00:00Z,SEND_PERMIT_ACK_SENT,,,,,,,16,0x55,,,,,,,,,,,,,,,
2025-06-13T06:39:02.685+00:00Z,CTRL_PKT_RECV,18,,,0x50,,,,,,,,,,,,,,,,,,,
2025-06-13T06:39:02.694+00:00Z,SEND_PERMIT_ACK_SENT,,,,,,,18,0x55,,,,,,,,,,,,,,,
2025-06-13T06:39:05.715+00:00Z,DATA_FRAME_RECV,18,-21,,,17,16,,,,,,,,,,,,,,,,,
2025-06-13T06:39:05.726+00:00Z,DATA_ACK_SENT,,,,,,,18,0xaa,,,,,,,,,,,,,,,
2025-06-13T06:39:05.727+00:00Z,DECODE_SUCCESS_DUMMY,18,-21,"type: dummy, size: 16",,,,,,,,,,,,,,,,,,,,
2025-06-13T06:39:09.057+00:00Z,CTRL_PKT_RECV,19,,,0x50,,,,,,,,,,,,,,,,,,,
2025-06-13T06:39:09.066+00:00Z,SEND_PERMIT_ACK_SENT,,,,,,,19,0x55,,,,,,,,,,,,,,,
2025-06-13T06:39:16.078+00:00Z,CTRL_PKT_RECV,21,,,0x50,,,,,,,,,,,,,,,,,,,
2025-06-13T06:39:16.090+00:00Z,SEND_PERMIT_ACK_SENT,,,,,,,21,0x55,,,,,,,,,,,,,,,
2025-06-13T06:39:19.108+00:00Z,DATA_FRAME_RECV,21,-21,,,17,16,,,,,,,,,,,,,,,,,
2025-06-13T06:39:19.118+00:00Z,DATA_ACK_SENT,,,,,,,21,0xaa,,,,,,,,,,,,,,,
2025-06-13T06:39:19.119+00:00Z,DECODE_SUCCESS_DUMMY,21,-21,"type: dummy, size: 16",,,,,,,,,,,,,,,,,,,,
2025-06-13T06:39:22.450+00:00Z,CTRL_PKT_RECV,22,,,0x50,,,,,,,,,,,,,,,,,,,
2025-06-13T06:39:22.462+00:00Z,SEND_PERMIT_ACK_SENT,,,,,,,22,0x55,,,,,,,,,,,,,,,
2025-06-13T06:39:29.469+00:00Z,CTRL_PKT_RECV,24,,,0x50,,,,,,,,,,,,,,,,,,,
2025-06-13T06:39:29.479+00:00Z,SEND_PERMIT_ACK_SENT,,,,,,,24,0x55,,,,,,,,,,,,,,,
2025-06-13T06:39:32.498+00:00Z,DATA_FRAME_RECV,24,-22,,,17,16,,,,,,,,,,,,,,,,,
2025-06-13T06:39:32.510+00:00Z,DATA_ACK_SENT,,,,,,,24,0xaa,,,,,,,,,,,,,,,
2025-06-13T06:39:32.512+00:00Z,DECODE_SUCCESS_DUMMY,24,-22,"type: dummy, size: 16",,,,,,,,,,,,,,,,,,,,
2025-06-13T06:39:35.840+00:00Z,CTRL_PKT_RECV,25,,,0x50,,,,,,,,,,,,,,,,,,,
2025-06-13T06:39:35.850+00:00Z,SEND_PERMIT_ACK_SENT,,,,,,,25,0x55,,,,,,,,,,,,,,,
2025-06-13T06:39:42.861+00:00Z,CTRL_PKT_RECV,27,,,0x50,,,,,,,,,,,,,,,,,,,
2025-06-13T06:39:42.870+00:00Z,SEND_PERMIT_ACK_SENT,,,,,,,27,0x55,,,,,,,,,,,,,,,
2025-06-13T06:39:45.890+00:00Z,DATA_FRAME_RECV,27,-22,,,17,16,,,,,,,,,,,,,,,,,
2025-06-13T06:39:45.903+00:00Z,DATA_ACK_SENT,,,,,,,27,0xaa,,,,,,,,,,,,,,,
2025-06-13T06:39:45.905+00:00Z,DECODE_SUCCESS_DUMMY,27,-22,"type: dummy, size: 16",,,,,,,,,,,,,,,,,,,,
2025-06-13T06:39:49.232+00:00Z,CTRL_PKT_RECV,28,,,0x50,,,,,,,,,,,,,,,,,,,
2025-06-13T06:39:49.242+00:00Z,SEND_PERMIT_ACK_SENT,,,,,,,28,0x55,,,,,,,,,,,,,,,
2025-06-13T06:39:56.253+00:00Z,CTRL_PKT_RECV,30,,,0x50,,,,,,,,,,,,,,,,,,,
2025-06-13T06:39:56.262+00:00Z,SEND_PERMIT_ACK_SENT,,,,,,,30,0x55,,,,,,,,,,,,,,,
2025-06-13T06:39:59.283+00:00Z,DATA_FRAME_RECV,30,-21,,,17,16,,,,,,,,,,,,,,,,,
2025-06-13T06:39:59.295+00:00Z,DATA_ACK_SENT,,,,,,,30,0xaa,,,,,,,,,,,,,,,
2025-06-13T06:39:59.297+00:00Z,DECODE_SUCCESS_DUMMY,30,-21,"type: dummy, size: 16",,,,,,,,,,,,,,,,,,,,
2025-06-13T06:40:02.625+00:00Z,CTRL_PKT_RECV,31,,,0x50,,,,,,,,,,,,,,,,,,,
2025-06-13T06:40:02.634+00:00Z,SEND_PERMIT_ACK_SENT,,,,,,,31,0x55,,,,,,,,,,,,,,,
2025-06-13T06:40:09.645+00:00Z,CTRL_PKT_RECV,33,,,0x50,,,,,,,,,,,,,,,,,,,
2025-06-13T06:40:09.658+00:00Z,SEND_PERMIT_ACK_SENT,,,,,,,33,0x55,,,,,,,,,,,,,,,
2025-06-13T06:40:12.675+00:00Z,DATA_FRAME_RECV,33,-22,,,17,16,,,,,,,,,,,,,,,,,
2025-06-13T06:40:12.686+00:00Z,DATA_ACK_SENT,,,,,,,33,0xaa,,,,,,,,,,,,,,,
2025-06-13T06:40:12.688+00:00Z,DECODE_SUCCESS_DUMMY,33,-22,"type: dummy, size: 16",,,,,,,,,,,,,,,,,,,,
2025-06-13T06:40:16.016+00:00Z,CTRL_PKT_RECV,34,,,0x50,,,,,,,,,,,,,,,,,,,
2025-06-13T06:40:16.026+00:00Z,SEND_PERMIT_ACK_SENT,,,,,,,34,0x55,,,,,,,,,,,,,,,
2025-06-13T06:40:23.037+00:00Z,CTRL_PKT_RECV,36,,,0x50,,,,,,,,,,,,,,,,,,,
2025-06-13T06:40:23.046+00:00Z,SEND_PERMIT_ACK_SENT,,,,,,,36,0x55,,,,,,,,,,,,,,,
2025-06-13T06:40:26.066+00:00Z,DATA_FRAME_RECV,36,-21,,,17,16,,,,,,,,,,,,,,,,,
2025-06-13T06:40:26.079+00:00Z,DATA_ACK_SENT,,,,,,,36,0xaa,,,,,,,,,,,,,,,
2025-06-13T06:40:26.080+00:00Z,DECODE_SUCCESS_DUMMY,36,-21,"type: dummy, size: 16",,,,,,,,,,,,,,,,,,,,
2025-06-13T06:40:29.408+00:00Z,CTRL_PKT_RECV,37,,,0x50,,,,,,,,,,,,,,,,,,,
2025-06-13T06:40:29.418+00:00Z,SEND_PERMIT_ACK_SENT,,,,,,,37,0x55,,,,,,,,,,,,,,,
2025-06-13T06:40:36.429+00:00Z,CTRL_PKT_RECV,39,,,0x50,,,,,,,,,,,,,,,,,,,
2025-06-13T06:40:36.438+00:00Z,SEND_PERMIT_ACK_SENT,,,,,,,39,0x55,,,,,,,,,,,,,,,
2025-06-13T06:40:39.459+00:00Z,DATA_FRAME_RECV,39,-21,,,17,16,,,,,,,,,,,,,,,,,
2025-06-13T06:40:39.470+00:00Z,DATA_ACK_SENT,,,,,,,39,0xaa,,,,,,,,,,,,,,,
2025-06-13T06:40:39.472+00:00Z,DECODE_SUCCESS_DUMMY,39,-21,"type: dummy, size: 16",,,,,,,,,,,,,,,,,,,,
2025-06-13T06:40:42.801+00:00Z,CTRL_PKT_RECV,40,,,0x50,,,,,,,,,,,,,,,,,,,
2025-06-13T06:40:42.810+00:00Z,SEND_PERMIT_ACK_SENT,,,,,,,40,0x55,,,,,,,,,,,,,,,
2025-06-13T06:40:49.816+00:00Z,CTRL_PKT_RECV,42,,,0x50,,,,,,,,,,,,,,,,,,,
2025-06-13T06:40:49.826+00:00Z,SEND_PERMIT_ACK_SENT,,,,,,,42,0x55,,,,,,,,,,,,,,,
2025-06-13T06:40:52.846+00:00Z,DATA_FRAME_RECV,42,-22,,,17,16,,,,,,,,,,,,,,,,,
2025-06-13T06:40:52.858+00:00Z,DATA_ACK_SENT,,,,,,,42,0xaa,,,,,,,,,,,,,,,
2025-06-13T06:40:52.859+00:00Z,DECODE_SUCCESS_DUMMY,42,-22,"type: dummy, size: 16",,,,,,,,,,,,,,,,,,,,
2025-06-13T06:40:56.187+00:00Z,CTRL_PKT_RECV,43,,,0x50,,,,,,,,,,,,,,,,,,,
2025-06-13T06:40:56.198+00:00Z,SEND_PERMIT_ACK_SENT,,,,,,,43,0x55,,,,,,,,,,,,,,,
2025-06-13T06:41:03.209+00:00Z,CTRL_PKT_RECV,45,,,0x50,,,,,,,,,,,,,,,,,,,
2025-06-13T06:41:03.218+00:00Z,SEND_PERMIT_ACK_SENT,,,,,,,45,0x55,,,,,,,,,,,,,,,
2025-06-13T06:41:06.238+00:00Z,DATA_FRAME_RECV,45,-22,,,17,16,,,,,,,,,,,,,,,,,
2025-06-13T06:41:06.250+00:00Z,DATA_ACK_SENT,,,,,,,45,0xaa,,,,,,,,,,,,,,,
2025-06-13T06:41:06.252+00:00Z,DECODE_SUCCESS_DUMMY,45,-22,"type: dummy, size: 16",,,,,,,,,,,,,,,,,,,,
2025-06-13T06:41:09.580+00:00Z,CTRL_PKT_RECV,46,,,0x50,,,,,,,,,,,,,,,,,,,
2025-06-13T06:41:09.590+00:00Z,SEND_PERMIT_ACK_SENT,,,,,,,46,0x55,,,,,,,,,,,,,,,
2025-06-13T06:41:16.601+00:00Z,CTRL_PKT_RECV,48,,,0x50,,,,,,,,,,,,,,,,,,,
2025-06-13T06:41:16.611+00:00Z,SEND_PERMIT_ACK_SENT,,,,,,,48,0x55,,,,,,,,,,,,,,,
2025-06-13T06:41:19.630+00:00Z,DATA_FRAME_RECV,48,-21,,,17,16,,,,,,,,,,,,,,,,,
2025-06-13T06:41:19.643+00:00Z,DATA_ACK_SENT,,,,,,,48,0xaa,,,,,,,,,,,,,,,
2025-06-13T06:41:19.644+00:00Z,DECODE_SUCCESS_DUMMY,48,-21,"type: dummy, size: 16",,,,,,,,,,,,,,,,,,,,
2025-06-13T06:41:22.972+00:00Z,CTRL_PKT_RECV,49,,,0x50,,,,,,,,,,,,,,,,,,,
2025-06-13T06:41:22.982+00:00Z,SEND_PERMIT_ACK_SENT,,,,,,,49,0x55,,,,,,,,,,,,,,,
2025-06-13T06:41:29.993+00:00Z,CTRL_PKT_RECV,51,,,0x50,,,,,,,,,,,,,,,,,,,
2025-06-13T06:41:30.002+00:00Z,SEND_PERMIT_ACK_SENT,,,,,,,51,0x55,,,,,,,,,,,,,,,
2025-06-13T06:41:33.022+00:00Z,DATA_FRAME_RECV,51,-22,,,17,16,,,,,,,,,,,,,,,,,
2025-06-13T06:41:33.034+00:00Z,DATA_ACK_SENT,,,,,,,51,0xaa,,,,,,,,,,,,,,,
2025-06-13T06:41:33.036+00:00Z,DECODE_SUCCESS_DUMMY,51,-22,"type: dummy, size: 16",,,,,,,,,,,,,,,,,,,,
2025-06-13T06:41:36.364+00:00Z,CTRL_PKT_RECV,52,,,0x50,,,,,,,,,,,,,,,,,,,
2025-06-13T06:41:36.374+00:00Z,SEND_PERMIT_ACK_SENT,,,,,,,52,0x55,,,,,,,,,,,,,,,
2025-06-13T06:41:43.385+00:00Z,CTRL_PKT_RECV,54,,,0x50,,,,,,,,,,,,,,,,,,,
2025-06-13T06:41:43.394+00:00Z,SEND_PERMIT_ACK_SENT,,,,,,,54,0x55,,,,,,,,,,,,,,,
2025-06-13T06:41:46.414+00:00Z,DATA_FRAME_RECV,54,-21,,,17,16,,,,,,,,,,,,,,,,,
2025-06-13T06:41:46.426+00:00Z,DATA_ACK_SENT,,,,,,,54,0xaa,,,,,,,,,,,,,,,
2025-06-13T06:41:46.428+00:00Z,DECODE_SUCCESS_DUMMY,54,-21,"type: dummy, size: 16",,,,,,,,,,,,,,,,,,,,
2025-06-13T06:41:49.756+00:00Z,CTRL_PKT_RECV,55,,,0x50,,,,,,,,,,,,,,,,,,,
2025-06-13T06:41:49.766+00:00Z,SEND_PERMIT_ACK_SENT,,,,,,,55,0x55,,,,,,,,,,,,,,,
2025-06-13T06:41:56.772+00:00Z,CTRL_PKT_RECV,57,,,0x50,,,,,,,,,,,,,,,,,,,
2025-06-13T06:41:56.782+00:00Z,SEND_PERMIT_ACK_SENT,,,,,,,57,0x55,,,,,,,,,,,,,,,
2025-06-13T06:41:59.802+00:00Z,DATA_FRAME_RECV,57,-21,,,17,16,,,,,,,,,,,,,,,,,
2025-06-13T06:41:59.814+00:00Z,DATA_ACK_SENT,,,,,,,57,0xaa,,,,,,,,,,,,,,,
2025-06-13T06:41:59.815+00:00Z,DECODE_SUCCESS_DUMMY,57,-21,"type: dummy, size: 16",,,,,,,,,,,,,,,,,,,,
2025-06-13T06:42:03.144+00:00Z,CTRL_PKT_RECV,58,,,0x50,,,,,,,,,,,,,,,,,,,
2025-06-13T06:42:03.154+00:00Z,SEND_PERMIT_ACK_SENT,,,,,,,58,0x55,,,,,,,,,,,,,,,
2025-06-13T06:42:10.160+00:00Z,CTRL_PKT_RECV,60,,,0x50,,,,,,,,,,,,,,,,,,,
2025-06-13T06:42:10.170+00:00Z,SEND_PERMIT_ACK_SENT,,,,,,,60,0x55,,,,,,,,,,,,,,,
2025-06-13T06:42:13.190+00:00Z,DATA_FRAME_RECV,60,-21,,,17,16,,,,,,,,,,,,,,,,,
2025-06-13T06:42:13.202+00:00Z,DATA_ACK_SENT,,,,,,,60,0xaa,,,,,,,,,,,,,,,
2025-06-13T06:42:13.203+00:00Z,DECODE_SUCCESS_DUMMY,60,-21,"type: dummy, size: 16",,,,,,,,,,,,,,,,,,,,
2025-06-13T06:42:16.532+00:00Z,CTRL_PKT_RECV,61,,,0x50,,,,,,,,,,,,,,,,,,,
2025-06-13T06:42:16.542+00:00Z,SEND_PERMIT_ACK_SENT,,,,,,,61,0x55,,,,,,,,,,,,,,,
2025-06-13T06:42:23.553+00:00Z,CTRL_PKT_RECV,63,,,0x50,,,,,,,,,,,,,,,,,,,
2025-06-13T06:42:23.566+00:00Z,SEND_PERMIT_ACK_SENT,,,,,,,63,0x55,,,,,,,,,,,,,,,
2025-06-13T06:42:26.583+00:00Z,DATA_FRAME_RECV,63,-21,,,17,16,,,,,,,,,,,,,,,,,
2025-06-13T06:42:26.594+00:00Z,DATA_ACK_SENT,,,,,,,63,0xaa,,,,,,,,,,,,,,,
2025-06-13T06:42:26.595+00:00Z,DECODE_SUCCESS_DUMMY,63,-21,"type: dummy, size: 16",,,,,,,,,,,,,,,,,,,,
2025-06-13T06:42:29.924+00:00Z,CTRL_PKT_RECV,64,,,0x50,,,,,,,,,,,,,,,,,,,
2025-06-13T06:42:29.934+00:00Z,SEND_PERMIT_ACK_SENT,,,,,,,64,0x55,,,,,,,,,,,,,,,
2025-06-13T06:42:36.945+00:00Z,CTRL_PKT_RECV,66,,,0x50,,,,,,,,,,,,,,,,,,,
2025-06-13T06:42:36.954+00:00Z,SEND_PERMIT_ACK_SENT,,,,,,,66,0x55,,,,,,,,,,,,,,,
2025-06-13T06:42:39.974+00:00Z,DATA_FRAME_RECV,66,-21,,,17,16,,,,,,,,,,,,,,,,,
2025-06-13T06:42:39.986+00:00Z,DATA_ACK_SENT,,,,,,,66,0xaa,,,,,,,,,,,,,,,
2025-06-13T06:42:39.987+00:00Z,DECODE_SUCCESS_DUMMY,66,-21,"type: dummy, size: 16",,,,,,,,,,,,,,,,,,,,
2025-06-13T06:42:43.316+00:00Z,CTRL_PKT_RECV,67,,,0x50,,,,,,,,,,,,,,,,,,,
2025-06-13T06:42:43.326+00:00Z,SEND_PERMIT_ACK_SENT,,,,,,,67,0x55,,,,,,,,,,,,,,,
2025-06-13T06:42:50.337+00:00Z,CTRL_PKT_RECV,69,,,0x50,,,,,,,,,,,,,,,,,,,
2025-06-13T06:42:50.346+00:00Z,SEND_PERMIT_ACK_SENT,,,,,,,69,0x55,,,,,,,,,,,,,,,
2025-06-13T06:42:53.366+00:00Z,DATA_FRAME_RECV,69,-21,,,17,16,,,,,,,,,,,,,,,,,
2025-06-13T06:42:53.378+00:00Z,DATA_ACK_SENT,,,,,,,69,0xaa,,,,,,,,,,,,,,,
2025-06-13T06:42:53.379+00:00Z,DECODE_SUCCESS_DUMMY,69,-21,"type: dummy, size: 16",,,,,,,,,,,,,,,,,,,,
2025-06-13T06:42:56.707+00:00Z,CTRL_PKT_RECV,70,,,0x50,,,,,,,,,,,,,,,,,,,
2025-06-13T06:42:56.718+00:00Z,SEND_PERMIT_ACK_SENT,,,,,,,70,0x55,,,,,,,,,,,,,,,
2025-06-13T06:43:03.725+00:00Z,CTRL_PKT_RECV,72,,,0x50,,,,,,,,,,,,,,,,,,,
2025-06-13T06:43:03.734+00:00Z,SEND_PERMIT_ACK_SENT,,,,,,,72,0x55,,,,,,,,,,,,,,,
2025-06-13T06:43:06.754+00:00Z,DATA_FRAME_RECV,72,-21,,,17,16,,,,,,,,,,,,,,,,,
2025-06-13T06:43:06.767+00:00Z,DATA_ACK_SENT,,,,,,,72,0xaa,,,,,,,,,,,,,,,
2025-06-13T06:43:06.768+00:00Z,DECODE_SUCCESS_DUMMY,72,-21,"type: dummy, size: 16",,,,,,,,,,,,,,,,,,,,
2025-06-13T06:43:10.096+00:00Z,CTRL_PKT_RECV,73,,,0x50,,,,,,,,,,,,,,,,,,,
2025-06-13T06:43:10.106+00:00Z,SEND_PERMIT_ACK_SENT,,,,,,,73,0x55,,,,,,,,,,,,,,,
2025-06-13T06:43:17.113+00:00Z,CTRL_PKT_RECV,75,,,0x50,,,,,,,,,,,,,,,,,,,
2025-06-13T06:43:17.122+00:00Z,SEND_PERMIT_ACK_SENT,,,,,,,75,0x55,,,,,,,,,,,,,,,
2025-06-13T06:43:20.142+00:00Z,DATA_FRAME_RECV,75,-22,,,17,16,,,,,,,,,,,,,,,,,
2025-06-13T06:43:20.154+00:00Z,DATA_ACK_SENT,,,,,,,75,0xaa,,,,,,,,,,,,,,,
2025-06-13T06:43:20.156+00:00Z,DECODE_SUCCESS_DUMMY,75,-22,"type: dummy, size: 16",,,,,,,,,,,,,,,,,,,,
2025-06-13T06:43:23.484+00:00Z,CTRL_PKT_RECV,76,,,0x50,,,,,,,,,,,,,,,,,,,
2025-06-13T06:43:23.494+00:00Z,SEND_PERMIT_ACK_SENT,,,,,,,76,0x55,,,,,,,,,,,,,,,
2025-06-13T06:43:30.505+00:00Z,CTRL_PKT_RECV,78,,,0x50,,,,,,,,,,,,,,,,,,,
2025-06-13T06:43:30.514+00:00Z,SEND_PERMIT_ACK_SENT,,,,,,,78,0x55,,,,,,,,,,,,,,,
2025-06-13T06:43:33.534+00:00Z,DATA_FRAME_RECV,78,-22,,,17,16,,,,,,,,,,,,,,,,,
2025-06-13T06:43:33.546+00:00Z,DATA_ACK_SENT,,,,,,,78,0xaa,,,,,,,,,,,,,,,
2025-06-13T06:43:33.547+00:00Z,DECODE_SUCCESS_DUMMY,78,-22,"type: dummy, size: 16",,,,,,,,,,,,,,,,,,,,
2025-06-13T06:43:36.876+00:00Z,CTRL_PKT_RECV,79,,,0x50,,,,,,,,,,,,,,,,,,,
2025-06-13T06:43:36.886+00:00Z,SEND_PERMIT_ACK_SENT,,,,,,,79,0x55,,,,,,,,,,,,,,,
2025-06-13T06:43:43.898+00:00Z,CTRL_PKT_RECV,81,,,0x50,,,,,,,,,,,,,,,,,,,
2025-06-13T06:43:43.910+00:00Z,SEND_PERMIT_ACK_SENT,,,,,,,81,0x55,,,,,,,,,,,,,,,
2025-06-13T06:43:46.927+00:00Z,DATA_FRAME_RECV,81,-22,,,17,16,,,,,,,,,,,,,,,,,
2025-06-13T06:43:46.938+00:00Z,DATA_ACK_SENT,,,,,,,81,0xaa,,,,,,,,,,,,,,,
2025-06-13T06:43:46.939+00:00Z,DECODE_SUCCESS_DUMMY,81,-22,"type: dummy, size: 16",,,,,,,,,,,,,,,,,,,,
2025-06-13T06:43:50.269+00:00Z,CTRL_PKT_RECV,82,,,0x50,,,,,,,,,,,,,,,,,,,
2025-06-13T06:43:50.282+00:00Z,SEND_PERMIT_ACK_SENT,,,,,,,82,0x55,,,,,,,,,,,,,,,
2025-06-13T06:43:57.289+00:00Z,CTRL_PKT_RECV,84,,,0x50,,,,,,,,,,,,,,,,,,,
2025-06-13T06:43:57.302+00:00Z,SEND_PERMIT_ACK_SENT,,,,,,,84,0x55,,,,,,,,,,,,,,,
2025-06-13T06:44:00.319+00:00Z,DATA_FRAME_RECV,84,-22,,,17,16,,,,,,,,,,,,,,,,,
2025-06-13T06:44:00.330+00:00Z,DATA_ACK_SENT,,,,,,,84,0xaa,,,,,,,,,,,,,,,
