log_timestamp_utc,event_type,frame_seq_recv,packet_type_recv_hex,data_len_byte_value,payload_len_on_wire,rssi_dbm,ack_seq_sent,ack_type_sent_hex,decoded_ts_valid_check,decoded_latency_ms_calc,notes,decoded_ts,decoded_accel_ax,decoded_accel_ay,decoded_accel_az,decoded_gyro_gx,decoded_gyro_gy,decoded_gyro_gz,decoded_angle_roll,decoded_angle_pitch,decoded_angle_yaw,decoded_gps_lat,decoded_gps_lon,decoded_gps_altitude
2025-06-04T04:49:53.295+00:00Z,SERIAL_PORT_OPEN_SUCCESS,,,,,,,,,,"Port: /dev/ttyAMA0, Baud: 9600",,,,,,,,,,,,,
2025-06-04T04:49:56.730+00:00Z,HANDSHAKE_SYN_RECV,,SYN,,,,,,,,,,,,,,,,,,,,,
2025-06-04T04:49:56.741+00:00Z,HANDSHAKE_ACK_SENT_OK,,,,,,0,0x00,,,,,,,,,,,,,,,,
2025-06-04T04:49:56.742+00:00Z,HANDSHAKE_SUCCESS,,,,,,,,,,,,,,,,,,,,,,,
2025-06-04T04:52:20.235+00:00Z,KEYBOARD_INTERRUPT,,,,,,,,,,,,,,,,,,,,,,,
2025-06-04T04:52:20.237+00:00Z,SERIAL_PORT_CLOSED,,,,,,,,,,,,,,,,,,,,,,,
2025-06-04T04:52:21.254+00:00Z,SERIAL_PORT_OPEN_SUCCESS,,,,,,,,,,"Port: /dev/ttyAMA0, Baud: 9600",,,,,,,,,,,,,
2025-06-04T04:52:23.858+00:00Z,HANDSHAKE_SYN_RECV,,SYN,,,,,,,,,,,,,,,,,,,,,
2025-06-04T04:52:23.869+00:00Z,HANDSHAKE_ACK_SENT_OK,,,,,,0,0x00,,,,,,,,,,,,,,,,
2025-06-04T04:52:23.869+00:00Z,HANDSHAKE_SUCCESS,,,,,,,,,,,,,,,,,,,,,,,
2025-06-04T04:56:48.256+00:00Z,KEYBOARD_INTERRUPT,,,,,,,,,,,,,,,,,,,,,,,
2025-06-04T04:56:48.257+00:00Z,SERIAL_PORT_CLOSED,,,,,,,,,,,,,,,,,,,,,,,
2025-06-04T04:56:49.508+00:00Z,SERIAL_PORT_OPEN_SUCCESS,,,,,,,,,,"Port: /dev/ttyAMA0, Baud: 9600",,,,,,,,,,,,,
2025-06-04T04:56:52.519+00:00Z,HANDSHAKE_SYN_RECV,,SYN,,,,,,,,,,,,,,,,,,,,,
2025-06-04T04:56:52.529+00:00Z,HANDSHAKE_ACK_SENT_OK,,,,,,0,0x00,,,,,,,,,,,,,,,,
2025-06-04T04:56:52.530+00:00Z,HANDSHAKE_SUCCESS,,,,,,,,,,,,,,,,,,,,,,,
2025-06-04T04:57:01.539+00:00Z,DATA_LEN_BYTE_RECV,,LEN_0x0d,13,,,,,,,,,,,,,,,,,,,,
2025-06-04T04:57:01.590+00:00Z,DATA_FRAME_CONTENT_FAIL,,,13,,,,,,,"Expected 13B, got 2B. Raw: 0a a3",,,,,,,,,,,,,
2025-06-04T04:57:10.563+00:00Z,DATA_LEN_BYTE_RECV,,LEN_0x0d,13,,,,,,,,,,,,,,,,,,,,
2025-06-04T04:57:10.614+00:00Z,DATA_FRAME_CONTENT_FAIL,,,13,,,,,,,"Expected 13B, got 2B. Raw: 0a a3",,,,,,,,,,,,,
2025-06-04T04:57:22.527+00:00Z,KEYBOARD_INTERRUPT,,,,,,,,,,,,,,,,,,,,,,,
2025-06-04T04:57:22.528+00:00Z,SERIAL_PORT_CLOSED,,,,,,,,,,,,,,,,,,,,,,,
2025-06-04T04:57:23.423+00:00Z,SERIAL_PORT_OPEN_SUCCESS,,,,,,,,,,"Port: /dev/ttyAMA0, Baud: 9600",,,,,,,,,,,,,
2025-06-04T04:57:25.300+00:00Z,HANDSHAKE_SYN_RECV,,SYN,,,,,,,,,,,,,,,,,,,,,
2025-06-04T04:57:25.309+00:00Z,HANDSHAKE_ACK_SENT_OK,,,,,,0,0x00,,,,,,,,,,,,,,,,
2025-06-04T04:57:25.310+00:00Z,HANDSHAKE_SUCCESS,,,,,,,,,,,,,,,,,,,,,,,
2025-06-04T04:57:34.323+00:00Z,DATA_LEN_BYTE_RECV,,LEN_0x0d,13,,,,,,,,,,,,,,,,,,,,
2025-06-04T04:57:34.374+00:00Z,DATA_FRAME_CONTENT_FAIL,,,13,,,,,,,"Expected 13B, got 2B. Raw: 0a a3",,,,,,,,,,,,,
2025-06-04T04:57:43.348+00:00Z,DATA_LEN_BYTE_RECV,,LEN_0x0d,13,,,,,,,,,,,,,,,,,,,,
2025-06-04T04:57:43.399+00:00Z,DATA_FRAME_CONTENT_FAIL,,,13,,,,,,,"Expected 13B, got 2B. Raw: 0a a3",,,,,,,,,,,,,
2025-06-04T04:57:54.587+00:00Z,DATA_LEN_BYTE_RECV,,LEN_0x0d,13,,,,,,,,,,,,,,,,,,,,
2025-06-04T04:57:54.638+00:00Z,DATA_FRAME_CONTENT_FAIL,,,13,,,,,,,"Expected 13B, got 2B. Raw: 0a a3",,,,,,,,,,,,,
2025-06-04T04:57:57.566+00:00Z,KEYBOARD_INTERRUPT,,,,,,,,,,,,,,,,,,,,,,,
2025-06-04T04:57:57.567+00:00Z,SERIAL_PORT_CLOSED,,,,,,,,,,,,,,,,,,,,,,,
2025-06-04T04:59:01.925+00:00Z,SERIAL_PORT_OPEN_SUCCESS,,,,,,,,,,"Port: /dev/ttyAMA0, Baud: 9600",,,,,,,,,,,,,
2025-06-04T04:59:07.734+00:00Z,HANDSHAKE_SYN_RECV,,SYN,,,,,,,,,,,,,,,,,,,,,
2025-06-04T04:59:07.746+00:00Z,HANDSHAKE_ACK_SENT_OK,,,,,,0,0x00,,,,,,,,,,,,,,,,
2025-06-04T04:59:07.747+00:00Z,HANDSHAKE_SUCCESS,,,,,,,,,,,,,,,,,,,,,,,
2025-06-04T04:59:16.757+00:00Z,DATA_LEN_BYTE_RECV,,LEN_0x0d,13,,,,,,,,,,,,,,,,,,,,
2025-06-04T04:59:16.808+00:00Z,DATA_FRAME_CONTENT_FAIL,,,13,,,,,,,"Expected 13B, got 2B. Raw: 0a a3",,,,,,,,,,,,,
2025-06-04T04:59:25.782+00:00Z,DATA_LEN_BYTE_RECV,,LEN_0x0d,13,,,,,,,,,,,,,,,,,,,,
2025-06-04T04:59:25.833+00:00Z,DATA_FRAME_CONTENT_FAIL,,,13,,,,,,,"Expected 13B, got 2B. Raw: 0a a3",,,,,,,,,,,,,
2025-06-04T04:59:36.686+00:00Z,KEYBOARD_INTERRUPT,,,,,,,,,,,,,,,,,,,,,,,
2025-06-04T04:59:36.688+00:00Z,SERIAL_PORT_CLOSED,,,,,,,,,,,,,,,,,,,,,,,
2025-06-04T04:59:38.306+00:00Z,SERIAL_PORT_OPEN_SUCCESS,,,,,,,,,,"Port: /dev/ttyAMA0, Baud: 9600",,,,,,,,,,,,,
2025-06-04T04:59:40.621+00:00Z,HANDSHAKE_SYN_RECV,,SYN,,,,,,,,,,,,,,,,,,,,,
2025-06-04T04:59:40.633+00:00Z,HANDSHAKE_ACK_SENT_OK,,,,,,0,0x00,,,,,,,,,,,,,,,,
2025-06-04T04:59:40.634+00:00Z,HANDSHAKE_SUCCESS,,,,,,,,,,,,,,,,,,,,,,,
2025-06-04T04:59:43.663+00:00Z,CTRL_PKT_RECV,0,0x50,,,,,,,,,,,,,,,,,,,,,
2025-06-04T04:59:43.673+00:00Z,SEND_PERMIT_ACK_SENT_OK,,,,,,0,0x55,,,,,,,,,,,,,,,,
2025-06-04T04:59:47.658+00:00Z,KEYBOARD_INTERRUPT,,,,,,,,,,,,,,,,,,,,,,,
2025-06-04T04:59:47.660+00:00Z,SERIAL_PORT_CLOSED,,,,,,,,,,,,,,,,,,,,,,,
2025-06-04T04:59:54.238+00:00Z,SERIAL_PORT_OPEN_SUCCESS,,,,,,,,,,"Port: /dev/ttyAMA0, Baud: 9600",,,,,,,,,,,,,
2025-06-04T04:59:57.793+00:00Z,HANDSHAKE_SYN_RECV,,SYN,,,,,,,,,,,,,,,,,,,,,
2025-06-04T04:59:57.805+00:00Z,HANDSHAKE_ACK_SENT_OK,,,,,,0,0x00,,,,,,,,,,,,,,,,
2025-06-04T04:59:57.805+00:00Z,HANDSHAKE_SUCCESS,,,,,,,,,,,,,,,,,,,,,,,
2025-06-04T05:00:06.811+00:00Z,DATA_LEN_BYTE_RECV,,LEN_0x0d,13,,,,,,,,,,,,,,,,,,,,
2025-06-04T05:00:06.862+00:00Z,DATA_FRAME_CONTENT_FAIL,,,13,,,,,,,"Expected 13B, got 2B. Raw: 0a a4",,,,,,,,,,,,,
2025-06-04T05:00:15.835+00:00Z,DATA_LEN_BYTE_RECV,,LEN_0x0d,13,,,,,,,,,,,,,,,,,,,,
2025-06-04T05:00:15.886+00:00Z,DATA_FRAME_CONTENT_FAIL,,,13,,,,,,,"Expected 13B, got 2B. Raw: 0a a3",,,,,,,,,,,,,
2025-06-04T05:00:24.029+00:00Z,KEYBOARD_INTERRUPT,,,,,,,,,,,,,,,,,,,,,,,
2025-06-04T05:00:24.030+00:00Z,SERIAL_PORT_CLOSED,,,,,,,,,,,,,,,,,,,,,,,
2025-06-04T05:00:26.215+00:00Z,SERIAL_PORT_OPEN_SUCCESS,,,,,,,,,,"Port: /dev/ttyAMA0, Baud: 9600",,,,,,,,,,,,,
2025-06-04T05:00:29.152+00:00Z,HANDSHAKE_SYN_RECV,,SYN,,,,,,,,,,,,,,,,,,,,,
2025-06-04T05:00:29.162+00:00Z,HANDSHAKE_ACK_SENT_OK,,,,,,0,0x00,,,,,,,,,,,,,,,,
2025-06-04T05:00:29.163+00:00Z,HANDSHAKE_SUCCESS,,,,,,,,,,,,,,,,,,,,,,,
2025-06-04T05:00:38.169+00:00Z,DATA_LEN_BYTE_RECV,,LEN_0x0d,13,,,,,,,,,,,,,,,,,,,,
2025-06-04T05:00:38.220+00:00Z,DATA_FRAME_CONTENT_FAIL,,,13,,,,,,,"Expected 13B, got 2B. Raw: 0a a3",,,,,,,,,,,,,
2025-06-04T05:00:46.321+00:00Z,KEYBOARD_INTERRUPT,,,,,,,,,,,,,,,,,,,,,,,
2025-06-04T05:00:46.322+00:00Z,SERIAL_PORT_CLOSED,,,,,,,,,,,,,,,,,,,,,,,
2025-06-04T05:00:53.955+00:00Z,SERIAL_PORT_OPEN_SUCCESS,,,,,,,,,,"Port: /dev/ttyAMA0, Baud: 9600",,,,,,,,,,,,,
2025-06-04T05:00:56.329+00:00Z,HANDSHAKE_SYN_RECV,,SYN,,,,,,,,,,,,,,,,,,,,,
2025-06-04T05:00:56.341+00:00Z,HANDSHAKE_ACK_SENT_OK,,,,,,0,0x00,,,,,,,,,,,,,,,,
2025-06-04T05:00:56.342+00:00Z,HANDSHAKE_SUCCESS,,,,,,,,,,,,,,,,,,,,,,,
2025-06-04T05:01:05.352+00:00Z,DATA_LEN_BYTE_RECV,,LEN_0x0d,13,,,,,,,,,,,,,,,,,,,,
2025-06-04T05:01:05.403+00:00Z,DATA_FRAME_CONTENT_FAIL,,,13,,,,,,,"Expected 13B, got 2B. Raw: 0a a2",,,,,,,,,,,,,
2025-06-04T05:01:14.369+00:00Z,DATA_LEN_BYTE_RECV,,LEN_0x0d,13,,,,,,,,,,,,,,,,,,,,
2025-06-04T05:01:14.420+00:00Z,DATA_FRAME_CONTENT_FAIL,,,13,,,,,,,"Expected 13B, got 2B. Raw: 0a a2",,,,,,,,,,,,,
2025-06-04T05:01:25.098+00:00Z,DATA_LEN_BYTE_RECV,,LEN_0x0d,13,,,,,,,,,,,,,,,,,,,,
2025-06-04T05:01:25.149+00:00Z,DATA_FRAME_CONTENT_FAIL,,,13,,,,,,,"Expected 13B, got 2B. Raw: 0a a3",,,,,,,,,,,,,
2025-06-04T05:01:34.115+00:00Z,DATA_LEN_BYTE_RECV,,LEN_0x0d,13,,,,,,,,,,,,,,,,,,,,
2025-06-04T05:01:34.166+00:00Z,DATA_FRAME_CONTENT_FAIL,,,13,,,,,,,"Expected 13B, got 2B. Raw: 0a a3",,,,,,,,,,,,,
2025-06-04T05:01:37.640+00:00Z,KEYBOARD_INTERRUPT,,,,,,,,,,,,,,,,,,,,,,,
2025-06-04T05:01:37.641+00:00Z,SERIAL_PORT_CLOSED,,,,,,,,,,,,,,,,,,,,,,,
2025-06-04T05:01:41.532+00:00Z,SERIAL_PORT_OPEN_SUCCESS,,,,,,,,,,"Port: /dev/ttyAMA0, Baud: 9600",,,,,,,,,,,,,
2025-06-04T05:01:43.076+00:00Z,HANDSHAKE_SYN_RECV,,SYN,,,,,,,,,,,,,,,,,,,,,
2025-06-04T05:01:43.085+00:00Z,HANDSHAKE_ACK_SENT_OK,,,,,,0,0x00,,,,,,,,,,,,,,,,
2025-06-04T05:01:43.086+00:00Z,HANDSHAKE_SUCCESS,,,,,,,,,,,,,,,,,,,,,,,
2025-06-04T05:01:52.095+00:00Z,DATA_LEN_BYTE_RECV,,LEN_0x0d,13,,,,,,,,,,,,,,,,,,,,
2025-06-04T05:01:52.146+00:00Z,DATA_FRAME_CONTENT_FAIL,,,13,,,,,,,"Expected 13B, got 2B. Raw: 0a a3",,,,,,,,,,,,,
2025-06-04T05:02:01.119+00:00Z,DATA_LEN_BYTE_RECV,,LEN_0x0d,13,,,,,,,,,,,,,,,,,,,,
2025-06-04T05:02:01.170+00:00Z,DATA_FRAME_CONTENT_FAIL,,,13,,,,,,,"Expected 13B, got 2B. Raw: 0a a3",,,,,,,,,,,,,
2025-06-04T05:02:03.702+00:00Z,KEYBOARD_INTERRUPT,,,,,,,,,,,,,,,,,,,,,,,
2025-06-04T05:02:03.703+00:00Z,SERIAL_PORT_CLOSED,,,,,,,,,,,,,,,,,,,,,,,
2025-06-04T05:02:18.352+00:00Z,SERIAL_PORT_OPEN_SUCCESS,,,,,,,,,,"Port: /dev/ttyAMA0, Baud: 9600",,,,,,,,,,,,,
2025-06-04T05:02:20.814+00:00Z,HANDSHAKE_SYN_RECV,,SYN,,,,,,,,,,,,,,,,,,,,,
2025-06-04T05:02:20.825+00:00Z,HANDSHAKE_ACK_SENT_OK,,,,,,0,0x00,,,,,,,,,,,,,,,,
2025-06-04T05:02:20.826+00:00Z,HANDSHAKE_SUCCESS,,,,,,,,,,,,,,,,,,,,,,,
2025-06-04T05:02:29.838+00:00Z,DATA_LEN_BYTE_RECV,,LEN_0x0d,13,,,,,,,,,,,,,,,,,,,,
2025-06-04T05:02:29.889+00:00Z,DATA_FRAME_CONTENT_FAIL,,,13,,,,,,,"Expected 13B, got 2B. Raw: 0a a4",,,,,,,,,,,,,
2025-06-04T05:02:38.855+00:00Z,DATA_LEN_BYTE_RECV,,LEN_0x0d,13,,,,,,,,,,,,,,,,,,,,
2025-06-04T05:02:38.906+00:00Z,DATA_FRAME_CONTENT_FAIL,,,13,,,,,,,"Expected 13B, got 2B. Raw: 0a a3",,,,,,,,,,,,,
2025-06-04T05:02:46.644+00:00Z,KEYBOARD_INTERRUPT,,,,,,,,,,,,,,,,,,,,,,,
2025-06-04T05:02:46.645+00:00Z,SERIAL_PORT_CLOSED,,,,,,,,,,,,,,,,,,,,,,,
2025-06-04T05:02:48.809+00:00Z,SERIAL_PORT_OPEN_SUCCESS,,,,,,,,,,"Port: /dev/ttyAMA0, Baud: 9600",,,,,,,,,,,,,
2025-06-04T05:02:56.144+00:00Z,HANDSHAKE_SYN_RECV,,SYN,,,,,,,,,,,,,,,,,,,,,
2025-06-04T05:02:56.153+00:00Z,HANDSHAKE_ACK_SENT_OK,,,,,,0,0x00,,,,,,,,,,,,,,,,
2025-06-04T05:02:56.154+00:00Z,HANDSHAKE_SUCCESS,,,,,,,,,,,,,,,,,,,,,,,
2025-06-04T05:04:50.834+00:00Z,CTRL_PKT_RECV,1,0x50,,,,,,,,,,,,,,,,,,,,,
2025-06-04T05:04:50.849+00:00Z,SEND_PERMIT_ACK_SENT_OK,,,,,,1,0x55,,,,,,,,,,,,,,,,
2025-06-04T05:04:51.502+00:00Z,DATA_LEN_BYTE_RECV,,LEN_0x2a,42,,,,,,,,,,,,,,,,,,,,
2025-06-04T05:04:51.535+00:00Z,DATA_FRAME_RECV_FULL,1,DATA_FRAME,42,41,-93,,,,,,,,,,,,,,,,,,
2025-06-04T05:04:51.545+00:00Z,DATA_ACK_SENT_OK,,,,,,1,0xaa,,,,,,,,,,,,,,,,
2025-06-04T05:04:51.547+00:00Z,DECODE_SUCCESS,1,,,41,,,,True,1546,Msg #1,1749013490.0,0.223,-0.515,0.868,0.6,-0.2,0.0,-30.6,-12.5,-37.7,35.14784240722656,129.02688598632812,44.2
2025-06-04T05:04:52.992+00:00Z,CTRL_PKT_RECV,2,0x50,,,,,,,,,,,,,,,,,,,,,
2025-06-04T05:04:53.001+00:00Z,SEND_PERMIT_ACK_SENT_OK,,,,,,2,0x55,,,,,,,,,,,,,,,,
2025-06-04T05:05:02.036+00:00Z,CTRL_PKT_RECV,3,0x50,,,,,,,,,,,,,,,,,,,,,
2025-06-04T05:05:02.045+00:00Z,SEND_PERMIT_ACK_SENT_OK,,,,,,3,0x55,,,,,,,,,,,,,,,,
2025-06-04T05:05:02.703+00:00Z,DATA_LEN_BYTE_RECV,,LEN_0x2a,42,,,,,,,,,,,,,,,,,,,,
2025-06-04T05:05:02.736+00:00Z,DATA_FRAME_RECV_FULL,3,DATA_FRAME,42,41,-93,,,,,,,,,,,,,,,,,,
2025-06-04T05:05:02.745+00:00Z,DATA_ACK_SENT_OK,,,,,,3,0xaa,,,,,,,,,,,,,,,,
2025-06-04T05:05:02.746+00:00Z,DECODE_SUCCESS,3,,,41,,,,True,1746,Msg #2,1749013501.0,0.219,-0.514,0.862,0.0,-0.4,0.3,-30.6,-12.5,-37.7,35.14784240722656,129.0269012451172,52.2
2025-06-04T05:05:04.193+00:00Z,CTRL_PKT_RECV,4,0x50,,,,,,,,,,,,,,,,,,,,,
2025-06-04T05:05:04.206+00:00Z,SEND_PERMIT_ACK_SENT_OK,,,,,,4,0x55,,,,,,,,,,,,,,,,
2025-06-04T05:05:13.246+00:00Z,CTRL_PKT_RECV,5,0x50,,,,,,,,,,,,,,,,,,,,,
2025-06-04T05:05:13.258+00:00Z,SEND_PERMIT_ACK_SENT_OK,,,,,,5,0x55,,,,,,,,,,,,,,,,
2025-06-04T05:05:13.914+00:00Z,DATA_LEN_BYTE_RECV,,LEN_0x2a,42,,,,,,,,,,,,,,,,,,,,
2025-06-04T05:05:13.947+00:00Z,DATA_FRAME_RECV_FULL,5,DATA_FRAME,42,41,-93,,,,,,,,,,,,,,,,,,
2025-06-04T05:05:13.958+00:00Z,DATA_ACK_SENT_OK,,,,,,5,0xaa,,,,,,,,,,,,,,,,
2025-06-04T05:05:13.959+00:00Z,DECODE_SUCCESS,5,,,41,,,,True,1959,Msg #3,1749013512.0,0.221,-0.514,0.864,0.3,0.1,0.0,-30.6,-12.5,-37.7,35.14788055419922,129.0269317626953,53.0
2025-06-04T05:05:15.416+00:00Z,CTRL_PKT_RECV,6,0x50,,,,,,,,,,,,,,,,,,,,,
2025-06-04T05:05:15.425+00:00Z,SEND_PERMIT_ACK_SENT_OK,,,,,,6,0x55,,,,,,,,,,,,,,,,
2025-06-04T05:05:16.083+00:00Z,DATA_LEN_BYTE_RECV,,LEN_0x2a,42,,,,,,,,,,,,,,,,,,,,
2025-06-04T05:05:16.116+00:00Z,DATA_FRAME_RECV_FULL,6,DATA_FRAME,42,41,-93,,,,,,,,,,,,,,,,,,
2025-06-04T05:05:16.129+00:00Z,DATA_ACK_SENT_OK,,,,,,6,0xaa,,,,,,,,,,,,,,,,
2025-06-04T05:05:16.130+00:00Z,DECODE_SUCCESS,6,,,41,,,,True,1130,Msg #4,1749013515.0,0.221,-0.515,0.867,0.5,0.3,-0.1,-30.6,-12.5,-37.7,35.14789581298828,129.02694702148438,52.5
2025-06-04T05:05:17.580+00:00Z,CTRL_PKT_RECV,7,0x50,,,,,,,,,,,,,,,,,,,,,
2025-06-04T05:05:17.593+00:00Z,SEND_PERMIT_ACK_SENT_OK,,,,,,7,0x55,,,,,,,,,,,,,,,,
2025-06-04T05:05:18.248+00:00Z,DATA_LEN_BYTE_RECV,,LEN_0x2a,42,,,,,,,,,,,,,,,,,,,,
2025-06-04T05:05:18.281+00:00Z,DATA_FRAME_RECV_FULL,7,DATA_FRAME,42,41,-93,,,,,,,,,,,,,,,,,,
2025-06-04T05:05:18.293+00:00Z,DATA_ACK_SENT_OK,,,,,,7,0xaa,,,,,,,,,,,,,,,,
2025-06-04T05:05:18.294+00:00Z,DECODE_SUCCESS,7,,,41,,,,True,1294,Msg #5,1749013517.0,0.222,-0.516,0.866,0.6,0.4,-0.3,-30.6,-12.5,-37.7,35.14789962768555,129.02696228027344,50.4
2025-06-04T05:05:19.744+00:00Z,CTRL_PKT_RECV,8,0x50,,,,,,,,,,,,,,,,,,,,,
2025-06-04T05:05:19.753+00:00Z,SEND_PERMIT_ACK_SENT_OK,,,,,,8,0x55,,,,,,,,,,,,,,,,
2025-06-04T05:05:20.412+00:00Z,DATA_LEN_BYTE_RECV,,LEN_0x2a,42,,,,,,,,,,,,,,,,,,,,
2025-06-04T05:05:20.445+00:00Z,DATA_FRAME_RECV_FULL,8,DATA_FRAME,42,41,-94,,,,,,,,,,,,,,,,,,
2025-06-04T05:05:20.457+00:00Z,DATA_ACK_SENT_OK,,,,,,8,0xaa,,,,,,,,,,,,,,,,
2025-06-04T05:05:20.458+00:00Z,DECODE_SUCCESS,8,,,41,,,,True,1458,Msg #6,1749013519.0,0.224,-0.517,0.867,0.4,0.4,0.0,-30.6,-12.5,-37.7,35.14789581298828,129.0269775390625,50.1
2025-06-04T05:05:21.919+00:00Z,CTRL_PKT_RECV,9,0x50,,,,,,,,,,,,,,,,,,,,,
2025-06-04T05:05:21.929+00:00Z,SEND_PERMIT_ACK_SENT_OK,,,,,,9,0x55,,,,,,,,,,,,,,,,
2025-06-04T05:05:22.587+00:00Z,DATA_LEN_BYTE_RECV,,LEN_0x2a,42,,,,,,,,,,,,,,,,,,,,
2025-06-04T05:05:22.620+00:00Z,DATA_FRAME_RECV_FULL,9,DATA_FRAME,42,41,-93,,,,,,,,,,,,,,,,,,
2025-06-04T05:05:22.629+00:00Z,DATA_ACK_SENT_OK,,,,,,9,0xaa,,,,,,,,,,,,,,,,
2025-06-04T05:05:22.630+00:00Z,DECODE_SUCCESS,9,,,41,,,,True,1630,Msg #7,1749013521.0,0.224,-0.516,0.866,0.2,0.4,0.1,-30.6,-12.5,-37.7,35.14788055419922,129.0269775390625,50.0
2025-06-04T05:05:24.090+00:00Z,CTRL_PKT_RECV,10,0x50,,,,,,,,,,,,,,,,,,,,,
2025-06-04T05:05:24.101+00:00Z,SEND_PERMIT_ACK_SENT_OK,,,,,,10,0x55,,,,,,,,,,,,,,,,
2025-06-04T05:05:24.757+00:00Z,DATA_LEN_BYTE_RECV,,LEN_0x2a,42,,,,,,,,,,,,,,,,,,,,
2025-06-04T05:05:24.791+00:00Z,DATA_FRAME_RECV_FULL,10,DATA_FRAME,42,41,-93,,,,,,,,,,,,,,,,,,
2025-06-04T05:05:24.801+00:00Z,DATA_ACK_SENT_OK,,,,,,10,0xaa,,,,,,,,,,,,,,,,
2025-06-04T05:05:24.802+00:00Z,DECODE_SUCCESS,10,,,41,,,,True,1802,Msg #8,1749013523.0,0.225,-0.517,0.864,0.0,0.4,-0.1,-30.6,-12.5,-37.7,35.14788055419922,129.02696228027344,50.7
2025-06-04T05:05:26.254+00:00Z,CTRL_PKT_RECV,11,0x50,,,,,,,,,,,,,,,,,,,,,
2025-06-04T05:05:26.265+00:00Z,SEND_PERMIT_ACK_SENT_OK,,,,,,11,0x55,,,,,,,,,,,,,,,,
2025-06-04T05:05:26.924+00:00Z,DATA_LEN_BYTE_RECV,,LEN_0x2c,44,,,,,,,,,,,,,,,,,,,,
2025-06-04T05:05:26.959+00:00Z,DATA_FRAME_RECV_FULL,11,DATA_FRAME,44,43,-94,,,,,,,,,,,,,,,,,,
2025-06-04T05:05:26.969+00:00Z,DATA_ACK_SENT_OK,,,,,,11,0xaa,,,,,,,,,,,,,,,,
2025-06-04T05:05:26.970+00:00Z,DECODE_SUCCESS,11,,,43,,,,True,1970,Msg #9,1749013525.0,0.225,-0.516,0.866,-0.1,0.3,-0.3,-30.6,-12.5,-37.7,35.14787292480469,129.0269317626953,51.0
2025-06-04T05:05:28.431+00:00Z,CTRL_PKT_RECV,12,0x50,,,,,,,,,,,,,,,,,,,,,
2025-06-04T05:05:28.441+00:00Z,SEND_PERMIT_ACK_SENT_OK,,,,,,12,0x55,,,,,,,,,,,,,,,,
2025-06-04T05:05:29.097+00:00Z,DATA_LEN_BYTE_RECV,,LEN_0x29,41,,,,,,,,,,,,,,,,,,,,
2025-06-04T05:05:29.130+00:00Z,DATA_FRAME_RECV_FULL,12,DATA_FRAME,41,40,-94,,,,,,,,,,,,,,,,,,
2025-06-04T05:05:29.141+00:00Z,DATA_ACK_SENT_OK,,,,,,12,0xaa,,,,,,,,,,,,,,,,
2025-06-04T05:05:29.143+00:00Z,DECODE_SUCCESS,12,,,40,,,,True,1142,Msg #10,1749013528.0,0.224,-0.517,0.866,-0.4,0.0,0.0,-30.6,-12.5,-37.7,35.14786911010742,129.02691650390625,51.6
2025-06-04T05:05:30.601+00:00Z,CTRL_PKT_RECV,13,0x50,,,,,,,,,,,,,,,,,,,,,
2025-06-04T05:05:30.613+00:00Z,SEND_PERMIT_ACK_SENT_OK,,,,,,13,0x55,,,,,,,,,,,,,,,,
2025-06-04T05:05:31.270+00:00Z,DATA_LEN_BYTE_RECV,,LEN_0x2c,44,,,,,,,,,,,,,,,,,,,,
2025-06-04T05:05:31.306+00:00Z,DATA_FRAME_RECV_FULL,13,DATA_FRAME,44,43,-93,,,,,,,,,,,,,,,,,,
2025-06-04T05:05:31.317+00:00Z,DATA_ACK_SENT_OK,,,,,,13,0xaa,,,,,,,,,,,,,,,,
2025-06-04T05:05:31.318+00:00Z,DECODE_SUCCESS,13,,,43,,,,True,1318,Msg #11,1749013530.0,0.225,-0.515,0.871,-0.7,-0.3,-0.1,-30.6,-12.5,-37.7,35.14786911010742,129.0269012451172,51.8
2025-06-04T05:05:32.775+00:00Z,CTRL_PKT_RECV,14,0x50,,,,,,,,,,,,,,,,,,,,,
2025-06-04T05:05:32.785+00:00Z,SEND_PERMIT_ACK_SENT_OK,,,,,,14,0x55,,,,,,,,,,,,,,,,
2025-06-04T05:05:33.444+00:00Z,DATA_LEN_BYTE_RECV,,LEN_0x2c,44,,,,,,,,,,,,,,,,,,,,
2025-06-04T05:05:33.480+00:00Z,DATA_FRAME_RECV_FULL,14,DATA_FRAME,44,43,-93,,,,,,,,,,,,,,,,,,
2025-06-04T05:05:33.489+00:00Z,DATA_ACK_SENT_OK,,,,,,14,0xaa,,,,,,,,,,,,,,,,
2025-06-04T05:05:33.490+00:00Z,DECODE_SUCCESS,14,,,43,,,,True,1490,Msg #12,1749013532.0,0.226,-0.513,0.871,-0.9,-0.6,0.0,-30.7,-12.5,-37.7,35.147865295410156,129.0269012451172,49.6
2025-06-04T05:05:34.950+00:00Z,CTRL_PKT_RECV,15,0x50,,,,,,,,,,,,,,,,,,,,,
2025-06-04T05:05:34.961+00:00Z,SEND_PERMIT_ACK_SENT_OK,,,,,,15,0x55,,,,,,,,,,,,,,,,
2025-06-04T05:05:35.618+00:00Z,DATA_LEN_BYTE_RECV,,LEN_0x2a,42,,,,,,,,,,,,,,,,,,,,
2025-06-04T05:05:35.651+00:00Z,DATA_FRAME_RECV_FULL,15,DATA_FRAME,42,41,-93,,,,,,,,,,,,,,,,,,
2025-06-04T05:05:35.661+00:00Z,DATA_ACK_SENT_OK,,,,,,15,0xaa,,,,,,,,,,,,,,,,
2025-06-04T05:05:35.662+00:00Z,DECODE_SUCCESS,15,,,41,,,,True,1662,Msg #13,1749013534.0,0.226,-0.512,0.866,-1.0,-1.0,0.6,-30.7,-12.5,-37.7,35.14787292480469,129.0269012451172,46.8
2025-06-04T05:05:37.120+00:00Z,CTRL_PKT_RECV,16,0x50,,,,,,,,,,,,,,,,,,,,,
2025-06-04T05:05:37.129+00:00Z,SEND_PERMIT_ACK_SENT_OK,,,,,,16,0x55,,,,,,,,,,,,,,,,
2025-06-04T05:05:37.787+00:00Z,DATA_LEN_BYTE_RECV,,LEN_0x2a,42,,,,,,,,,,,,,,,,,,,,
2025-06-04T05:05:37.821+00:00Z,DATA_FRAME_RECV_FULL,16,DATA_FRAME,42,41,-93,,,,,,,,,,,,,,,,,,
2025-06-04T05:05:37.833+00:00Z,DATA_ACK_SENT_OK,,,,,,16,0xaa,,,,,,,,,,,,,,,,
2025-06-04T05:05:37.834+00:00Z,DECODE_SUCCESS,16,,,41,,,,True,1834,Msg #14,1749013536.0,0.225,-0.512,0.86,-1.0,-1.4,0.7,-30.7,-12.5,-37.7,35.14787673950195,129.0269012451172,42.2
2025-06-04T05:05:39.290+00:00Z,CTRL_PKT_RECV,17,0x50,,,,,,,,,,,,,,,,,,,,,
2025-06-04T05:05:39.301+00:00Z,SEND_PERMIT_ACK_SENT_OK,,,,,,17,0x55,,,,,,,,,,,,,,,,
2025-06-04T05:05:39.958+00:00Z,DATA_LEN_BYTE_RECV,,LEN_0x2a,42,,,,,,,,,,,,,,,,,,,,
2025-06-04T05:05:39.991+00:00Z,DATA_FRAME_RECV_FULL,17,DATA_FRAME,42,41,-93,,,,,,,,,,,,,,,,,,
2025-06-04T05:05:40.001+00:00Z,DATA_ACK_SENT_OK,,,,,,17,0xaa,,,,,,,,,,,,,,,,
2025-06-04T05:05:40.002+00:00Z,DECODE_SUCCESS,17,,,41,,,,True,1002,Msg #15,1749013539.0,0.225,-0.512,0.859,-0.9,-1.5,0.1,-30.7,-12.5,-37.7,35.14787673950195,129.0269012451172,40.3
2025-06-04T05:05:41.463+00:00Z,CTRL_PKT_RECV,18,0x50,,,,,,,,,,,,,,,,,,,,,
2025-06-04T05:05:41.473+00:00Z,SEND_PERMIT_ACK_SENT_OK,,,,,,18,0x55,,,,,,,,,,,,,,,,
2025-06-04T05:05:42.133+00:00Z,DATA_LEN_BYTE_RECV,,LEN_0x2c,44,,,,,,,,,,,,,,,,,,,,
2025-06-04T05:05:42.168+00:00Z,DATA_FRAME_RECV_FULL,18,DATA_FRAME,44,43,-94,,,,,,,,,,,,,,,,,,
2025-06-04T05:05:42.181+00:00Z,DATA_ACK_SENT_OK,,,,,,18,0xaa,,,,,,,,,,,,,,,,
2025-06-04T05:05:42.182+00:00Z,DECODE_SUCCESS,18,,,43,,,,True,1182,Msg #16,1749013541.0,0.223,-0.514,0.864,-0.6,-1.4,-0.4,-30.7,-12.5,-37.7,35.147891998291016,129.0269012451172,35.8
2025-06-04T05:05:43.641+00:00Z,CTRL_PKT_RECV,19,0x50,,,,,,,,,,,,,,,,,,,,,
2025-06-04T05:05:43.653+00:00Z,SEND_PERMIT_ACK_SENT_OK,,,,,,19,0x55,,,,,,,,,,,,,,,,
2025-06-04T05:05:44.309+00:00Z,DATA_LEN_BYTE_RECV,,LEN_0x2a,42,,,,,,,,,,,,,,,,,,,,
2025-06-04T05:05:44.342+00:00Z,DATA_FRAME_RECV_FULL,19,DATA_FRAME,42,41,-94,,,,,,,,,,,,,,,,,,
2025-06-04T05:05:44.353+00:00Z,DATA_ACK_SENT_OK,,,,,,19,0xaa,,,,,,,,,,,,,,,,
2025-06-04T05:05:44.354+00:00Z,DECODE_SUCCESS,19,,,41,,,,True,1354,Msg #17,1749013543.0,0.222,-0.514,0.871,0.0,-1.1,-0.3,-30.7,-12.5,-37.7,35.14789962768555,129.0269012451172,30.5
2025-06-04T05:05:45.809+00:00Z,CTRL_PKT_RECV,20,0x50,,,,,,,,,,,,,,,,,,,,,
2025-06-04T05:05:45.821+00:00Z,SEND_PERMIT_ACK_SENT_OK,,,,,,20,0x55,,,,,,,,,,,,,,,,
2025-06-04T05:05:46.476+00:00Z,DATA_LEN_BYTE_RECV,,LEN_0x2a,42,,,,,,,,,,,,,,,,,,,,
2025-06-04T05:05:46.509+00:00Z,DATA_FRAME_RECV_FULL,20,DATA_FRAME,42,41,-93,,,,,,,,,,,,,,,,,,
2025-06-04T05:05:46.521+00:00Z,DATA_ACK_SENT_OK,,,,,,20,0xaa,,,,,,,,,,,,,,,,
2025-06-04T05:05:46.522+00:00Z,DECODE_SUCCESS,20,,,41,,,,True,1522,Msg #18,1749013545.0,0.22,-0.514,0.877,0.3,-1.2,0.0,-30.7,-12.5,-37.7,35.147891998291016,129.02688598632812,31.0
2025-06-04T05:05:47.973+00:00Z,CTRL_PKT_RECV,21,0x50,,,,,,,,,,,,,,,,,,,,,
2025-06-04T05:05:47.985+00:00Z,SEND_PERMIT_ACK_SENT_OK,,,,,,21,0x55,,,,,,,,,,,,,,,,
2025-06-04T05:05:48.641+00:00Z,DATA_LEN_BYTE_RECV,,LEN_0x2a,42,,,,,,,,,,,,,,,,,,,,
2025-06-04T05:05:48.674+00:00Z,DATA_FRAME_RECV_FULL,21,DATA_FRAME,42,41,-93,,,,,,,,,,,,,,,,,,
2025-06-04T05:05:48.685+00:00Z,DATA_ACK_SENT_OK,,,,,,21,0xaa,,,,,,,,,,,,,,,,
2025-06-04T05:05:48.686+00:00Z,DECODE_SUCCESS,21,,,41,,,,True,1686,Msg #19,1749013547.0,0.22,-0.514,0.873,0.0,-1.4,0.0,-30.7,-12.5,-37.6,35.14789581298828,129.0269012451172,28.7
2025-06-04T05:05:50.137+00:00Z,CTRL_PKT_RECV,22,0x50,,,,,,,,,,,,,,,,,,,,,
2025-06-04T05:05:50.149+00:00Z,SEND_PERMIT_ACK_SENT_OK,,,,,,22,0x55,,,,,,,,,,,,,,,,
2025-06-04T05:05:50.804+00:00Z,DATA_LEN_BYTE_RECV,,LEN_0x2a,42,,,,,,,,,,,,,,,,,,,,
2025-06-04T05:05:50.837+00:00Z,DATA_FRAME_RECV_FULL,22,DATA_FRAME,42,41,-93,,,,,,,,,,,,,,,,,,
2025-06-04T05:05:50.849+00:00Z,DATA_ACK_SENT_OK,,,,,,22,0xaa,,,,,,,,,,,,,,,,
2025-06-04T05:05:50.850+00:00Z,DECODE_SUCCESS,22,,,41,,,,True,1850,Msg #20,1749013549.0,0.218,-0.511,0.866,-0.6,-1.6,0.2,-30.7,-12.5,-37.6,35.147891998291016,129.0269012451172,27.6
2025-06-04T05:05:52.302+00:00Z,CTRL_PKT_RECV,23,0x50,,,,,,,,,,,,,,,,,,,,,
2025-06-04T05:05:52.313+00:00Z,SEND_PERMIT_ACK_SENT_OK,,,,,,23,0x55,,,,,,,,,,,,,,,,
2025-06-04T05:05:52.969+00:00Z,DATA_LEN_BYTE_RECV,,LEN_0x2a,42,,,,,,,,,,,,,,,,,,,,
2025-06-04T05:05:53.003+00:00Z,DATA_FRAME_RECV_FULL,23,DATA_FRAME,42,41,-93,,,,,,,,,,,,,,,,,,
2025-06-04T05:05:53.013+00:00Z,DATA_ACK_SENT_OK,,,,,,23,0xaa,,,,,,,,,,,,,,,,
2025-06-04T05:05:53.014+00:00Z,DECODE_SUCCESS,23,,,41,,,,True,1014,Msg #21,1749013552.0,0.217,-0.51,0.86,-1.2,-1.6,0.1,-30.7,-12.6,-37.6,35.14788818359375,129.0269012451172,26.2
2025-06-04T05:05:54.473+00:00Z,CTRL_PKT_RECV,24,0x50,,,,,,,,,,,,,,,,,,,,,
2025-06-04T05:05:54.485+00:00Z,SEND_PERMIT_ACK_SENT_OK,,,,,,24,0x55,,,,,,,,,,,,,,,,
2025-06-04T05:05:55.140+00:00Z,DATA_LEN_BYTE_RECV,,LEN_0x2a,42,,,,,,,,,,,,,,,,,,,,
2025-06-04T05:05:55.174+00:00Z,DATA_FRAME_RECV_FULL,24,DATA_FRAME,42,41,-94,,,,,,,,,,,,,,,,,,
2025-06-04T05:05:55.185+00:00Z,DATA_ACK_SENT_OK,,,,,,24,0xaa,,,,,,,,,,,,,,,,
2025-06-04T05:05:55.186+00:00Z,DECODE_SUCCESS,24,,,41,,,,True,1186,Msg #22,1749013554.0,0.216,-0.509,0.859,-0.9,-1.2,0.0,-30.7,-12.6,-37.6,35.14788818359375,129.0269012451172,27.8
2025-06-04T05:05:56.642+00:00Z,CTRL_PKT_RECV,25,0x50,,,,,,,,,,,,,,,,,,,,,
2025-06-04T05:05:56.653+00:00Z,SEND_PERMIT_ACK_SENT_OK,,,,,,25,0x55,,,,,,,,,,,,,,,,
2025-06-04T05:05:57.309+00:00Z,DATA_LEN_BYTE_RECV,,LEN_0x2a,42,,,,,,,,,,,,,,,,,,,,
2025-06-04T05:05:57.342+00:00Z,DATA_FRAME_RECV_FULL,25,DATA_FRAME,42,41,-93,,,,,,,,,,,,,,,,,,
2025-06-04T05:05:57.353+00:00Z,DATA_ACK_SENT_OK,,,,,,25,0xaa,,,,,,,,,,,,,,,,
2025-06-04T05:05:57.355+00:00Z,DECODE_SUCCESS,25,,,41,,,,True,1354,Msg #23,1749013556.0,0.215,-0.511,0.861,0.1,-0.3,0.1,-30.7,-12.6,-37.6,35.147891998291016,129.0269012451172,29.3
2025-06-04T05:05:58.813+00:00Z,CTRL_PKT_RECV,26,0x50,,,,,,,,,,,,,,,,,,,,,
2025-06-04T05:05:58.825+00:00Z,SEND_PERMIT_ACK_SENT_OK,,,,,,26,0x55,,,,,,,,,,,,,,,,
2025-06-04T05:05:59.481+00:00Z,DATA_LEN_BYTE_RECV,,LEN_0x2a,42,,,,,,,,,,,,,,,,,,,,
2025-06-04T05:05:59.514+00:00Z,DATA_FRAME_RECV_FULL,26,DATA_FRAME,42,41,-94,,,,,,,,,,,,,,,,,,
2025-06-04T05:05:59.525+00:00Z,DATA_ACK_SENT_OK,,,,,,26,0xaa,,,,,,,,,,,,,,,,
2025-06-04T05:05:59.526+00:00Z,DECODE_SUCCESS,26,,,41,,,,True,1526,Msg #24,1749013558.0,0.219,-0.514,0.871,1.3,0.6,0.1,-30.7,-12.6,-37.6,35.14788818359375,129.0269012451172,23.9
2025-06-04T05:06:00.983+00:00Z,CTRL_PKT_RECV,27,0x50,,,,,,,,,,,,,,,,,,,,,
2025-06-04T05:06:00.993+00:00Z,SEND_PERMIT_ACK_SENT_OK,,,,,,27,0x55,,,,,,,,,,,,,,,,
2025-06-04T05:06:01.650+00:00Z,DATA_LEN_BYTE_RECV,,LEN_0x2a,42,,,,,,,,,,,,,,,,,,,,
2025-06-04T05:06:01.683+00:00Z,DATA_FRAME_RECV_FULL,27,DATA_FRAME,42,41,-93,,,,,,,,,,,,,,,,,,
2025-06-04T05:06:01.693+00:00Z,DATA_ACK_SENT_OK,,,,,,27,0xaa,,,,,,,,,,,,,,,,
2025-06-04T05:06:01.694+00:00Z,DECODE_SUCCESS,27,,,41,,,,True,1694,Msg #25,1749013560.0,0.223,-0.515,0.873,2.0,1.2,-0.1,-30.7,-12.5,-37.6,35.147884368896484,129.02691650390625,25.1
2025-06-04T05:06:03.147+00:00Z,CTRL_PKT_RECV,28,0x50,,,,,,,,,,,,,,,,,,,,,
2025-06-04T05:06:03.157+00:00Z,SEND_PERMIT_ACK_SENT_OK,,,,,,28,0x55,,,,,,,,,,,,,,,,
2025-06-04T05:06:03.814+00:00Z,DATA_LEN_BYTE_RECV,,LEN_0x2a,42,,,,,,,,,,,,,,,,,,,,
2025-06-04T05:06:03.848+00:00Z,DATA_FRAME_RECV_FULL,28,DATA_FRAME,42,41,-94,,,,,,,,,,,,,,,,,,
2025-06-04T05:06:03.857+00:00Z,DATA_ACK_SENT_OK,,,,,,28,0xaa,,,,,,,,,,,,,,,,
2025-06-04T05:06:03.858+00:00Z,DECODE_SUCCESS,28,,,41,,,,True,1858,Msg #26,1749013562.0,0.223,-0.516,0.871,1.8,1.5,-0.3,-30.7,-12.5,-37.6,35.147884368896484,129.02691650390625,29.6
2025-06-04T05:06:05.332+00:00Z,CTRL_PKT_RECV,29,0x50,,,,,,,,,,,,,,,,,,,,,
2025-06-04T05:06:05.341+00:00Z,SEND_PERMIT_ACK_SENT_OK,,,,,,29,0x55,,,,,,,,,,,,,,,,
2025-06-04T05:06:06.000+00:00Z,DATA_LEN_BYTE_RECV,,LEN_0x2a,42,,,,,,,,,,,,,,,,,,,,
2025-06-04T05:06:06.033+00:00Z,DATA_FRAME_RECV_FULL,29,DATA_FRAME,42,41,-93,,,,,,,,,,,,,,,,,,
2025-06-04T05:06:06.045+00:00Z,DATA_ACK_SENT_OK,,,,,,29,0xaa,,,,,,,,,,,,,,,,
2025-06-04T05:06:06.046+00:00Z,DECODE_SUCCESS,29,,,41,,,,True,1046,Msg #27,1749013565.0,0.224,-0.515,0.865,1.0,1.4,-0.3,-30.6,-12.5,-37.6,35.147884368896484,129.02691650390625,29.5
2025-06-04T05:06:07.502+00:00Z,CTRL_PKT_RECV,30,0x50,,,,,,,,,,,,,,,,,,,,,
2025-06-04T05:06:07.513+00:00Z,SEND_PERMIT_ACK_SENT_OK,,,,,,30,0x55,,,,,,,,,,,,,,,,
2025-06-04T05:06:08.169+00:00Z,DATA_LEN_BYTE_RECV,,LEN_0x2a,42,,,,,,,,,,,,,,,,,,,,
2025-06-04T05:06:08.202+00:00Z,DATA_FRAME_RECV_FULL,30,DATA_FRAME,42,41,-93,,,,,,,,,,,,,,,,,,
2025-06-04T05:06:08.213+00:00Z,DATA_ACK_SENT_OK,,,,,,30,0xaa,,,,,,,,,,,,,,,,
2025-06-04T05:06:08.214+00:00Z,DECODE_SUCCESS,30,,,41,,,,True,1214,Msg #28,1749013567.0,0.221,-0.513,0.862,0.6,1.3,-0.6,-30.6,-12.5,-37.7,35.14788055419922,129.02691650390625,33.4
2025-06-04T05:06:09.674+00:00Z,CTRL_PKT_RECV,31,0x50,,,,,,,,,,,,,,,,,,,,,
2025-06-04T05:06:09.685+00:00Z,SEND_PERMIT_ACK_SENT_OK,,,,,,31,0x55,,,,,,,,,,,,,,,,
2025-06-04T05:06:10.342+00:00Z,DATA_LEN_BYTE_RECV,,LEN_0x2a,42,,,,,,,,,,,,,,,,,,,,
2025-06-04T05:06:10.375+00:00Z,DATA_FRAME_RECV_FULL,31,DATA_FRAME,42,41,-92,,,,,,,,,,,,,,,,,,
2025-06-04T05:06:10.386+00:00Z,DATA_ACK_SENT_OK,,,,,,31,0xaa,,,,,,,,,,,,,,,,
2025-06-04T05:06:10.387+00:00Z,DECODE_SUCCESS,31,,,41,,,,True,1386,Msg #29,1749013569.0,0.222,-0.514,0.86,0.7,1.5,-0.4,-30.6,-12.5,-37.7,35.147884368896484,129.02691650390625,34.8
2025-06-04T05:06:11.844+00:00Z,CTRL_PKT_RECV,32,0x50,,,,,,,,,,,,,,,,,,,,,
2025-06-04T05:06:11.853+00:00Z,SEND_PERMIT_ACK_SENT_OK,,,,,,32,0x55,,,,,,,,,,,,,,,,
2025-06-04T05:06:12.512+00:00Z,DATA_LEN_BYTE_RECV,,LEN_0x2a,42,,,,,,,,,,,,,,,,,,,,
2025-06-04T05:06:12.545+00:00Z,DATA_FRAME_RECV_FULL,32,DATA_FRAME,42,41,-93,,,,,,,,,,,,,,,,,,
2025-06-04T05:06:12.557+00:00Z,DATA_ACK_SENT_OK,,,,,,32,0xaa,,,,,,,,,,,,,,,,
2025-06-04T05:06:12.558+00:00Z,DECODE_SUCCESS,32,,,41,,,,True,1558,Msg #30,1749013571.0,0.226,-0.517,0.863,1.5,1.6,0.0,-30.6,-12.5,-37.7,35.14786148071289,129.02691650390625,35.9
2025-06-04T05:06:14.014+00:00Z,CTRL_PKT_RECV,33,0x50,,,,,,,,,,,,,,,,,,,,,
2025-06-04T05:06:14.025+00:00Z,SEND_PERMIT_ACK_SENT_OK,,,,,,33,0x55,,,,,,,,,,,,,,,,
2025-06-04T05:06:14.682+00:00Z,DATA_LEN_BYTE_RECV,,LEN_0x2a,42,,,,,,,,,,,,,,,,,,,,
2025-06-04T05:06:14.715+00:00Z,DATA_FRAME_RECV_FULL,33,DATA_FRAME,42,41,-93,,,,,,,,,,,,,,,,,,
2025-06-04T05:06:14.725+00:00Z,DATA_ACK_SENT_OK,,,,,,33,0xaa,,,,,,,,,,,,,,,,
2025-06-04T05:06:14.726+00:00Z,DECODE_SUCCESS,33,,,41,,,,True,1726,Msg #31,1749013573.0,0.226,-0.52,0.866,2.0,1.5,0.2,-30.6,-12.5,-37.7,35.14784622192383,129.02691650390625,42.8
2025-06-04T05:06:16.185+00:00Z,CTRL_PKT_RECV,34,0x50,,,,,,,,,,,,,,,,,,,,,
2025-06-04T05:06:16.197+00:00Z,SEND_PERMIT_ACK_SENT_OK,,,,,,34,0x55,,,,,,,,,,,,,,,,
2025-06-04T05:06:16.852+00:00Z,DATA_LEN_BYTE_RECV,,LEN_0x2a,42,,,,,,,,,,,,,,,,,,,,
2025-06-04T05:06:16.885+00:00Z,DATA_FRAME_RECV_FULL,34,DATA_FRAME,42,41,-93,,,,,,,,,,,,,,,,,,
2025-06-04T05:06:16.897+00:00Z,DATA_ACK_SENT_OK,,,,,,34,0xaa,,,,,,,,,,,,,,,,
2025-06-04T05:06:16.898+00:00Z,DECODE_SUCCESS,34,,,41,,,,True,1898,Msg #32,1749013575.0,0.226,-0.519,0.87,1.8,1.5,0.1,-30.6,-12.5,-37.7,35.14783477783203,129.0269317626953,45.4
2025-06-04T05:06:18.353+00:00Z,CTRL_PKT_RECV,35,0x50,,,,,,,,,,,,,,,,,,,,,
2025-06-04T05:06:18.365+00:00Z,SEND_PERMIT_ACK_SENT_OK,,,,,,35,0x55,,,,,,,,,,,,,,,,
2025-06-04T05:06:19.020+00:00Z,DATA_LEN_BYTE_RECV,,LEN_0x2a,42,,,,,,,,,,,,,,,,,,,,
2025-06-04T05:06:19.053+00:00Z,DATA_FRAME_RECV_FULL,35,DATA_FRAME,42,41,-93,,,,,,,,,,,,,,,,,,
2025-06-04T05:06:19.065+00:00Z,DATA_ACK_SENT_OK,,,,,,35,0xaa,,,,,,,,,,,,,,,,
2025-06-04T05:06:19.067+00:00Z,DECODE_SUCCESS,35,,,41,,,,True,1066,Msg #33,1749013578.0,0.227,-0.517,0.866,1.0,1.2,-0.4,-30.6,-12.4,-37.7,35.1478271484375,129.02691650390625,51.2
2025-06-04T05:06:20.525+00:00Z,CTRL_PKT_RECV,36,0x50,,,,,,,,,,,,,,,,,,,,,
2025-06-04T05:06:20.537+00:00Z,SEND_PERMIT_ACK_SENT_OK,,,,,,36,0x55,,,,,,,,,,,,,,,,
2025-06-04T05:06:21.192+00:00Z,DATA_LEN_BYTE_RECV,,LEN_0x2a,42,,,,,,,,,,,,,,,,,,,,
2025-06-04T05:06:21.225+00:00Z,DATA_FRAME_RECV_FULL,36,DATA_FRAME,42,41,-94,,,,,,,,,,,,,,,,,,
2025-06-04T05:06:21.237+00:00Z,DATA_ACK_SENT_OK,,,,,,36,0xaa,,,,,,,,,,,,,,,,
2025-06-04T05:06:21.238+00:00Z,DECODE_SUCCESS,36,,,41,,,,True,1238,Msg #34,1749013580.0,0.227,-0.517,0.866,0.2,0.8,-0.8,-30.6,-12.4,-37.7,35.147823333740234,129.0269317626953,51.0
2025-06-04T05:06:22.692+00:00Z,CTRL_PKT_RECV,37,0x50,,,,,,,,,,,,,,,,,,,,,
2025-06-04T05:06:22.701+00:00Z,SEND_PERMIT_ACK_SENT_OK,,,,,,37,0x55,,,,,,,,,,,,,,,,
2025-06-04T05:06:23.359+00:00Z,DATA_LEN_BYTE_RECV,,LEN_0x2a,42,,,,,,,,,,,,,,,,,,,,
2025-06-04T05:06:23.393+00:00Z,DATA_FRAME_RECV_FULL,37,DATA_FRAME,42,41,-93,,,,,,,,,,,,,,,,,,
2025-06-04T05:06:23.405+00:00Z,DATA_ACK_SENT_OK,,,,,,37,0xaa,,,,,,,,,,,,,,,,
2025-06-04T05:06:23.406+00:00Z,DECODE_SUCCESS,37,,,41,,,,True,1406,Msg #35,1749013582.0,0.225,-0.517,0.865,-0.1,0.1,-0.3,-30.6,-12.4,-37.7,35.1478271484375,129.02691650390625,51.4
2025-06-04T05:06:24.858+00:00Z,CTRL_PKT_RECV,38,0x50,,,,,,,,,,,,,,,,,,,,,
2025-06-04T05:06:24.870+00:00Z,SEND_PERMIT_ACK_SENT_OK,,,,,,38,0x55,,,,,,,,,,,,,,,,
2025-06-04T05:06:25.525+00:00Z,DATA_LEN_BYTE_RECV,,LEN_0x2a,42,,,,,,,,,,,,,,,,,,,,
2025-06-04T05:06:25.559+00:00Z,DATA_FRAME_RECV_FULL,38,DATA_FRAME,42,41,-93,,,,,,,,,,,,,,,,,,
2025-06-04T05:06:25.570+00:00Z,DATA_ACK_SENT_OK,,,,,,38,0xaa,,,,,,,,,,,,,,,,
2025-06-04T05:06:25.571+00:00Z,DECODE_SUCCESS,38,,,41,,,,True,1570,Msg #36,1749013584.0,0.228,-0.516,0.866,-0.1,-0.3,0.3,-30.6,-12.4,-37.7,35.14781188964844,129.02691650390625,51.6
2025-06-04T05:06:27.031+00:00Z,CTRL_PKT_RECV,39,0x50,,,,,,,,,,,,,,,,,,,,,
2025-06-04T05:06:27.041+00:00Z,SEND_PERMIT_ACK_SENT_OK,,,,,,39,0x55,,,,,,,,,,,,,,,,
2025-06-04T05:06:27.698+00:00Z,DATA_LEN_BYTE_RECV,,LEN_0x2a,42,,,,,,,,,,,,,,,,,,,,
2025-06-04T05:06:27.731+00:00Z,DATA_FRAME_RECV_FULL,39,DATA_FRAME,42,41,-93,,,,,,,,,,,,,,,,,,
2025-06-04T05:06:27.741+00:00Z,DATA_ACK_SENT_OK,,,,,,39,0xaa,,,,,,,,,,,,,,,,
2025-06-04T05:06:27.743+00:00Z,DECODE_SUCCESS,39,,,41,,,,True,1743,Msg #37,1749013586.0,0.229,-0.515,0.866,-0.1,-0.6,0.4,-30.6,-12.5,-37.7,35.147804260253906,129.02691650390625,51.9
2025-06-04T05:06:29.202+00:00Z,CTRL_PKT_RECV,40,0x50,,,,,,,,,,,,,,,,,,,,,
2025-06-04T05:06:29.213+00:00Z,SEND_PERMIT_ACK_SENT_OK,,,,,,40,0x55,,,,,,,,,,,,,,,,
2025-06-04T05:06:29.870+00:00Z,DATA_LEN_BYTE_RECV,,LEN_0x2a,42,,,,,,,,,,,,,,,,,,,,
2025-06-04T05:06:29.903+00:00Z,DATA_FRAME_RECV_FULL,40,DATA_FRAME,42,41,-93,,,,,,,,,,,,,,,,,,
2025-06-04T05:06:29.913+00:00Z,DATA_ACK_SENT_OK,,,,,,40,0xaa,,,,,,,,,,,,,,,,
2025-06-04T05:06:29.914+00:00Z,DECODE_SUCCESS,40,,,41,,,,True,1914,Msg #38,1749013588.0,0.226,-0.517,0.863,-0.2,-0.8,0.2,-30.6,-12.5,-37.7,35.147796630859375,129.0269012451172,52.4
2025-06-04T05:06:31.368+00:00Z,CTRL_PKT_RECV,41,0x50,,,,,,,,,,,,,,,,,,,,,
2025-06-04T05:06:31.377+00:00Z,SEND_PERMIT_ACK_SENT_OK,,,,,,41,0x55,,,,,,,,,,,,,,,,
2025-06-04T05:06:32.038+00:00Z,DATA_LEN_BYTE_RECV,,LEN_0x2c,44,,,,,,,,,,,,,,,,,,,,
2025-06-04T05:06:32.073+00:00Z,DATA_FRAME_RECV_FULL,41,DATA_FRAME,44,43,-94,,,,,,,,,,,,,,,,,,
2025-06-04T05:06:32.085+00:00Z,DATA_ACK_SENT_OK,,,,,,41,0xaa,,,,,,,,,,,,,,,,
2025-06-04T05:06:32.086+00:00Z,DECODE_SUCCESS,41,,,43,,,,True,1086,Msg #39,1749013591.0,0.225,-0.516,0.866,-0.5,-1.0,-0.2,-30.6,-12.5,-37.7,35.14780044555664,129.0269012451172,52.6
2025-06-04T05:06:33.546+00:00Z,CTRL_PKT_RECV,42,0x50,,,,,,,,,,,,,,,,,,,,,
2025-06-04T05:06:33.557+00:00Z,SEND_PERMIT_ACK_SENT_OK,,,,,,42,0x55,,,,,,,,,,,,,,,,
2025-06-04T05:06:34.217+00:00Z,DATA_LEN_BYTE_RECV,,LEN_0x2c,44,,,,,,,,,,,,,,,,,,,,
2025-06-04T05:06:34.252+00:00Z,DATA_FRAME_RECV_FULL,42,DATA_FRAME,44,43,-93,,,,,,,,,,,,,,,,,,
2025-06-04T05:06:34.265+00:00Z,DATA_ACK_SENT_OK,,,,,,42,0xaa,,,,,,,,,,,,,,,,
2025-06-04T05:06:34.266+00:00Z,DECODE_SUCCESS,42,,,43,,,,True,1266,Msg #40,1749013593.0,0.223,-0.515,0.866,-0.7,-1.4,-0.3,-30.6,-12.5,-37.7,35.14780807495117,129.02691650390625,52.8
2025-06-04T05:06:35.721+00:00Z,CTRL_PKT_RECV,43,0x50,,,,,,,,,,,,,,,,,,,,,
2025-06-04T05:06:35.733+00:00Z,SEND_PERMIT_ACK_SENT_OK,,,,,,43,0x55,,,,,,,,,,,,,,,,
2025-06-04T05:06:36.388+00:00Z,DATA_LEN_BYTE_RECV,,LEN_0x2a,42,,,,,,,,,,,,,,,,,,,,
2025-06-04T05:06:36.421+00:00Z,DATA_FRAME_RECV_FULL,43,DATA_FRAME,42,41,-93,,,,,,,,,,,,,,,,,,
2025-06-04T05:06:36.433+00:00Z,DATA_ACK_SENT_OK,,,,,,43,0xaa,,,,,,,,,,,,,,,,
2025-06-04T05:06:36.434+00:00Z,DECODE_SUCCESS,43,,,41,,,,True,1434,Msg #41,1749013595.0,0.223,-0.515,0.867,-0.8,-1.8,0.2,-30.6,-12.5,-37.7,35.14780807495117,129.02691650390625,53.3
2025-06-04T05:06:37.891+00:00Z,CTRL_PKT_RECV,44,0x50,,,,,,,,,,,,,,,,,,,,,
2025-06-04T05:06:37.901+00:00Z,SEND_PERMIT_ACK_SENT_OK,,,,,,44,0x55,,,,,,,,,,,,,,,,
2025-06-04T05:06:38.558+00:00Z,DATA_LEN_BYTE_RECV,,LEN_0x2a,42,,,,,,,,,,,,,,,,,,,,
2025-06-04T05:06:38.591+00:00Z,DATA_FRAME_RECV_FULL,44,DATA_FRAME,42,41,-93,,,,,,,,,,,,,,,,,,
2025-06-04T05:06:38.601+00:00Z,DATA_ACK_SENT_OK,,,,,,44,0xaa,,,,,,,,,,,,,,,,
2025-06-04T05:06:38.602+00:00Z,DECODE_SUCCESS,44,,,41,,,,True,1602,Msg #42,1749013597.0,0.221,-0.513,0.868,-0.8,-2.1,0.9,-30.6,-12.5,-37.7,35.147823333740234,129.0269012451172,53.5
2025-06-04T05:06:40.062+00:00Z,CTRL_PKT_RECV,45,0x50,,,,,,,,,,,,,,,,,,,,,
2025-06-04T05:06:40.073+00:00Z,SEND_PERMIT_ACK_SENT_OK,,,,,,45,0x55,,,,,,,,,,,,,,,,
2025-06-04T05:06:40.730+00:00Z,DATA_LEN_BYTE_RECV,,LEN_0x2a,42,,,,,,,,,,,,,,,,,,,,
2025-06-04T05:06:40.763+00:00Z,DATA_FRAME_RECV_FULL,45,DATA_FRAME,42,41,-93,,,,,,,,,,,,,,,,,,
2025-06-04T05:06:40.773+00:00Z,DATA_ACK_SENT_OK,,,,,,45,0xaa,,,,,,,,,,,,,,,,
2025-06-04T05:06:40.774+00:00Z,DECODE_SUCCESS,45,,,41,,,,True,1774,Msg #43,1749013599.0,0.22,-0.514,0.869,-0.9,-2.1,1.1,-30.6,-12.5,-37.6,35.14784240722656,129.0269012451172,54.1
2025-06-04T05:06:42.233+00:00Z,CTRL_PKT_RECV,46,0x50,,,,,,,,,,,,,,,,,,,,,
2025-06-04T05:06:42.245+00:00Z,SEND_PERMIT_ACK_SENT_OK,,,,,,46,0x55,,,,,,,,,,,,,,,,
2025-06-04T05:06:42.900+00:00Z,DATA_LEN_BYTE_RECV,,LEN_0x2a,42,,,,,,,,,,,,,,,,,,,,
2025-06-04T05:06:42.933+00:00Z,DATA_FRAME_RECV_FULL,46,DATA_FRAME,42,41,-93,,,,,,,,,,,,,,,,,,
2025-06-04T05:06:42.945+00:00Z,DATA_ACK_SENT_OK,,,,,,46,0xaa,,,,,,,,,,,,,,,,
2025-06-04T05:06:42.946+00:00Z,DECODE_SUCCESS,46,,,41,,,,True,1946,Msg #44,1749013601.0,0.219,-0.514,0.868,-0.9,-1.9,0.7,-30.6,-12.5,-37.6,35.14784622192383,129.0269012451172,54.4
2025-06-04T05:06:44.404+00:00Z,CTRL_PKT_RECV,47,0x50,,,,,,,,,,,,,,,,,,,,,
2025-06-04T05:06:44.413+00:00Z,SEND_PERMIT_ACK_SENT_OK,,,,,,47,0x55,,,,,,,,,,,,,,,,
2025-06-04T05:06:45.071+00:00Z,DATA_LEN_BYTE_RECV,,LEN_0x2a,42,,,,,,,,,,,,,,,,,,,,
2025-06-04T05:06:45.104+00:00Z,DATA_FRAME_RECV_FULL,47,DATA_FRAME,42,41,-93,,,,,,,,,,,,,,,,,,
2025-06-04T05:06:45.113+00:00Z,DATA_ACK_SENT_OK,,,,,,47,0xaa,,,,,,,,,,,,,,,,
2025-06-04T05:06:45.114+00:00Z,DECODE_SUCCESS,47,,,41,,,,True,1114,Msg #45,1749013604.0,0.221,-0.512,0.869,-1.1,-1.5,0.2,-30.7,-12.5,-37.6,35.147857666015625,129.0269012451172,54.6
2025-06-04T05:06:46.573+00:00Z,CTRL_PKT_RECV,48,0x50,,,,,,,,,,,,,,,,,,,,,
2025-06-04T05:06:46.586+00:00Z,SEND_PERMIT_ACK_SENT_OK,,,,,,48,0x55,,,,,,,,,,,,,,,,
2025-06-04T05:06:47.241+00:00Z,DATA_LEN_BYTE_RECV,,LEN_0x2a,42,,,,,,,,,,,,,,,,,,,,
2025-06-04T05:06:47.274+00:00Z,DATA_FRAME_RECV_FULL,48,DATA_FRAME,42,41,-93,,,,,,,,,,,,,,,,,,
2025-06-04T05:06:47.285+00:00Z,DATA_ACK_SENT_OK,,,,,,48,0xaa,,,,,,,,,,,,,,,,
2025-06-04T05:06:47.286+00:00Z,DECODE_SUCCESS,48,,,41,,,,True,1286,Msg #46,1749013606.0,0.221,-0.513,0.868,-1.0,-1.3,0.0,-30.7,-12.6,-37.6,35.147857666015625,129.0269012451172,55.1
2025-06-04T05:06:48.741+00:00Z,CTRL_PKT_RECV,49,0x50,,,,,,,,,,,,,,,,,,,,,
2025-06-04T05:06:48.753+00:00Z,SEND_PERMIT_ACK_SENT_OK,,,,,,49,0x55,,,,,,,,,,,,,,,,
2025-06-04T05:06:49.409+00:00Z,DATA_LEN_BYTE_RECV,,LEN_0x2a,42,,,,,,,,,,,,,,,,,,,,
2025-06-04T05:06:49.442+00:00Z,DATA_FRAME_RECV_FULL,49,DATA_FRAME,42,41,-93,,,,,,,,,,,,,,,,,,
2025-06-04T05:06:49.453+00:00Z,DATA_ACK_SENT_OK,,,,,,49,0xaa,,,,,,,,,,,,,,,,
2025-06-04T05:06:49.454+00:00Z,DECODE_SUCCESS,49,,,41,,,,True,1454,Msg #47,1749013608.0,0.22,-0.515,0.87,-0.9,-1.0,0.0,-30.7,-12.6,-37.6,35.147850036621094,129.0269012451172,55.4
2025-06-04T05:06:50.903+00:00Z,CTRL_PKT_RECV,50,0x50,,,,,,,,,,,,,,,,,,,,,
2025-06-04T05:06:50.913+00:00Z,SEND_PERMIT_ACK_SENT_OK,,,,,,50,0x55,,,,,,,,,,,,,,,,
2025-06-04T05:06:51.570+00:00Z,DATA_LEN_BYTE_RECV,,LEN_0x2a,42,,,,,,,,,,,,,,,,,,,,
2025-06-04T05:06:51.603+00:00Z,DATA_FRAME_RECV_FULL,50,DATA_FRAME,42,41,-93,,,,,,,,,,,,,,,,,,
2025-06-04T05:06:51.613+00:00Z,DATA_ACK_SENT_OK,,,,,,50,0xaa,,,,,,,,,,,,,,,,
2025-06-04T05:06:51.614+00:00Z,DECODE_SUCCESS,50,,,41,,,,True,1614,Msg #48,1749013610.0,0.218,-0.514,0.868,-0.7,-0.7,0.3,-30.7,-12.6,-37.6,35.14785385131836,129.0269012451172,55.9
2025-06-04T05:06:53.066+00:00Z,CTRL_PKT_RECV,51,0x50,,,,,,,,,,,,,,,,,,,,,
2025-06-04T05:06:53.077+00:00Z,SEND_PERMIT_ACK_SENT_OK,,,,,,51,0x55,,,,,,,,,,,,,,,,
2025-06-04T05:06:53.733+00:00Z,DATA_LEN_BYTE_RECV,,LEN_0x2a,42,,,,,,,,,,,,,,,,,,,,
2025-06-04T05:06:53.767+00:00Z,DATA_FRAME_RECV_FULL,51,DATA_FRAME,42,41,-93,,,,,,,,,,,,,,,,,,
2025-06-04T05:06:53.777+00:00Z,DATA_ACK_SENT_OK,,,,,,51,0xaa,,,,,,,,,,,,,,,,
2025-06-04T05:06:53.778+00:00Z,DECODE_SUCCESS,51,,,41,,,,True,1778,Msg #49,1749013612.0,0.219,-0.513,0.869,-0.6,-0.4,0.3,-30.7,-12.6,-37.6,35.14784240722656,129.0269012451172,56.1
2025-06-04T05:06:55.232+00:00Z,CTRL_PKT_RECV,52,0x50,,,,,,,,,,,,,,,,,,,,,
2025-06-04T05:06:55.241+00:00Z,SEND_PERMIT_ACK_SENT_OK,,,,,,52,0x55,,,,,,,,,,,,,,,,
2025-06-04T05:06:55.898+00:00Z,DATA_LEN_BYTE_RECV,,LEN_0x29,41,,,,,,,,,,,,,,,,,,,,
2025-06-04T05:06:55.930+00:00Z,DATA_FRAME_RECV_FULL,52,DATA_FRAME,41,40,-93,,,,,,,,,,,,,,,,,,
2025-06-04T05:06:55.941+00:00Z,DATA_ACK_SENT_OK,,,,,,52,0xaa,,,,,,,,,,,,,,,,
2025-06-04T05:06:55.942+00:00Z,DECODE_SUCCESS,52,,,40,,,,True,1942,Msg #50,1749013614.0,0.219,-0.513,0.867,-0.4,0.0,0.0,-30.7,-12.6,-37.6,35.14784240722656,129.0269012451172,56.5
2025-06-04T05:06:57.399+00:00Z,CTRL_PKT_RECV,53,0x50,,,,,,,,,,,,,,,,,,,,,
2025-06-04T05:06:57.409+00:00Z,SEND_PERMIT_ACK_SENT_OK,,,,,,53,0x55,,,,,,,,,,,,,,,,
2025-06-04T05:06:58.066+00:00Z,DATA_LEN_BYTE_RECV,,LEN_0x2a,42,,,,,,,,,,,,,,,,,,,,
2025-06-04T05:06:58.100+00:00Z,DATA_FRAME_RECV_FULL,53,DATA_FRAME,42,41,-93,,,,,,,,,,,,,,,,,,
2025-06-04T05:06:58.109+00:00Z,DATA_ACK_SENT_OK,,,,,,53,0xaa,,,,,,,,,,,,,,,,
2025-06-04T05:06:58.111+00:00Z,DECODE_SUCCESS,53,,,41,,,,True,1110,Msg #51,1749013617.0,0.217,-0.513,0.868,-0.2,0.4,0.0,-30.7,-12.6,-37.6,35.14786148071289,129.0269012451172,56.8
2025-06-04T05:06:59.562+00:00Z,CTRL_PKT_RECV,54,0x50,,,,,,,,,,,,,,,,,,,,,
2025-06-04T05:06:59.573+00:00Z,SEND_PERMIT_ACK_SENT_OK,,,,,,54,0x55,,,,,,,,,,,,,,,,
2025-06-04T05:07:00.229+00:00Z,DATA_LEN_BYTE_RECV,,LEN_0x2a,42,,,,,,,,,,,,,,,,,,,,
2025-06-04T05:07:00.262+00:00Z,DATA_FRAME_RECV_FULL,54,DATA_FRAME,42,41,-92,,,,,,,,,,,,,,,,,,
2025-06-04T05:07:00.273+00:00Z,DATA_ACK_SENT_OK,,,,,,54,0xaa,,,,,,,,,,,,,,,,
2025-06-04T05:07:00.274+00:00Z,DECODE_SUCCESS,54,,,41,,,,True,1274,Msg #52,1749013619.0,0.221,-0.512,0.869,0.0,1.0,-0.3,-30.7,-12.5,-37.6,35.147857666015625,129.02691650390625,57.0
2025-06-04T05:07:01.733+00:00Z,CTRL_PKT_RECV,55,0x50,,,,,,,,,,,,,,,,,,,,,
2025-06-04T05:07:01.745+00:00Z,SEND_PERMIT_ACK_SENT_OK,,,,,,55,0x55,,,,,,,,,,,,,,,,
2025-06-04T05:07:02.401+00:00Z,DATA_LEN_BYTE_RECV,,LEN_0x2a,42,,,,,,,,,,,,,,,,,,,,
2025-06-04T05:07:02.434+00:00Z,DATA_FRAME_RECV_FULL,55,DATA_FRAME,42,41,-94,,,,,,,,,,,,,,,,,,
2025-06-04T05:07:02.445+00:00Z,DATA_ACK_SENT_OK,,,,,,55,0xaa,,,,,,,,,,,,,,,,
2025-06-04T05:07:02.447+00:00Z,DECODE_SUCCESS,55,,,41,,,,True,1447,Msg #53,1749013621.0,0.221,-0.511,0.872,0.1,1.5,-0.6,-30.7,-12.5,-37.6,35.14785385131836,129.02691650390625,57.3
2025-06-04T05:07:03.899+00:00Z,CTRL_PKT_RECV,56,0x50,,,,,,,,,,,,,,,,,,,,,
2025-06-04T05:07:03.909+00:00Z,SEND_PERMIT_ACK_SENT_OK,,,,,,56,0x55,,,,,,,,,,,,,,,,
2025-06-04T05:07:04.566+00:00Z,DATA_LEN_BYTE_RECV,,LEN_0x2a,42,,,,,,,,,,,,,,,,,,,,
2025-06-04T05:07:04.600+00:00Z,DATA_FRAME_RECV_FULL,56,DATA_FRAME,42,41,-93,,,,,,,,,,,,,,,,,,
2025-06-04T05:07:04.609+00:00Z,DATA_ACK_SENT_OK,,,,,,56,0xaa,,,,,,,,,,,,,,,,
2025-06-04T05:07:04.610+00:00Z,DECODE_SUCCESS,56,,,41,,,,True,1610,Msg #54,1749013623.0,0.223,-0.513,0.868,0.1,1.7,-0.5,-30.7,-12.5,-37.6,35.14786148071289,129.02691650390625,57.5
2025-06-04T05:07:06.069+00:00Z,CTRL_PKT_RECV,57,0x50,,,,,,,,,,,,,,,,,,,,,
2025-06-04T05:07:06.081+00:00Z,SEND_PERMIT_ACK_SENT_OK,,,,,,57,0x55,,,,,,,,,,,,,,,,
2025-06-04T05:07:06.736+00:00Z,DATA_LEN_BYTE_RECV,,LEN_0x2a,42,,,,,,,,,,,,,,,,,,,,
2025-06-04T05:07:06.770+00:00Z,DATA_FRAME_RECV_FULL,57,DATA_FRAME,42,41,-93,,,,,,,,,,,,,,,,,,
2025-06-04T05:07:06.781+00:00Z,DATA_ACK_SENT_OK,,,,,,57,0xaa,,,,,,,,,,,,,,,,
2025-06-04T05:07:06.782+00:00Z,DECODE_SUCCESS,57,,,41,,,,True,1782,Msg #55,1749013625.0,0.224,-0.514,0.865,0.2,1.8,-0.4,-30.7,-12.5,-37.6,35.14786911010742,129.02691650390625,57.8
2025-06-04T05:07:08.239+00:00Z,CTRL_PKT_RECV,58,0x50,,,,,,,,,,,,,,,,,,,,,
2025-06-04T05:07:08.249+00:00Z,SEND_PERMIT_ACK_SENT_OK,,,,,,58,0x55,,,,,,,,,,,,,,,,
2025-06-04T05:07:08.906+00:00Z,DATA_LEN_BYTE_RECV,,LEN_0x2a,42,,,,,,,,,,,,,,,,,,,,
2025-06-04T05:07:08.940+00:00Z,DATA_FRAME_RECV_FULL,58,DATA_FRAME,42,41,-93,,,,,,,,,,,,,,,,,,
2025-06-04T05:07:08.949+00:00Z,DATA_ACK_SENT_OK,,,,,,58,0xaa,,,,,,,,,,,,,,,,
2025-06-04T05:07:08.950+00:00Z,DECODE_SUCCESS,58,,,41,,,,True,1950,Msg #56,1749013627.0,0.224,-0.516,0.867,0.4,1.9,-0.1,-30.7,-12.5,-37.7,35.14787292480469,129.02691650390625,58.0
2025-06-04T05:07:10.403+00:00Z,CTRL_PKT_RECV,59,0x50,,,,,,,,,,,,,,,,,,,,,
2025-06-04T05:07:10.413+00:00Z,SEND_PERMIT_ACK_SENT_OK,,,,,,59,0x55,,,,,,,,,,,,,,,,
2025-06-04T05:07:11.070+00:00Z,DATA_LEN_BYTE_RECV,,LEN_0x2a,42,,,,,,,,,,,,,,,,,,,,
2025-06-04T05:07:11.104+00:00Z,DATA_FRAME_RECV_FULL,59,DATA_FRAME,42,41,-93,,,,,,,,,,,,,,,,,,
2025-06-04T05:07:11.113+00:00Z,DATA_ACK_SENT_OK,,,,,,59,0xaa,,,,,,,,,,,,,,,,
2025-06-04T05:07:11.114+00:00Z,DECODE_SUCCESS,59,,,41,,,,True,1114,Msg #57,1749013630.0,0.224,-0.516,0.865,0.4,1.9,0.0,-30.7,-12.5,-37.7,35.147884368896484,129.0269317626953,58.3
2025-06-04T05:07:12.576+00:00Z,CTRL_PKT_RECV,60,0x50,,,,,,,,,,,,,,,,,,,,,
2025-06-04T05:07:12.585+00:00Z,SEND_PERMIT_ACK_SENT_OK,,,,,,60,0x55,,,,,,,,,,,,,,,,
2025-06-04T05:07:13.243+00:00Z,DATA_LEN_BYTE_RECV,,LEN_0x2a,42,,,,,,,,,,,,,,,,,,,,
2025-06-04T05:07:13.277+00:00Z,DATA_FRAME_RECV_FULL,60,DATA_FRAME,42,41,-93,,,,,,,,,,,,,,,,,,
2025-06-04T05:07:13.289+00:00Z,DATA_ACK_SENT_OK,,,,,,60,0xaa,,,,,,,,,,,,,,,,
2025-06-04T05:07:13.290+00:00Z,DECODE_SUCCESS,60,,,41,,,,True,1290,Msg #58,1749013632.0,0.224,-0.516,0.862,0.4,1.9,-0.1,-30.7,-12.5,-37.7,35.14788055419922,129.0269317626953,58.5
2025-06-04T05:07:14.740+00:00Z,CTRL_PKT_RECV,61,0x50,,,,,,,,,,,,,,,,,,,,,
2025-06-04T05:07:14.749+00:00Z,SEND_PERMIT_ACK_SENT_OK,,,,,,61,0x55,,,,,,,,,,,,,,,,
2025-06-04T05:07:23.801+00:00Z,CTRL_PKT_RECV,62,0x50,,,,,,,,,,,,,,,,,,,,,
2025-06-04T05:07:23.813+00:00Z,SEND_PERMIT_ACK_SENT_OK,,,,,,62,0x55,,,,,,,,,,,,,,,,
2025-06-04T05:07:32.860+00:00Z,CTRL_PKT_RECV,63,0x50,,,,,,,,,,,,,,,,,,,,,
2025-06-04T05:07:32.869+00:00Z,SEND_PERMIT_ACK_SENT_OK,,,,,,63,0x55,,,,,,,,,,,,,,,,
2025-06-04T05:07:33.527+00:00Z,DATA_LEN_BYTE_RECV,,LEN_0x2a,42,,,,,,,,,,,,,,,,,,,,
2025-06-04T05:07:33.560+00:00Z,DATA_FRAME_RECV_FULL,63,DATA_FRAME,42,41,-93,,,,,,,,,,,,,,,,,,
2025-06-04T05:07:33.569+00:00Z,DATA_ACK_SENT_OK,,,,,,63,0xaa,,,,,,,,,,,,,,,,
2025-06-04T05:07:33.570+00:00Z,DECODE_SUCCESS,63,,,41,,,,True,1570,Msg #59,1749013652.0,0.227,-0.518,0.866,1.0,2.1,-0.7,-30.6,-12.4,-37.7,35.14793014526367,129.02691650390625,59.3
2025-06-04T05:07:35.029+00:00Z,CTRL_PKT_RECV,64,0x50,,,,,,,,,,,,,,,,,,,,,
2025-06-04T05:07:35.041+00:00Z,SEND_PERMIT_ACK_SENT_OK,,,,,,64,0x55,,,,,,,,,,,,,,,,
2025-06-04T05:07:35.697+00:00Z,DATA_LEN_BYTE_RECV,,LEN_0x2a,42,,,,,,,,,,,,,,,,,,,,
2025-06-04T05:07:35.730+00:00Z,DATA_FRAME_RECV_FULL,64,DATA_FRAME,42,41,-93,,,,,,,,,,,,,,,,,,
2025-06-04T05:07:35.741+00:00Z,DATA_ACK_SENT_OK,,,,,,64,0xaa,,,,,,,,,,,,,,,,
2025-06-04T05:07:35.742+00:00Z,DECODE_SUCCESS,64,,,41,,,,True,1742,Msg #60,1749013654.0,0.227,-0.518,0.866,0.7,1.5,-0.4,-30.6,-12.4,-37.7,35.14796829223633,129.02691650390625,59.7
2025-06-04T05:07:37.198+00:00Z,CTRL_PKT_RECV,65,0x50,,,,,,,,,,,,,,,,,,,,,
2025-06-04T05:07:37.209+00:00Z,SEND_PERMIT_ACK_SENT_OK,,,,,,65,0x55,,,,,,,,,,,,,,,,
2025-06-04T05:07:37.866+00:00Z,DATA_LEN_BYTE_RECV,,LEN_0x2a,42,,,,,,,,,,,,,,,,,,,,
2025-06-04T05:07:37.899+00:00Z,DATA_FRAME_RECV_FULL,65,DATA_FRAME,42,41,-93,,,,,,,,,,,,,,,,,,
2025-06-04T05:07:37.909+00:00Z,DATA_ACK_SENT_OK,,,,,,65,0xaa,,,,,,,,,,,,,,,,
2025-06-04T05:07:37.910+00:00Z,DECODE_SUCCESS,65,,,41,,,,True,1910,Msg #61,1749013656.0,0.229,-0.517,0.864,0.1,0.8,0.0,-30.6,-12.4,-37.7,35.14801788330078,129.02691650390625,59.9
2025-06-04T05:07:39.369+00:00Z,CTRL_PKT_RECV,66,0x50,,,,,,,,,,,,,,,,,,,,,
2025-06-04T05:07:39.381+00:00Z,SEND_PERMIT_ACK_SENT_OK,,,,,,66,0x55,,,,,,,,,,,,,,,,
2025-06-04T05:07:40.036+00:00Z,DATA_LEN_BYTE_RECV,,LEN_0x2a,42,,,,,,,,,,,,,,,,,,,,
2025-06-04T05:07:40.069+00:00Z,DATA_FRAME_RECV_FULL,66,DATA_FRAME,42,41,-94,,,,,,,,,,,,,,,,,,
2025-06-04T05:07:40.081+00:00Z,DATA_ACK_SENT_OK,,,,,,66,0xaa,,,,,,,,,,,,,,,,
2025-06-04T05:07:40.082+00:00Z,DECODE_SUCCESS,66,,,41,,,,True,1082,Msg #62,1749013659.0,0.226,-0.518,0.864,-0.4,0.1,0.0,-30.6,-12.4,-37.7,35.14810562133789,129.0269012451172,60.2
2025-06-04T05:07:41.536+00:00Z,CTRL_PKT_RECV,67,0x50,,,,,,,,,,,,,,,,,,,,,
2025-06-04T05:07:41.553+00:00Z,SEND_PERMIT_ACK_SENT_OK,,,,,,67,0x55,,,,,,,,,,,,,,,,
2025-06-04T05:07:42.206+00:00Z,DATA_LEN_BYTE_RECV,,LEN_0x2c,44,,,,,,,,,,,,,,,,,,,,
2025-06-04T05:07:42.241+00:00Z,DATA_FRAME_RECV_FULL,67,DATA_FRAME,44,43,-93,,,,,,,,,,,,,,,,,,
2025-06-04T05:07:42.253+00:00Z,DATA_ACK_SENT_OK,,,,,,67,0xaa,,,,,,,,,,,,,,,,
2025-06-04T05:07:42.254+00:00Z,DECODE_SUCCESS,67,,,43,,,,True,1254,Msg #63,1749013661.0,0.225,-0.515,0.863,-0.9,-0.3,0.0,-30.6,-12.4,-37.7,35.14816665649414,129.0269012451172,60.4
2025-06-04T05:07:43.711+00:00Z,CTRL_PKT_RECV,68,0x50,,,,,,,,,,,,,,,,,,,,,
2025-06-04T05:07:43.721+00:00Z,SEND_PERMIT_ACK_SENT_OK,,,,,,68,0x55,,,,,,,,,,,,,,,,
2025-06-04T05:07:44.380+00:00Z,DATA_LEN_BYTE_RECV,,LEN_0x2c,44,,,,,,,,,,,,,,,,,,,,
2025-06-04T05:07:44.415+00:00Z,DATA_FRAME_RECV_FULL,68,DATA_FRAME,44,43,-93,,,,,,,,,,,,,,,,,,
2025-06-04T05:07:44.425+00:00Z,DATA_ACK_SENT_OK,,,,,,68,0xaa,,,,,,,,,,,,,,,,
2025-06-04T05:07:44.426+00:00Z,DECODE_SUCCESS,68,,,43,,,,True,1426,Msg #64,1749013663.0,0.227,-0.515,0.866,-0.9,-0.6,0.0,-30.6,-12.4,-37.7,35.14821243286133,129.02688598632812,60.6
2025-06-04T05:07:45.878+00:00Z,CTRL_PKT_RECV,69,0x50,,,,,,,,,,,,,,,,,,,,,
2025-06-04T05:07:45.889+00:00Z,SEND_PERMIT_ACK_SENT_OK,,,,,,69,0x55,,,,,,,,,,,,,,,,
2025-06-04T05:07:46.548+00:00Z,DATA_LEN_BYTE_RECV,,LEN_0x2c,44,,,,,,,,,,,,,,,,,,,,
2025-06-04T05:07:46.583+00:00Z,DATA_FRAME_RECV_FULL,69,DATA_FRAME,44,43,-93,,,,,,,,,,,,,,,,,,
2025-06-04T05:07:46.593+00:00Z,DATA_ACK_SENT_OK,,,,,,69,0xaa,,,,,,,,,,,,,,,,
2025-06-04T05:07:46.594+00:00Z,DECODE_SUCCESS,69,,,43,,,,True,1594,Msg #65,1749013665.0,0.227,-0.515,0.866,-0.7,-0.9,-0.1,-30.7,-12.4,-37.7,35.148231506347656,129.02688598632812,61.0
2025-06-04T05:07:48.051+00:00Z,CTRL_PKT_RECV,70,0x50,,,,,,,,,,,,,,,,,,,,,
2025-06-04T05:07:48.061+00:00Z,SEND_PERMIT_ACK_SENT_OK,,,,,,70,0x55,,,,,,,,,,,,,,,,
2025-06-04T05:07:48.721+00:00Z,DATA_LEN_BYTE_RECV,,LEN_0x2c,44,,,,,,,,,,,,,,,,,,,,
2025-06-04T05:07:48.756+00:00Z,DATA_FRAME_RECV_FULL,70,DATA_FRAME,44,43,-93,,,,,,,,,,,,,,,,,,
2025-06-04T05:07:48.765+00:00Z,DATA_ACK_SENT_OK,,,,,,70,0xaa,,,,,,,,,,,,,,,,
2025-06-04T05:07:48.766+00:00Z,DECODE_SUCCESS,70,,,43,,,,True,1766,Msg #66,1749013667.0,0.227,-0.515,0.871,-0.7,-1.4,0.0,-30.7,-12.4,-37.7,35.14826965332031,129.02688598632812,61.2
2025-06-04T05:07:50.220+00:00Z,CTRL_PKT_RECV,71,0x50,,,,,,,,,,,,,,,,,,,,,
2025-06-04T05:07:50.229+00:00Z,SEND_PERMIT_ACK_SENT_OK,,,,,,71,0x55,,,,,,,,,,,,,,,,
2025-06-04T05:07:50.889+00:00Z,DATA_LEN_BYTE_RECV,,LEN_0x2c,44,,,,,,,,,,,,,,,,,,,,
2025-06-04T05:07:50.925+00:00Z,DATA_FRAME_RECV_FULL,71,DATA_FRAME,44,43,-93,,,,,,,,,,,,,,,,,,
2025-06-04T05:07:50.937+00:00Z,DATA_ACK_SENT_OK,,,,,,71,0xaa,,,,,,,,,,,,,,,,
2025-06-04T05:07:50.938+00:00Z,DECODE_SUCCESS,71,,,43,,,,True,1938,Msg #67,1749013669.0,0.226,-0.515,0.868,-0.9,-2.0,0.6,-30.7,-12.5,-37.7,35.148250579833984,129.02691650390625,61.4
2025-06-04T05:07:52.392+00:00Z,CTRL_PKT_RECV,72,0x50,,,,,,,,,,,,,,,,,,,,,
2025-06-04T05:07:52.401+00:00Z,SEND_PERMIT_ACK_SENT_OK,,,,,,72,0x55,,,,,,,,,,,,,,,,
2025-06-04T05:07:53.062+00:00Z,DATA_LEN_BYTE_RECV,,LEN_0x2c,44,,,,,,,,,,,,,,,,,,,,
2025-06-04T05:07:53.097+00:00Z,DATA_FRAME_RECV_FULL,72,DATA_FRAME,44,43,-93,,,,,,,,,,,,,,,,,,
2025-06-04T05:07:53.109+00:00Z,DATA_ACK_SENT_OK,,,,,,72,0xaa,,,,,,,,,,,,,,,,
2025-06-04T05:07:53.110+00:00Z,DECODE_SUCCESS,72,,,43,,,,True,1110,Msg #68,1749013672.0,0.226,-0.515,0.868,-0.8,-2.6,1.0,-30.7,-12.5,-37.7,35.148258209228516,129.02691650390625,61.3
2025-06-04T05:07:54.571+00:00Z,CTRL_PKT_RECV,73,0x50,,,,,,,,,,,,,,,,,,,,,
2025-06-04T05:07:54.581+00:00Z,SEND_PERMIT_ACK_SENT_OK,,,,,,73,0x55,,,,,,,,,,,,,,,,
2025-06-04T05:07:55.241+00:00Z,DATA_LEN_BYTE_RECV,,LEN_0x2c,44,,,,,,,,,,,,,,,,,,,,
2025-06-04T05:07:55.276+00:00Z,DATA_FRAME_RECV_FULL,73,DATA_FRAME,44,43,-93,,,,,,,,,,,,,,,,,,
2025-06-04T05:07:55.285+00:00Z,DATA_ACK_SENT_OK,,,,,,73,0xaa,,,,,,,,,,,,,,,,
2025-06-04T05:07:55.286+00:00Z,DECODE_SUCCESS,73,,,43,,,,True,1286,Msg #69,1749013674.0,0.226,-0.514,0.863,-0.8,-2.6,1.0,-30.7,-12.5,-37.7,35.14827346801758,129.02691650390625,61.3
2025-06-04T05:07:56.737+00:00Z,CTRL_PKT_RECV,74,0x50,,,,,,,,,,,,,,,,,,,,,
2025-06-04T05:07:56.749+00:00Z,SEND_PERMIT_ACK_SENT_OK,,,,,,74,0x55,,,,,,,,,,,,,,,,
2025-06-04T05:07:57.407+00:00Z,DATA_LEN_BYTE_RECV,,LEN_0x2c,44,,,,,,,,,,,,,,,,,,,,
2025-06-04T05:07:57.442+00:00Z,DATA_FRAME_RECV_FULL,74,DATA_FRAME,44,43,-93,,,,,,,,,,,,,,,,,,
2025-06-04T05:07:57.453+00:00Z,DATA_ACK_SENT_OK,,,,,,74,0xaa,,,,,,,,,,,,,,,,
2025-06-04T05:07:57.454+00:00Z,DECODE_SUCCESS,74,,,43,,,,True,1454,Msg #70,1749013676.0,0.222,-0.512,0.867,-0.7,-2.9,0.9,-30.7,-12.5,-37.6,35.14828109741211,129.02691650390625,61.3
2025-06-04T05:07:58.915+00:00Z,CTRL_PKT_RECV,75,0x50,,,,,,,,,,,,,,,,,,,,,
2025-06-04T05:07:58.925+00:00Z,SEND_PERMIT_ACK_SENT_OK,,,,,,75,0x55,,,,,,,,,,,,,,,,
2025-06-04T05:07:59.584+00:00Z,DATA_LEN_BYTE_RECV,,LEN_0x2c,44,,,,,,,,,,,,,,,,,,,,
2025-06-04T05:07:59.620+00:00Z,DATA_FRAME_RECV_FULL,75,DATA_FRAME,44,43,-93,,,,,,,,,,,,,,,,,,
2025-06-04T05:07:59.629+00:00Z,DATA_ACK_SENT_OK,,,,,,75,0xaa,,,,,,,,,,,,,,,,
2025-06-04T05:07:59.630+00:00Z,DECODE_SUCCESS,75,,,43,,,,True,1630,Msg #71,1749013678.0,0.221,-0.51,0.867,-0.5,-2.9,0.6,-30.7,-12.5,-37.6,35.14827346801758,129.02691650390625,61.3
2025-06-04T05:08:01.092+00:00Z,CTRL_PKT_RECV,76,0x50,,,,,,,,,,,,,,,,,,,,,
2025-06-04T05:08:01.109+00:00Z,SEND_PERMIT_ACK_SENT_OK,,,,,,76,0x55,,,,,,,,,,,,,,,,
2025-06-04T05:08:01.760+00:00Z,DATA_LEN_BYTE_RECV,,LEN_0x2a,42,,,,,,,,,,,,,,,,,,,,
2025-06-04T05:08:01.793+00:00Z,DATA_FRAME_RECV_FULL,76,DATA_FRAME,42,41,-94,,,,,,,,,,,,,,,,,,
2025-06-04T05:08:01.805+00:00Z,DATA_ACK_SENT_OK,,,,,,76,0xaa,,,,,,,,,,,,,,,,
2025-06-04T05:08:01.806+00:00Z,DECODE_SUCCESS,76,,,41,,,,True,1806,Msg #72,1749013680.0,0.22,-0.513,0.869,0.0,-2.9,0.5,-30.7,-12.6,-37.6,35.14827346801758,129.02691650390625,61.3
2025-06-04T05:08:03.265+00:00Z,CTRL_PKT_RECV,77,0x50,,,,,,,,,,,,,,,,,,,,,
2025-06-04T05:08:03.277+00:00Z,SEND_PERMIT_ACK_SENT_OK,,,,,,77,0x55,,,,,,,,,,,,,,,,
2025-06-04T05:08:03.933+00:00Z,DATA_LEN_BYTE_RECV,,LEN_0x2a,42,,,,,,,,,,,,,,,,,,,,
2025-06-04T05:08:03.966+00:00Z,DATA_FRAME_RECV_FULL,77,DATA_FRAME,42,41,-93,,,,,,,,,,,,,,,,,,
2025-06-04T05:08:03.977+00:00Z,DATA_ACK_SENT_OK,,,,,,77,0xaa,,,,,,,,,,,,,,,,
2025-06-04T05:08:03.978+00:00Z,DECODE_SUCCESS,77,,,41,,,,True,1978,Msg #73,1749013682.0,0.219,-0.512,0.873,0.4,-2.8,0.6,-30.7,-12.6,-37.6,35.14827346801758,129.02691650390625,61.3
2025-06-04T05:08:05.440+00:00Z,CTRL_PKT_RECV,78,0x50,,,,,,,,,,,,,,,,,,,,,
2025-06-04T05:08:05.449+00:00Z,SEND_PERMIT_ACK_SENT_OK,,,,,,78,0x55,,,,,,,,,,,,,,,,
2025-06-04T05:08:06.108+00:00Z,DATA_LEN_BYTE_RECV,,LEN_0x2a,42,,,,,,,,,,,,,,,,,,,,
2025-06-04T05:08:06.141+00:00Z,DATA_FRAME_RECV_FULL,78,DATA_FRAME,42,41,-93,,,,,,,,,,,,,,,,,,
2025-06-04T05:08:06.153+00:00Z,DATA_ACK_SENT_OK,,,,,,78,0xaa,,,,,,,,,,,,,,,,
2025-06-04T05:08:06.155+00:00Z,DECODE_SUCCESS,78,,,41,,,,True,1155,Msg #74,1749013685.0,0.218,-0.513,0.871,0.7,-2.6,0.7,-30.7,-12.6,-37.6,35.148258209228516,129.0269012451172,61.3
2025-06-04T05:08:07.605+00:00Z,CTRL_PKT_RECV,79,0x50,,,,,,,,,,,,,,,,,,,,,
2025-06-04T05:08:07.617+00:00Z,SEND_PERMIT_ACK_SENT_OK,,,,,,79,0x55,,,,,,,,,,,,,,,,
2025-06-04T05:08:08.272+00:00Z,DATA_LEN_BYTE_RECV,,LEN_0x2a,42,,,,,,,,,,,,,,,,,,,,
2025-06-04T05:08:08.305+00:00Z,DATA_FRAME_RECV_FULL,79,DATA_FRAME,42,41,-94,,,,,,,,,,,,,,,,,,
2025-06-04T05:08:08.317+00:00Z,DATA_ACK_SENT_OK,,,,,,79,0xaa,,,,,,,,,,,,,,,,
2025-06-04T05:08:08.318+00:00Z,DECODE_SUCCESS,79,,,41,,,,True,1318,Msg #75,1749013687.0,0.216,-0.512,0.869,0.7,-2.5,0.6,-30.7,-12.6,-37.5,35.148231506347656,129.0269012451172,61.4
2025-06-04T05:08:09.776+00:00Z,CTRL_PKT_RECV,80,0x50,,,,,,,,,,,,,,,,,,,,,
2025-06-04T05:08:09.785+00:00Z,SEND_PERMIT_ACK_SENT_OK,,,,,,80,0x55,,,,,,,,,,,,,,,,
2025-06-04T05:08:10.443+00:00Z,DATA_LEN_BYTE_RECV,,LEN_0x2a,42,,,,,,,,,,,,,,,,,,,,
2025-06-04T05:08:10.476+00:00Z,DATA_FRAME_RECV_FULL,80,DATA_FRAME,42,41,-93,,,,,,,,,,,,,,,,,,
2025-06-04T05:08:10.489+00:00Z,DATA_ACK_SENT_OK,,,,,,80,0xaa,,,,,,,,,,,,,,,,
2025-06-04T05:08:10.490+00:00Z,DECODE_SUCCESS,80,,,41,,,,True,1490,Msg #76,1749013689.0,0.216,-0.513,0.866,0.4,-2.1,0.3,-30.7,-12.6,-37.5,35.14822006225586,129.02688598632812,61.4
2025-06-04T05:08:11.941+00:00Z,CTRL_PKT_RECV,81,0x50,,,,,,,,,,,,,,,,,,,,,
2025-06-04T05:08:11.953+00:00Z,SEND_PERMIT_ACK_SENT_OK,,,,,,81,0x55,,,,,,,,,,,,,,,,
2025-06-04T05:08:12.608+00:00Z,DATA_LEN_BYTE_RECV,,LEN_0x2a,42,,,,,,,,,,,,,,,,,,,,
2025-06-04T05:08:12.642+00:00Z,DATA_FRAME_RECV_FULL,81,DATA_FRAME,42,41,-93,,,,,,,,,,,,,,,,,,
2025-06-04T05:08:12.653+00:00Z,DATA_ACK_SENT_OK,,,,,,81,0xaa,,,,,,,,,,,,,,,,
2025-06-04T05:08:12.654+00:00Z,DECODE_SUCCESS,81,,,41,,,,True,1654,Msg #77,1749013691.0,0.217,-0.513,0.867,0.5,-1.4,0.0,-30.7,-12.6,-37.5,35.14822769165039,129.02687072753906,61.4
2025-06-04T05:08:14.113+00:00Z,CTRL_PKT_RECV,82,0x50,,,,,,,,,,,,,,,,,,,,,
2025-06-04T05:08:14.125+00:00Z,SEND_PERMIT_ACK_SENT_OK,,,,,,82,0x55,,,,,,,,,,,,,,,,
2025-06-04T05:08:14.783+00:00Z,DATA_LEN_BYTE_RECV,,LEN_0x2c,44,,,,,,,,,,,,,,,,,,,,
2025-06-04T05:08:14.818+00:00Z,DATA_FRAME_RECV_FULL,82,DATA_FRAME,44,43,-93,,,,,,,,,,,,,,,,,,
2025-06-04T05:08:14.829+00:00Z,DATA_ACK_SENT_OK,,,,,,82,0xaa,,,,,,,,,,,,,,,,
2025-06-04T05:08:14.830+00:00Z,DECODE_SUCCESS,82,,,43,,,,True,1830,Msg #78,1749013693.0,0.215,-0.511,0.869,0.9,-0.6,-0.1,-30.7,-12.6,-37.5,35.148197174072266,129.02687072753906,61.4
2025-06-04T05:08:16.292+00:00Z,CTRL_PKT_RECV,83,0x50,,,,,,,,,,,,,,,,,,,,,
2025-06-04T05:08:16.301+00:00Z,SEND_PERMIT_ACK_SENT_OK,,,,,,83,0x55,,,,,,,,,,,,,,,,
2025-06-04T05:08:16.959+00:00Z,DATA_LEN_BYTE_RECV,,LEN_0x2a,42,,,,,,,,,,,,,,,,,,,,
2025-06-04T05:08:16.992+00:00Z,DATA_FRAME_RECV_FULL,83,DATA_FRAME,42,41,-93,,,,,,,,,,,,,,,,,,
2025-06-04T05:08:17.001+00:00Z,DATA_ACK_SENT_OK,,,,,,83,0xaa,,,,,,,,,,,,,,,,
2025-06-04T05:08:17.002+00:00Z,DECODE_SUCCESS,83,,,41,,,,True,1002,Msg #79,1749013696.0,0.219,-0.512,0.872,1.5,0.0,0.1,-30.7,-12.6,-37.5,35.148193359375,129.02687072753906,61.5
2025-06-04T05:08:18.460+00:00Z,CTRL_PKT_RECV,84,0x50,,,,,,,,,,,,,,,,,,,,,
2025-06-04T05:08:18.473+00:00Z,SEND_PERMIT_ACK_SENT_OK,,,,,,84,0x55,,,,,,,,,,,,,,,,
2025-06-04T05:08:19.128+00:00Z,DATA_LEN_BYTE_RECV,,LEN_0x2a,42,,,,,,,,,,,,,,,,,,,,
2025-06-04T05:08:19.161+00:00Z,DATA_FRAME_RECV_FULL,84,DATA_FRAME,42,41,-94,,,,,,,,,,,,,,,,,,
2025-06-04T05:08:19.173+00:00Z,DATA_ACK_SENT_OK,,,,,,84,0xaa,,,,,,,,,,,,,,,,
2025-06-04T05:08:19.174+00:00Z,DECODE_SUCCESS,84,,,41,,,,True,1174,Msg #80,1749013698.0,0.221,-0.513,0.871,1.8,0.2,0.6,-30.7,-12.6,-37.5,35.14817428588867,129.02685546875,61.5
2025-06-04T05:08:20.630+00:00Z,CTRL_PKT_RECV,85,0x50,,,,,,,,,,,,,,,,,,,,,
2025-06-04T05:08:20.641+00:00Z,SEND_PERMIT_ACK_SENT_OK,,,,,,85,0x55,,,,,,,,,,,,,,,,
2025-06-04T05:08:21.297+00:00Z,DATA_LEN_BYTE_RECV,,LEN_0x2a,42,,,,,,,,,,,,,,,,,,,,
2025-06-04T05:08:21.331+00:00Z,DATA_FRAME_RECV_FULL,85,DATA_FRAME,42,41,-93,,,,,,,,,,,,,,,,,,
2025-06-04T05:08:21.341+00:00Z,DATA_ACK_SENT_OK,,,,,,85,0xaa,,,,,,,,,,,,,,,,
2025-06-04T05:08:21.342+00:00Z,DECODE_SUCCESS,85,,,41,,,,True,1342,Msg #81,1749013700.0,0.219,-0.515,0.865,1.7,0.5,0.6,-30.6,-12.6,-37.5,35.14815902709961,129.02685546875,61.6
2025-06-04T05:08:22.797+00:00Z,CTRL_PKT_RECV,86,0x50,,,,,,,,,,,,,,,,,,,,,
2025-06-04T05:08:22.809+00:00Z,SEND_PERMIT_ACK_SENT_OK,,,,,,86,0x55,,,,,,,,,,,,,,,,
2025-06-04T05:08:23.465+00:00Z,DATA_LEN_BYTE_RECV,,LEN_0x2a,42,,,,,,,,,,,,,,,,,,,,
2025-06-04T05:08:23.498+00:00Z,DATA_FRAME_RECV_FULL,86,DATA_FRAME,42,41,-93,,,,,,,,,,,,,,,,,,
2025-06-04T05:08:23.509+00:00Z,DATA_ACK_SENT_OK,,,,,,86,0xaa,,,,,,,,,,,,,,,,
2025-06-04T05:08:23.510+00:00Z,DECODE_SUCCESS,86,,,41,,,,True,1510,Msg #82,1749013702.0,0.22,-0.514,0.86,1.5,0.9,0.1,-30.6,-12.6,-37.5,35.14813232421875,129.02685546875,61.6
2025-06-04T05:08:24.971+00:00Z,CTRL_PKT_RECV,87,0x50,,,,,,,,,,,,,,,,,,,,,
2025-06-04T05:08:24.981+00:00Z,SEND_PERMIT_ACK_SENT_OK,,,,,,87,0x55,,,,,,,,,,,,,,,,
2025-06-04T05:08:25.639+00:00Z,DATA_LEN_BYTE_RECV,,LEN_0x2a,42,,,,,,,,,,,,,,,,,,,,
2025-06-04T05:08:25.672+00:00Z,DATA_FRAME_RECV_FULL,87,DATA_FRAME,42,41,-93,,,,,,,,,,,,,,,,,,
2025-06-04T05:08:25.681+00:00Z,DATA_ACK_SENT_OK,,,,,,87,0xaa,,,,,,,,,,,,,,,,
2025-06-04T05:08:25.682+00:00Z,DECODE_SUCCESS,87,,,41,,,,True,1682,Msg #83,1749013704.0,0.219,-0.515,0.862,1.5,1.6,-0.6,-30.6,-12.6,-37.5,35.14808654785156,129.02685546875,61.6
2025-06-04T05:08:34.499+00:00Z,CTRL_PKT_RECV,88,0x50,,,,,,,,,,,,,,,,,,,,,
2025-06-04T05:08:34.509+00:00Z,SEND_PERMIT_ACK_SENT_OK,,,,,,88,0x55,,,,,,,,,,,,,,,,
2025-06-04T05:08:35.166+00:00Z,DATA_LEN_BYTE_RECV,,LEN_0x2a,42,,,,,,,,,,,,,,,,,,,,
2025-06-04T05:08:35.199+00:00Z,DATA_FRAME_RECV_FULL,88,DATA_FRAME,42,41,-93,,,,,,,,,,,,,,,,,,
2025-06-04T05:08:35.210+00:00Z,DATA_ACK_SENT_OK,,,,,,88,0xaa,,,,,,,,,,,,,,,,
