log_timestamp_utc,event_type,frame_seq_recv,packet_type_recv_hex,data_len_byte_value,payload_len_on_wire,rssi_dbm,ack_seq_sent,ack_type_sent_hex,decoded_ts_valid_check,decoded_latency_ms_calc,notes,decoded_ts,decoded_accel_ax,decoded_accel_ay,decoded_accel_az,decoded_gyro_gx,decoded_gyro_gy,decoded_gyro_gz,decoded_angle_roll,decoded_angle_pitch,decoded_angle_yaw,decoded_gps_lat,decoded_gps_lon,decoded_gps_altitude
2025-06-05T06:51:29.892+00:00Z,SERIAL_PORT_OPEN_SUCCESS,,,,,,,,,,"Port: /dev/ttyAMA0, Baud: 9600",,,,,,,,,,,,,
2025-06-05T06:51:36.895+00:00Z,HANDSHAKE_SYN_TIMEOUT,,,,,,,,,,,,,,,,,,,,,,,
2025-06-05T06:51:43.903+00:00Z,HANDSHAKE_SYN_TIMEOUT,,,,,,,,,,,,,,,,,,,,,,,
2025-06-05T06:51:50.912+00:00Z,HANDSHAKE_SYN_TIMEOUT,,,,,,,,,,,,,,,,,,,,,,,
2025-06-05T06:51:56.168+00:00Z,HANDSHAKE_SYN_RECV,,SYN,,,,,,,,,,,,,,,,,,,,,
2025-06-05T06:51:56.181+00:00Z,HANDSHAKE_ACK_SENT_OK,,,,,,0,0x00,,,,,,,,,,,,,,,,
2025-06-05T06:51:56.182+00:00Z,HANDSHAKE_SUCCESS,,,,,,,,,,,,,,,,,,,,,,,
2025-06-05T06:53:44.793+00:00Z,CTRL_PKT_RECV,1,0x50,,,,,,,,,,,,,,,,,,,,,
2025-06-05T06:53:44.805+00:00Z,SEND_PERMIT_ACK_SENT_OK,,,,,,1,0x55,,,,,,,,,,,,,,,,
2025-06-05T06:53:45.435+00:00Z,DATA_LEN_BYTE_RECV,,LEN_0x26,38,,,,,,,,,,,,,,,,,,,,
2025-06-05T06:53:45.464+00:00Z,DATA_FRAME_RECV_FULL,1,DATA_FRAME,38,37,-93,,,,,,,,,,,,,,,,,,
2025-06-05T06:53:45.474+00:00Z,DATA_ACK_SENT_OK,,,,,,1,0xaa,,,,,,,,,,,,,,,,
2025-06-05T06:53:45.475+00:00Z,DECODE_SUCCESS,1,,,37,,,,True,1475,Msg #1,1749106424.0,0.889,-0.327,0.361,0.0,0.0,0.0,-42.0,-61.2,0.0,35.1475830078125,129.02688598632812,138.6
2025-06-05T06:53:46.921+00:00Z,CTRL_PKT_RECV,2,0x50,,,,,,,,,,,,,,,,,,,,,
2025-06-05T06:53:46.933+00:00Z,SEND_PERMIT_ACK_SENT_OK,,,,,,2,0x55,,,,,,,,,,,,,,,,
2025-06-05T06:53:47.564+00:00Z,DATA_LEN_BYTE_RECV,,LEN_0x26,38,,,,,,,,,,,,,,,,,,,,
2025-06-05T06:53:47.593+00:00Z,DATA_FRAME_RECV_FULL,2,DATA_FRAME,38,37,-94,,,,,,,,,,,,,,,,,,
2025-06-05T06:53:47.605+00:00Z,DATA_ACK_SENT_OK,,,,,,2,0xaa,,,,,,,,,,,,,,,,
2025-06-05T06:53:47.606+00:00Z,DECODE_SUCCESS,2,,,37,,,,True,1606,Msg #2,1749106426.0,0.891,-0.326,0.361,0.0,0.0,0.0,-42.0,-61.2,0.0,35.147579193115234,129.02687072753906,137.2
2025-06-05T06:53:49.048+00:00Z,CTRL_PKT_RECV,3,0x50,,,,,,,,,,,,,,,,,,,,,
2025-06-05T06:53:49.061+00:00Z,SEND_PERMIT_ACK_SENT_OK,,,,,,3,0x55,,,,,,,,,,,,,,,,
2025-06-05T06:53:49.691+00:00Z,DATA_LEN_BYTE_RECV,,LEN_0x26,38,,,,,,,,,,,,,,,,,,,,
2025-06-05T06:53:49.720+00:00Z,DATA_FRAME_RECV_FULL,3,DATA_FRAME,38,37,-93,,,,,,,,,,,,,,,,,,
2025-06-05T06:53:49.729+00:00Z,DATA_ACK_SENT_OK,,,,,,3,0xaa,,,,,,,,,,,,,,,,
2025-06-05T06:53:49.730+00:00Z,DECODE_SUCCESS,3,,,37,,,,True,1730,Msg #3,1749106428.0,0.891,-0.326,0.361,0.0,0.0,0.0,-42.0,-61.2,0.0,35.14756774902344,129.02685546875,136.2
2025-06-05T06:53:51.176+00:00Z,CTRL_PKT_RECV,4,0x50,,,,,,,,,,,,,,,,,,,,,
2025-06-05T06:53:51.185+00:00Z,SEND_PERMIT_ACK_SENT_OK,,,,,,4,0x55,,,,,,,,,,,,,,,,
2025-06-05T06:53:51.819+00:00Z,DATA_LEN_BYTE_RECV,,LEN_0x26,38,,,,,,,,,,,,,,,,,,,,
2025-06-05T06:53:51.848+00:00Z,DATA_FRAME_RECV_FULL,4,DATA_FRAME,38,37,-93,,,,,,,,,,,,,,,,,,
2025-06-05T06:53:51.857+00:00Z,DATA_ACK_SENT_OK,,,,,,4,0xaa,,,,,,,,,,,,,,,,
2025-06-05T06:53:51.858+00:00Z,DECODE_SUCCESS,4,,,37,,,,True,1858,Msg #4,1749106430.0,0.891,-0.326,0.36,0.0,0.0,0.0,-42.0,-61.2,0.0,35.14755630493164,129.02685546875,134.1
2025-06-05T06:53:53.305+00:00Z,CTRL_PKT_RECV,5,0x50,,,,,,,,,,,,,,,,,,,,,
2025-06-05T06:53:53.318+00:00Z,SEND_PERMIT_ACK_SENT_OK,,,,,,5,0x55,,,,,,,,,,,,,,,,
2025-06-05T06:53:53.948+00:00Z,DATA_LEN_BYTE_RECV,,LEN_0x26,38,,,,,,,,,,,,,,,,,,,,
2025-06-05T06:53:53.977+00:00Z,DATA_FRAME_RECV_FULL,5,DATA_FRAME,38,37,-94,,,,,,,,,,,,,,,,,,
2025-06-05T06:53:53.989+00:00Z,DATA_ACK_SENT_OK,,,,,,5,0xaa,,,,,,,,,,,,,,,,
2025-06-05T06:53:53.990+00:00Z,DECODE_SUCCESS,5,,,37,,,,True,1990,Msg #5,1749106432.0,0.89,-0.327,0.361,0.0,0.0,0.0,-42.0,-61.2,0.0,35.14755630493164,129.02685546875,135.6
2025-06-05T06:53:55.433+00:00Z,CTRL_PKT_RECV,6,0x50,,,,,,,,,,,,,,,,,,,,,
2025-06-05T06:53:55.445+00:00Z,SEND_PERMIT_ACK_SENT_OK,,,,,,6,0x55,,,,,,,,,,,,,,,,
2025-06-05T06:53:56.075+00:00Z,DATA_LEN_BYTE_RECV,,LEN_0x26,38,,,,,,,,,,,,,,,,,,,,
2025-06-05T06:53:56.104+00:00Z,DATA_FRAME_RECV_FULL,6,DATA_FRAME,38,37,-94,,,,,,,,,,,,,,,,,,
2025-06-05T06:53:56.113+00:00Z,DATA_ACK_SENT_OK,,,,,,6,0xaa,,,,,,,,,,,,,,,,
2025-06-05T06:53:56.114+00:00Z,DECODE_SUCCESS,6,,,37,,,,True,1114,Msg #6,1749106435.0,0.889,-0.326,0.36,0.0,0.0,0.0,-42.0,-61.2,0.0,35.14754867553711,129.02685546875,135.9
2025-06-05T06:53:57.562+00:00Z,CTRL_PKT_RECV,7,0x50,,,,,,,,,,,,,,,,,,,,,
2025-06-05T06:53:57.573+00:00Z,SEND_PERMIT_ACK_SENT_OK,,,,,,7,0x55,,,,,,,,,,,,,,,,
2025-06-05T06:53:58.205+00:00Z,DATA_LEN_BYTE_RECV,,LEN_0x26,38,,,,,,,,,,,,,,,,,,,,
2025-06-05T06:53:58.234+00:00Z,DATA_FRAME_RECV_FULL,7,DATA_FRAME,38,37,-94,,,,,,,,,,,,,,,,,,
2025-06-05T06:53:58.245+00:00Z,DATA_ACK_SENT_OK,,,,,,7,0xaa,,,,,,,,,,,,,,,,
2025-06-05T06:53:58.246+00:00Z,DECODE_SUCCESS,7,,,37,,,,True,1246,Msg #7,1749106437.0,0.89,-0.326,0.363,0.0,0.0,0.0,-42.0,-61.2,0.0,35.14754867553711,129.02685546875,136.6
2025-06-05T06:53:59.683+00:00Z,CTRL_PKT_RECV,8,0x50,,,,,,,,,,,,,,,,,,,,,
2025-06-05T06:53:59.693+00:00Z,SEND_PERMIT_ACK_SENT_OK,,,,,,8,0x55,,,,,,,,,,,,,,,,
2025-06-05T06:54:00.326+00:00Z,DATA_LEN_BYTE_RECV,,LEN_0x26,38,,,,,,,,,,,,,,,,,,,,
2025-06-05T06:54:00.355+00:00Z,DATA_FRAME_RECV_FULL,8,DATA_FRAME,38,37,-94,,,,,,,,,,,,,,,,,,
2025-06-05T06:54:00.365+00:00Z,DATA_ACK_SENT_OK,,,,,,8,0xaa,,,,,,,,,,,,,,,,
2025-06-05T06:54:00.366+00:00Z,DECODE_SUCCESS,8,,,37,,,,True,1366,Msg #8,1749106439.0,0.89,-0.326,0.362,0.0,0.0,0.0,-42.0,-61.2,0.0,35.14754867553711,129.02687072753906,137.3
2025-06-05T06:54:01.805+00:00Z,CTRL_PKT_RECV,9,0x50,,,,,,,,,,,,,,,,,,,,,
2025-06-05T06:54:01.817+00:00Z,SEND_PERMIT_ACK_SENT_OK,,,,,,9,0x55,,,,,,,,,,,,,,,,
2025-06-05T06:54:02.448+00:00Z,DATA_LEN_BYTE_RECV,,LEN_0x26,38,,,,,,,,,,,,,,,,,,,,
2025-06-05T06:54:02.477+00:00Z,DATA_FRAME_RECV_FULL,9,DATA_FRAME,38,37,-94,,,,,,,,,,,,,,,,,,
2025-06-05T06:54:02.489+00:00Z,DATA_ACK_SENT_OK,,,,,,9,0xaa,,,,,,,,,,,,,,,,
2025-06-05T06:54:02.490+00:00Z,DECODE_SUCCESS,9,,,37,,,,True,1490,Msg #9,1749106441.0,0.889,-0.326,0.363,0.0,0.0,0.0,-42.0,-61.2,0.0,35.14754867553711,129.02687072753906,138.0
2025-06-05T06:54:03.927+00:00Z,CTRL_PKT_RECV,10,0x50,,,,,,,,,,,,,,,,,,,,,
2025-06-05T06:54:03.937+00:00Z,SEND_PERMIT_ACK_SENT_OK,,,,,,10,0x55,,,,,,,,,,,,,,,,
2025-06-05T06:54:04.569+00:00Z,DATA_LEN_BYTE_RECV,,LEN_0x26,38,,,,,,,,,,,,,,,,,,,,
2025-06-05T06:54:04.598+00:00Z,DATA_FRAME_RECV_FULL,10,DATA_FRAME,38,37,-94,,,,,,,,,,,,,,,,,,
2025-06-05T06:54:04.609+00:00Z,DATA_ACK_SENT_OK,,,,,,10,0xaa,,,,,,,,,,,,,,,,
2025-06-05T06:54:04.610+00:00Z,DECODE_SUCCESS,10,,,37,,,,True,1610,Msg #10,1749106443.0,0.89,-0.325,0.363,0.0,0.0,0.0,-42.0,-61.2,0.0,35.14754867553711,129.02687072753906,137.8
2025-06-05T06:54:06.048+00:00Z,CTRL_PKT_RECV,11,0x50,,,,,,,,,,,,,,,,,,,,,
2025-06-05T06:54:06.061+00:00Z,SEND_PERMIT_ACK_SENT_OK,,,,,,11,0x55,,,,,,,,,,,,,,,,
2025-06-05T06:54:06.691+00:00Z,DATA_LEN_BYTE_RECV,,LEN_0x26,38,,,,,,,,,,,,,,,,,,,,
2025-06-05T06:54:06.720+00:00Z,DATA_FRAME_RECV_FULL,11,DATA_FRAME,38,37,-94,,,,,,,,,,,,,,,,,,
2025-06-05T06:54:06.729+00:00Z,DATA_ACK_SENT_OK,,,,,,11,0xaa,,,,,,,,,,,,,,,,
2025-06-05T06:54:06.730+00:00Z,DECODE_SUCCESS,11,,,37,,,,True,1730,Msg #11,1749106445.0,0.89,-0.327,0.362,0.0,0.0,0.0,-42.0,-61.2,0.0,35.147552490234375,129.02687072753906,138.0
2025-06-05T06:54:08.173+00:00Z,CTRL_PKT_RECV,12,0x50,,,,,,,,,,,,,,,,,,,,,
2025-06-05T06:54:08.185+00:00Z,SEND_PERMIT_ACK_SENT_OK,,,,,,12,0x55,,,,,,,,,,,,,,,,
2025-06-05T06:54:08.816+00:00Z,DATA_LEN_BYTE_RECV,,LEN_0x26,38,,,,,,,,,,,,,,,,,,,,
2025-06-05T06:54:08.845+00:00Z,DATA_FRAME_RECV_FULL,12,DATA_FRAME,38,37,-94,,,,,,,,,,,,,,,,,,
2025-06-05T06:54:08.857+00:00Z,DATA_ACK_SENT_OK,,,,,,12,0xaa,,,,,,,,,,,,,,,,
2025-06-05T06:54:08.859+00:00Z,DECODE_SUCCESS,12,,,37,,,,True,1858,Msg #12,1749106447.0,0.889,-0.327,0.362,0.0,0.0,0.0,-42.0,-61.2,0.0,35.14755630493164,129.02687072753906,136.7
2025-06-05T06:54:10.296+00:00Z,CTRL_PKT_RECV,13,0x50,,,,,,,,,,,,,,,,,,,,,
2025-06-05T06:54:10.305+00:00Z,SEND_PERMIT_ACK_SENT_OK,,,,,,13,0x55,,,,,,,,,,,,,,,,
2025-06-05T06:54:10.939+00:00Z,DATA_LEN_BYTE_RECV,,LEN_0x26,38,,,,,,,,,,,,,,,,,,,,
2025-06-05T06:54:10.968+00:00Z,DATA_FRAME_RECV_FULL,13,DATA_FRAME,38,37,-93,,,,,,,,,,,,,,,,,,
2025-06-05T06:54:10.977+00:00Z,DATA_ACK_SENT_OK,,,,,,13,0xaa,,,,,,,,,,,,,,,,
2025-06-05T06:54:10.978+00:00Z,DECODE_SUCCESS,13,,,37,,,,True,1978,Msg #13,1749106449.0,0.89,-0.328,0.362,0.0,0.0,0.0,-42.0,-61.2,0.0,35.147552490234375,129.02687072753906,135.9
2025-06-05T06:54:12.419+00:00Z,CTRL_PKT_RECV,14,0x50,,,,,,,,,,,,,,,,,,,,,
2025-06-05T06:54:12.429+00:00Z,SEND_PERMIT_ACK_SENT_OK,,,,,,14,0x55,,,,,,,,,,,,,,,,
2025-06-05T06:54:13.062+00:00Z,DATA_LEN_BYTE_RECV,,LEN_0x26,38,,,,,,,,,,,,,,,,,,,,
2025-06-05T06:54:13.091+00:00Z,DATA_FRAME_RECV_FULL,14,DATA_FRAME,38,37,-94,,,,,,,,,,,,,,,,,,
2025-06-05T06:54:13.101+00:00Z,DATA_ACK_SENT_OK,,,,,,14,0xaa,,,,,,,,,,,,,,,,
2025-06-05T06:54:13.102+00:00Z,DECODE_SUCCESS,14,,,37,,,,True,1102,Msg #14,1749106452.0,0.89,-0.329,0.362,0.0,0.0,0.0,-42.0,-61.2,0.0,35.147552490234375,129.02685546875,134.8
2025-06-05T06:54:14.546+00:00Z,CTRL_PKT_RECV,15,0x50,,,,,,,,,,,,,,,,,,,,,
2025-06-05T06:54:14.557+00:00Z,SEND_PERMIT_ACK_SENT_OK,,,,,,15,0x55,,,,,,,,,,,,,,,,
2025-06-05T06:54:15.189+00:00Z,DATA_LEN_BYTE_RECV,,LEN_0x26,38,,,,,,,,,,,,,,,,,,,,
2025-06-05T06:54:15.218+00:00Z,DATA_FRAME_RECV_FULL,15,DATA_FRAME,38,37,-94,,,,,,,,,,,,,,,,,,
2025-06-05T06:54:15.229+00:00Z,DATA_ACK_SENT_OK,,,,,,15,0xaa,,,,,,,,,,,,,,,,
2025-06-05T06:54:15.230+00:00Z,DECODE_SUCCESS,15,,,37,,,,True,1230,Msg #15,1749106454.0,0.89,-0.326,0.361,0.0,0.0,0.0,-42.0,-61.2,0.0,35.14754867553711,129.02685546875,134.7
2025-06-05T06:54:16.685+00:00Z,CTRL_PKT_RECV,16,0x50,,,,,,,,,,,,,,,,,,,,,
2025-06-05T06:54:16.697+00:00Z,SEND_PERMIT_ACK_SENT_OK,,,,,,16,0x55,,,,,,,,,,,,,,,,
2025-06-05T06:54:17.328+00:00Z,DATA_LEN_BYTE_RECV,,LEN_0x26,38,,,,,,,,,,,,,,,,,,,,
2025-06-05T06:54:17.357+00:00Z,DATA_FRAME_RECV_FULL,16,DATA_FRAME,38,37,-94,,,,,,,,,,,,,,,,,,
2025-06-05T06:54:17.369+00:00Z,DATA_ACK_SENT_OK,,,,,,16,0xaa,,,,,,,,,,,,,,,,
2025-06-05T06:54:17.370+00:00Z,DECODE_SUCCESS,16,,,37,,,,True,1370,Msg #16,1749106456.0,0.891,-0.327,0.36,0.0,0.0,0.0,-42.0,-61.2,0.0,35.14754867553711,129.02685546875,134.0
2025-06-05T06:54:18.822+00:00Z,CTRL_PKT_RECV,17,0x50,,,,,,,,,,,,,,,,,,,,,
2025-06-05T06:54:18.833+00:00Z,SEND_PERMIT_ACK_SENT_OK,,,,,,17,0x55,,,,,,,,,,,,,,,,
2025-06-05T06:54:19.465+00:00Z,DATA_LEN_BYTE_RECV,,LEN_0x26,38,,,,,,,,,,,,,,,,,,,,
2025-06-05T06:54:19.494+00:00Z,DATA_FRAME_RECV_FULL,17,DATA_FRAME,38,37,-94,,,,,,,,,,,,,,,,,,
2025-06-05T06:54:19.505+00:00Z,DATA_ACK_SENT_OK,,,,,,17,0xaa,,,,,,,,,,,,,,,,
2025-06-05T06:54:19.506+00:00Z,DECODE_SUCCESS,17,,,37,,,,True,1506,Msg #17,1749106458.0,0.891,-0.325,0.363,0.0,0.0,0.0,-42.0,-61.2,0.0,35.147544860839844,129.02684020996094,132.7
2025-06-05T06:54:20.957+00:00Z,CTRL_PKT_RECV,18,0x50,,,,,,,,,,,,,,,,,,,,,
2025-06-05T06:54:20.969+00:00Z,SEND_PERMIT_ACK_SENT_OK,,,,,,18,0x55,,,,,,,,,,,,,,,,
2025-06-05T06:54:21.600+00:00Z,DATA_LEN_BYTE_RECV,,LEN_0x26,38,,,,,,,,,,,,,,,,,,,,
2025-06-05T06:54:21.629+00:00Z,DATA_FRAME_RECV_FULL,18,DATA_FRAME,38,37,-94,,,,,,,,,,,,,,,,,,
2025-06-05T06:54:21.641+00:00Z,DATA_ACK_SENT_OK,,,,,,18,0xaa,,,,,,,,,,,,,,,,
2025-06-05T06:54:21.642+00:00Z,DECODE_SUCCESS,18,,,37,,,,True,1642,Msg #18,1749106460.0,0.889,-0.324,0.361,0.0,0.0,0.0,-42.0,-61.2,0.0,35.147544860839844,129.02684020996094,132.3
2025-06-05T06:54:23.098+00:00Z,CTRL_PKT_RECV,19,0x50,,,,,,,,,,,,,,,,,,,,,
2025-06-05T06:54:23.109+00:00Z,SEND_PERMIT_ACK_SENT_OK,,,,,,19,0x55,,,,,,,,,,,,,,,,
2025-06-05T06:54:23.740+00:00Z,DATA_LEN_BYTE_RECV,,LEN_0x26,38,,,,,,,,,,,,,,,,,,,,
2025-06-05T06:54:23.769+00:00Z,DATA_FRAME_RECV_FULL,19,DATA_FRAME,38,37,-94,,,,,,,,,,,,,,,,,,
2025-06-05T06:54:23.781+00:00Z,DATA_ACK_SENT_OK,,,,,,19,0xaa,,,,,,,,,,,,,,,,
2025-06-05T06:54:23.782+00:00Z,DECODE_SUCCESS,19,,,37,,,,True,1782,Msg #19,1749106462.0,0.89,-0.325,0.361,0.0,0.0,0.0,-42.0,-61.2,0.0,35.14754867553711,129.02682495117188,130.1
2025-06-05T06:54:25.235+00:00Z,CTRL_PKT_RECV,20,0x50,,,,,,,,,,,,,,,,,,,,,
2025-06-05T06:54:25.245+00:00Z,SEND_PERMIT_ACK_SENT_OK,,,,,,20,0x55,,,,,,,,,,,,,,,,
2025-06-05T06:54:25.878+00:00Z,DATA_LEN_BYTE_RECV,,LEN_0x26,38,,,,,,,,,,,,,,,,,,,,
2025-06-05T06:54:25.907+00:00Z,DATA_FRAME_RECV_FULL,20,DATA_FRAME,38,37,-94,,,,,,,,,,,,,,,,,,
2025-06-05T06:54:25.917+00:00Z,DATA_ACK_SENT_OK,,,,,,20,0xaa,,,,,,,,,,,,,,,,
2025-06-05T06:54:25.918+00:00Z,DECODE_SUCCESS,20,,,37,,,,True,1918,Msg #20,1749106464.0,0.889,-0.326,0.363,0.0,0.0,0.0,-42.0,-61.2,0.0,35.147544860839844,129.0268096923828,129.0
2025-06-05T06:54:27.374+00:00Z,CTRL_PKT_RECV,21,0x50,,,,,,,,,,,,,,,,,,,,,
2025-06-05T06:54:27.385+00:00Z,SEND_PERMIT_ACK_SENT_OK,,,,,,21,0x55,,,,,,,,,,,,,,,,
2025-06-05T06:54:28.017+00:00Z,DATA_LEN_BYTE_RECV,,LEN_0x26,38,,,,,,,,,,,,,,,,,,,,
2025-06-05T06:54:28.046+00:00Z,DATA_FRAME_RECV_FULL,21,DATA_FRAME,38,37,-93,,,,,,,,,,,,,,,,,,
2025-06-05T06:54:28.057+00:00Z,DATA_ACK_SENT_OK,,,,,,21,0xaa,,,,,,,,,,,,,,,,
2025-06-05T06:54:28.058+00:00Z,DECODE_SUCCESS,21,,,37,,,,True,1058,Msg #21,1749106467.0,0.892,-0.327,0.363,0.0,0.0,0.0,-42.0,-61.2,0.0,35.147544860839844,129.0268096923828,128.7
2025-06-05T06:54:29.511+00:00Z,CTRL_PKT_RECV,22,0x50,,,,,,,,,,,,,,,,,,,,,
2025-06-05T06:54:29.521+00:00Z,SEND_PERMIT_ACK_SENT_OK,,,,,,22,0x55,,,,,,,,,,,,,,,,
2025-06-05T06:54:30.154+00:00Z,DATA_LEN_BYTE_RECV,,LEN_0x26,38,,,,,,,,,,,,,,,,,,,,
2025-06-05T06:54:30.183+00:00Z,DATA_FRAME_RECV_FULL,22,DATA_FRAME,38,37,-93,,,,,,,,,,,,,,,,,,
2025-06-05T06:54:30.193+00:00Z,DATA_ACK_SENT_OK,,,,,,22,0xaa,,,,,,,,,,,,,,,,
2025-06-05T06:54:30.194+00:00Z,DECODE_SUCCESS,22,,,37,,,,True,1194,Msg #22,1749106469.0,0.89,-0.326,0.363,0.0,0.0,0.0,-42.0,-61.2,0.0,35.147544860839844,129.0268096923828,128.9
2025-06-05T06:54:31.655+00:00Z,CTRL_PKT_RECV,23,0x50,,,,,,,,,,,,,,,,,,,,,
2025-06-05T06:54:31.665+00:00Z,SEND_PERMIT_ACK_SENT_OK,,,,,,23,0x55,,,,,,,,,,,,,,,,
2025-06-05T06:54:32.297+00:00Z,DATA_LEN_BYTE_RECV,,LEN_0x26,38,,,,,,,,,,,,,,,,,,,,
2025-06-05T06:54:32.326+00:00Z,DATA_FRAME_RECV_FULL,23,DATA_FRAME,38,37,-94,,,,,,,,,,,,,,,,,,
2025-06-05T06:54:32.337+00:00Z,DATA_ACK_SENT_OK,,,,,,23,0xaa,,,,,,,,,,,,,,,,
2025-06-05T06:54:32.338+00:00Z,DECODE_SUCCESS,23,,,37,,,,True,1338,Msg #23,1749106471.0,0.89,-0.327,0.363,0.0,0.0,0.0,-42.0,-61.2,0.0,35.147544860839844,129.02679443359375,128.3
2025-06-05T06:54:33.795+00:00Z,CTRL_PKT_RECV,24,0x50,,,,,,,,,,,,,,,,,,,,,
2025-06-05T06:54:33.805+00:00Z,SEND_PERMIT_ACK_SENT_OK,,,,,,24,0x55,,,,,,,,,,,,,,,,
2025-06-05T06:54:34.437+00:00Z,DATA_LEN_BYTE_RECV,,LEN_0x26,38,,,,,,,,,,,,,,,,,,,,
2025-06-05T06:54:34.466+00:00Z,DATA_FRAME_RECV_FULL,24,DATA_FRAME,38,37,-94,,,,,,,,,,,,,,,,,,
2025-06-05T06:54:34.477+00:00Z,DATA_ACK_SENT_OK,,,,,,24,0xaa,,,,,,,,,,,,,,,,
2025-06-05T06:54:34.478+00:00Z,DECODE_SUCCESS,24,,,37,,,,True,1478,Msg #24,1749106473.0,0.89,-0.326,0.363,0.0,0.0,0.0,-42.0,-61.2,0.0,35.147544860839844,129.02679443359375,127.9
2025-06-05T06:54:35.933+00:00Z,CTRL_PKT_RECV,25,0x50,,,,,,,,,,,,,,,,,,,,,
2025-06-05T06:54:35.945+00:00Z,SEND_PERMIT_ACK_SENT_OK,,,,,,25,0x55,,,,,,,,,,,,,,,,
2025-06-05T06:54:36.576+00:00Z,DATA_LEN_BYTE_RECV,,LEN_0x26,38,,,,,,,,,,,,,,,,,,,,
2025-06-05T06:54:36.605+00:00Z,DATA_FRAME_RECV_FULL,25,DATA_FRAME,38,37,-94,,,,,,,,,,,,,,,,,,
2025-06-05T06:54:36.617+00:00Z,DATA_ACK_SENT_OK,,,,,,25,0xaa,,,,,,,,,,,,,,,,
2025-06-05T06:54:36.618+00:00Z,DECODE_SUCCESS,25,,,37,,,,True,1618,Msg #25,1749106475.0,0.888,-0.326,0.362,0.0,0.0,0.0,-42.0,-61.2,0.0,35.147544860839844,129.0267791748047,127.0
2025-06-05T06:54:38.073+00:00Z,CTRL_PKT_RECV,26,0x50,,,,,,,,,,,,,,,,,,,,,
2025-06-05T06:54:38.085+00:00Z,SEND_PERMIT_ACK_SENT_OK,,,,,,26,0x55,,,,,,,,,,,,,,,,
2025-06-05T06:54:38.715+00:00Z,DATA_LEN_BYTE_RECV,,LEN_0x26,38,,,,,,,,,,,,,,,,,,,,
2025-06-05T06:54:38.744+00:00Z,DATA_FRAME_RECV_FULL,26,DATA_FRAME,38,37,-94,,,,,,,,,,,,,,,,,,
2025-06-05T06:54:38.757+00:00Z,DATA_ACK_SENT_OK,,,,,,26,0xaa,,,,,,,,,,,,,,,,
2025-06-05T06:54:38.758+00:00Z,DECODE_SUCCESS,26,,,37,,,,True,1758,Msg #26,1749106477.0,0.89,-0.326,0.362,0.0,0.0,0.0,-42.0,-61.2,0.0,35.147544860839844,129.0267791748047,125.2
2025-06-05T06:54:40.211+00:00Z,CTRL_PKT_RECV,27,0x50,,,,,,,,,,,,,,,,,,,,,
2025-06-05T06:54:40.221+00:00Z,SEND_PERMIT_ACK_SENT_OK,,,,,,27,0x55,,,,,,,,,,,,,,,,
2025-06-05T06:54:40.853+00:00Z,DATA_LEN_BYTE_RECV,,LEN_0x26,38,,,,,,,,,,,,,,,,,,,,
2025-06-05T06:54:40.882+00:00Z,DATA_FRAME_RECV_FULL,27,DATA_FRAME,38,37,-94,,,,,,,,,,,,,,,,,,
2025-06-05T06:54:40.893+00:00Z,DATA_ACK_SENT_OK,,,,,,27,0xaa,,,,,,,,,,,,,,,,
2025-06-05T06:54:40.894+00:00Z,DECODE_SUCCESS,27,,,37,,,,True,1894,Msg #27,1749106479.0,0.891,-0.327,0.363,0.0,0.0,0.0,-42.0,-61.2,0.0,35.14754867553711,129.02676391601562,123.8
2025-06-05T06:54:42.347+00:00Z,CTRL_PKT_RECV,28,0x50,,,,,,,,,,,,,,,,,,,,,
2025-06-05T06:54:42.357+00:00Z,SEND_PERMIT_ACK_SENT_OK,,,,,,28,0x55,,,,,,,,,,,,,,,,
2025-06-05T06:54:42.990+00:00Z,DATA_LEN_BYTE_RECV,,LEN_0x26,38,,,,,,,,,,,,,,,,,,,,
2025-06-05T06:54:43.019+00:00Z,DATA_FRAME_RECV_FULL,28,DATA_FRAME,38,37,-94,,,,,,,,,,,,,,,,,,
2025-06-05T06:54:43.029+00:00Z,DATA_ACK_SENT_OK,,,,,,28,0xaa,,,,,,,,,,,,,,,,
2025-06-05T06:54:43.030+00:00Z,DECODE_SUCCESS,28,,,37,,,,True,1030,Msg #28,1749106482.0,0.892,-0.327,0.362,0.0,0.0,0.0,-42.0,-61.2,0.0,35.14754867553711,129.02676391601562,123.1
2025-06-05T06:54:44.488+00:00Z,CTRL_PKT_RECV,29,0x50,,,,,,,,,,,,,,,,,,,,,
2025-06-05T06:54:44.498+00:00Z,SEND_PERMIT_ACK_SENT_OK,,,,,,29,0x55,,,,,,,,,,,,,,,,
2025-06-05T06:54:45.131+00:00Z,DATA_LEN_BYTE_RECV,,LEN_0x26,38,,,,,,,,,,,,,,,,,,,,
2025-06-05T06:54:45.160+00:00Z,DATA_FRAME_RECV_FULL,29,DATA_FRAME,38,37,-94,,,,,,,,,,,,,,,,,,
2025-06-05T06:54:45.170+00:00Z,DATA_ACK_SENT_OK,,,,,,29,0xaa,,,,,,,,,,,,,,,,
2025-06-05T06:54:45.171+00:00Z,DECODE_SUCCESS,29,,,37,,,,True,1170,Msg #29,1749106484.0,0.892,-0.326,0.359,0.0,0.0,0.0,-42.0,-61.2,0.0,35.14754867553711,129.02676391601562,123.0
2025-06-05T06:54:46.631+00:00Z,CTRL_PKT_RECV,30,0x50,,,,,,,,,,,,,,,,,,,,,
2025-06-05T06:54:46.641+00:00Z,SEND_PERMIT_ACK_SENT_OK,,,,,,30,0x55,,,,,,,,,,,,,,,,
2025-06-05T06:54:47.274+00:00Z,DATA_LEN_BYTE_RECV,,LEN_0x26,38,,,,,,,,,,,,,,,,,,,,
2025-06-05T06:54:47.303+00:00Z,DATA_FRAME_RECV_FULL,30,DATA_FRAME,38,37,-94,,,,,,,,,,,,,,,,,,
2025-06-05T06:54:47.313+00:00Z,DATA_ACK_SENT_OK,,,,,,30,0xaa,,,,,,,,,,,,,,,,
2025-06-05T06:54:47.314+00:00Z,DECODE_SUCCESS,30,,,37,,,,True,1314,Msg #30,1749106486.0,0.888,-0.325,0.36,0.0,0.0,0.0,-42.0,-61.2,0.0,35.147544860839844,129.02676391601562,123.6
2025-06-05T06:54:48.766+00:00Z,CTRL_PKT_RECV,31,0x50,,,,,,,,,,,,,,,,,,,,,
2025-06-05T06:54:48.777+00:00Z,SEND_PERMIT_ACK_SENT_OK,,,,,,31,0x55,,,,,,,,,,,,,,,,
2025-06-05T06:54:49.409+00:00Z,DATA_LEN_BYTE_RECV,,LEN_0x26,38,,,,,,,,,,,,,,,,,,,,
2025-06-05T06:54:49.438+00:00Z,DATA_FRAME_RECV_FULL,31,DATA_FRAME,38,37,-94,,,,,,,,,,,,,,,,,,
2025-06-05T06:54:49.449+00:00Z,DATA_ACK_SENT_OK,,,,,,31,0xaa,,,,,,,,,,,,,,,,
2025-06-05T06:54:49.450+00:00Z,DECODE_SUCCESS,31,,,37,,,,True,1450,Msg #31,1749106488.0,0.892,-0.326,0.359,0.0,0.0,0.0,-42.0,-61.2,0.0,35.14754104614258,129.0267791748047,124.1
2025-06-05T06:54:50.905+00:00Z,CTRL_PKT_RECV,32,0x50,,,,,,,,,,,,,,,,,,,,,
2025-06-05T06:54:50.917+00:00Z,SEND_PERMIT_ACK_SENT_OK,,,,,,32,0x55,,,,,,,,,,,,,,,,
2025-06-05T06:54:51.547+00:00Z,DATA_LEN_BYTE_RECV,,LEN_0x26,38,,,,,,,,,,,,,,,,,,,,
2025-06-05T06:54:51.576+00:00Z,DATA_FRAME_RECV_FULL,32,DATA_FRAME,38,37,-95,,,,,,,,,,,,,,,,,,
2025-06-05T06:54:51.585+00:00Z,DATA_ACK_SENT_OK,,,,,,32,0xaa,,,,,,,,,,,,,,,,
2025-06-05T06:54:51.586+00:00Z,DECODE_SUCCESS,32,,,37,,,,True,1586,Msg #32,1749106490.0,0.891,-0.327,0.36,0.0,0.0,0.0,-42.0,-61.2,0.0,35.14754104614258,129.0267791748047,124.1
2025-06-05T06:54:53.038+00:00Z,CTRL_PKT_RECV,33,0x50,,,,,,,,,,,,,,,,,,,,,
2025-06-05T06:54:53.049+00:00Z,SEND_PERMIT_ACK_SENT_OK,,,,,,33,0x55,,,,,,,,,,,,,,,,
2025-06-05T06:54:53.680+00:00Z,DATA_LEN_BYTE_RECV,,LEN_0x26,38,,,,,,,,,,,,,,,,,,,,
2025-06-05T06:54:53.709+00:00Z,DATA_FRAME_RECV_FULL,33,DATA_FRAME,38,37,-94,,,,,,,,,,,,,,,,,,
2025-06-05T06:54:53.721+00:00Z,DATA_ACK_SENT_OK,,,,,,33,0xaa,,,,,,,,,,,,,,,,
2025-06-05T06:54:53.722+00:00Z,DECODE_SUCCESS,33,,,37,,,,True,1722,Msg #33,1749106492.0,0.891,-0.327,0.361,0.0,0.0,0.0,-42.0,-61.2,0.0,35.147544860839844,129.02676391601562,122.4
2025-06-05T06:54:55.154+00:00Z,CTRL_PKT_RECV,34,0x50,,,,,,,,,,,,,,,,,,,,,
2025-06-05T06:54:55.165+00:00Z,SEND_PERMIT_ACK_SENT_OK,,,,,,34,0x55,,,,,,,,,,,,,,,,
2025-06-05T06:58:05.407+00:00Z,CTRL_PKT_RECV,55,0x50,,,,,,,,,,,,,,,,,,,,,
2025-06-05T06:58:05.417+00:00Z,SEND_PERMIT_ACK_SENT_OK,,,,,,55,0x55,,,,,,,,,,,,,,,,
2025-06-05T06:58:06.050+00:00Z,DATA_LEN_BYTE_RECV,,LEN_0x26,38,,,,,,,,,,,,,,,,,,,,
2025-06-05T06:58:06.079+00:00Z,DATA_FRAME_RECV_FULL,55,DATA_FRAME,38,37,-93,,,,,,,,,,,,,,,,,,
2025-06-05T06:58:06.089+00:00Z,DATA_ACK_SENT_OK,,,,,,55,0xaa,,,,,,,,,,,,,,,,
2025-06-05T06:58:06.090+00:00Z,DECODE_SUCCESS,55,,,37,,,,True,1090,Msg #34,1749106685.0,0.889,-0.325,0.362,0.0,0.0,0.0,-42.0,-61.2,0.0,35.14750289916992,129.0265655517578,105.9
2025-06-05T06:58:14.919+00:00Z,CTRL_PKT_RECV,56,0x50,,,,,,,,,,,,,,,,,,,,,
2025-06-05T06:58:14.929+00:00Z,SEND_PERMIT_ACK_SENT_OK,,,,,,56,0x55,,,,,,,,,,,,,,,,
2025-06-05T06:58:23.964+00:00Z,CTRL_PKT_RECV,57,0x50,,,,,,,,,,,,,,,,,,,,,
2025-06-05T06:58:23.973+00:00Z,SEND_PERMIT_ACK_SENT_OK,,,,,,57,0x55,,,,,,,,,,,,,,,,
2025-06-05T06:58:42.061+00:00Z,CTRL_PKT_RECV,59,0x50,,,,,,,,,,,,,,,,,,,,,
2025-06-05T06:58:42.073+00:00Z,SEND_PERMIT_ACK_SENT_OK,,,,,,59,0x55,,,,,,,,,,,,,,,,
2025-06-05T06:58:51.118+00:00Z,CTRL_PKT_RECV,60,0x50,,,,,,,,,,,,,,,,,,,,,
2025-06-05T06:58:51.129+00:00Z,SEND_PERMIT_ACK_SENT_OK,,,,,,60,0x55,,,,,,,,,,,,,,,,
2025-06-05T06:59:09.235+00:00Z,CTRL_PKT_RECV,62,0x50,,,,,,,,,,,,,,,,,,,,,
2025-06-05T06:59:09.245+00:00Z,SEND_PERMIT_ACK_SENT_OK,,,,,,62,0x55,,,,,,,,,,,,,,,,
2025-06-05T06:59:09.878+00:00Z,DATA_LEN_BYTE_RECV,,LEN_0x26,38,,,,,,,,,,,,,,,,,,,,
2025-06-05T06:59:09.907+00:00Z,DATA_FRAME_RECV_FULL,62,DATA_FRAME,38,37,-94,,,,,,,,,,,,,,,,,,
2025-06-05T06:59:09.917+00:00Z,DATA_ACK_SENT_OK,,,,,,62,0xaa,,,,,,,,,,,,,,,,
2025-06-05T06:59:09.918+00:00Z,DECODE_SUCCESS,62,,,37,,,,True,918,Msg #35,1749106749.0,0.891,-0.326,0.359,0.0,0.0,0.0,-42.0,-61.2,0.0,35.14749526977539,129.02655029296875,101.3
2025-06-05T06:59:11.376+00:00Z,CTRL_PKT_RECV,63,0x50,,,,,,,,,,,,,,,,,,,,,
2025-06-05T06:59:11.386+00:00Z,SEND_PERMIT_ACK_SENT_OK,,,,,,63,0x55,,,,,,,,,,,,,,,,
2025-06-05T06:59:12.018+00:00Z,DATA_LEN_BYTE_RECV,,LEN_0x26,38,,,,,,,,,,,,,,,,,,,,
2025-06-05T06:59:12.047+00:00Z,DATA_FRAME_RECV_FULL,63,DATA_FRAME,38,37,-94,,,,,,,,,,,,,,,,,,
2025-06-05T06:59:12.057+00:00Z,DATA_ACK_SENT_OK,,,,,,63,0xaa,,,,,,,,,,,,,,,,
2025-06-05T06:59:12.058+00:00Z,DECODE_SUCCESS,63,,,37,,,,True,1058,Msg #36,1749106751.0,0.89,-0.325,0.359,0.0,0.0,0.0,-42.0,-61.2,0.0,35.14749526977539,129.02655029296875,103.2
2025-06-05T06:59:13.513+00:00Z,CTRL_PKT_RECV,64,0x50,,,,,,,,,,,,,,,,,,,,,
2025-06-05T06:59:13.525+00:00Z,SEND_PERMIT_ACK_SENT_OK,,,,,,64,0x55,,,,,,,,,,,,,,,,
2025-06-05T06:59:14.155+00:00Z,DATA_LEN_BYTE_RECV,,LEN_0x26,38,,,,,,,,,,,,,,,,,,,,
2025-06-05T06:59:14.185+00:00Z,DATA_FRAME_RECV_FULL,64,DATA_FRAME,38,37,-94,,,,,,,,,,,,,,,,,,
2025-06-05T06:59:14.197+00:00Z,DATA_ACK_SENT_OK,,,,,,64,0xaa,,,,,,,,,,,,,,,,
2025-06-05T06:59:14.198+00:00Z,DECODE_SUCCESS,64,,,37,,,,True,1198,Msg #37,1749106753.0,0.891,-0.325,0.359,0.0,0.0,0.0,-42.0,-61.2,0.0,35.147491455078125,129.0265655517578,103.9
2025-06-05T06:59:15.662+00:00Z,CTRL_PKT_RECV,65,0x50,,,,,,,,,,,,,,,,,,,,,
2025-06-05T06:59:15.673+00:00Z,SEND_PERMIT_ACK_SENT_OK,,,,,,65,0x55,,,,,,,,,,,,,,,,
2025-06-05T06:59:16.304+00:00Z,DATA_LEN_BYTE_RECV,,LEN_0x26,38,,,,,,,,,,,,,,,,,,,,
2025-06-05T06:59:16.333+00:00Z,DATA_FRAME_RECV_FULL,65,DATA_FRAME,38,37,-94,,,,,,,,,,,,,,,,,,
2025-06-05T06:59:16.345+00:00Z,DATA_ACK_SENT_OK,,,,,,65,0xaa,,,,,,,,,,,,,,,,
2025-06-05T06:59:16.346+00:00Z,DECODE_SUCCESS,65,,,37,,,,True,1346,Msg #38,1749106755.0,0.891,-0.326,0.36,0.0,0.0,0.0,-42.0,-61.2,0.0,35.14749526977539,129.02658081054688,104.5
2025-06-05T06:59:17.802+00:00Z,CTRL_PKT_RECV,66,0x50,,,,,,,,,,,,,,,,,,,,,
2025-06-05T06:59:17.813+00:00Z,SEND_PERMIT_ACK_SENT_OK,,,,,,66,0x55,,,,,,,,,,,,,,,,
2025-06-05T06:59:18.445+00:00Z,DATA_LEN_BYTE_RECV,,LEN_0x26,38,,,,,,,,,,,,,,,,,,,,
2025-06-05T06:59:18.474+00:00Z,DATA_FRAME_RECV_FULL,66,DATA_FRAME,38,37,-94,,,,,,,,,,,,,,,,,,
2025-06-05T06:59:18.485+00:00Z,DATA_ACK_SENT_OK,,,,,,66,0xaa,,,,,,,,,,,,,,,,
2025-06-05T06:59:18.486+00:00Z,DECODE_SUCCESS,66,,,37,,,,True,1486,Msg #39,1749106757.0,0.889,-0.326,0.361,0.0,0.0,0.0,-42.0,-61.2,0.0,35.147491455078125,129.02658081054688,104.3
2025-06-05T06:59:19.939+00:00Z,CTRL_PKT_RECV,67,0x50,,,,,,,,,,,,,,,,,,,,,
2025-06-05T06:59:19.950+00:00Z,SEND_PERMIT_ACK_SENT_OK,,,,,,67,0x55,,,,,,,,,,,,,,,,
2025-06-05T06:59:20.581+00:00Z,DATA_LEN_BYTE_RECV,,LEN_0x26,38,,,,,,,,,,,,,,,,,,,,
2025-06-05T06:59:20.611+00:00Z,DATA_FRAME_RECV_FULL,67,DATA_FRAME,38,37,-93,,,,,,,,,,,,,,,,,,
2025-06-05T06:59:20.622+00:00Z,DATA_ACK_SENT_OK,,,,,,67,0xaa,,,,,,,,,,,,,,,,
2025-06-05T06:59:20.623+00:00Z,DECODE_SUCCESS,67,,,37,,,,True,1622,Msg #40,1749106759.0,0.887,-0.325,0.361,0.0,0.0,0.0,-42.0,-61.2,0.0,35.147491455078125,129.02658081054688,104.5
2025-06-05T06:59:22.085+00:00Z,CTRL_PKT_RECV,68,0x50,,,,,,,,,,,,,,,,,,,,,
2025-06-05T06:59:22.097+00:00Z,SEND_PERMIT_ACK_SENT_OK,,,,,,68,0x55,,,,,,,,,,,,,,,,
2025-06-05T06:59:22.728+00:00Z,DATA_LEN_BYTE_RECV,,LEN_0x26,38,,,,,,,,,,,,,,,,,,,,
2025-06-05T06:59:22.757+00:00Z,DATA_FRAME_RECV_FULL,68,DATA_FRAME,38,37,-93,,,,,,,,,,,,,,,,,,
2025-06-05T06:59:22.769+00:00Z,DATA_ACK_SENT_OK,,,,,,68,0xaa,,,,,,,,,,,,,,,,
2025-06-05T06:59:22.770+00:00Z,DECODE_SUCCESS,68,,,37,,,,True,1770,Msg #41,1749106761.0,0.89,-0.326,0.362,0.0,0.0,0.0,-42.0,-61.2,0.0,35.14748764038086,129.02659606933594,104.6
2025-06-05T06:59:24.225+00:00Z,CTRL_PKT_RECV,69,0x50,,,,,,,,,,,,,,,,,,,,,
2025-06-05T06:59:24.237+00:00Z,SEND_PERMIT_ACK_SENT_OK,,,,,,69,0x55,,,,,,,,,,,,,,,,
2025-06-05T06:59:24.867+00:00Z,DATA_LEN_BYTE_RECV,,LEN_0x26,38,,,,,,,,,,,,,,,,,,,,
2025-06-05T06:59:24.896+00:00Z,DATA_FRAME_RECV_FULL,69,DATA_FRAME,38,37,-94,,,,,,,,,,,,,,,,,,
2025-06-05T06:59:24.905+00:00Z,DATA_ACK_SENT_OK,,,,,,69,0xaa,,,,,,,,,,,,,,,,
2025-06-05T06:59:24.906+00:00Z,DECODE_SUCCESS,69,,,37,,,,True,1906,Msg #42,1749106763.0,0.89,-0.326,0.363,0.0,0.0,0.0,-42.0,-61.2,0.0,35.147483825683594,129.026611328125,105.7
2025-06-05T06:59:26.357+00:00Z,CTRL_PKT_RECV,70,0x50,,,,,,,,,,,,,,,,,,,,,
2025-06-05T06:59:26.369+00:00Z,SEND_PERMIT_ACK_SENT_OK,,,,,,70,0x55,,,,,,,,,,,,,,,,
2025-06-05T06:59:27.000+00:00Z,DATA_LEN_BYTE_RECV,,LEN_0x26,38,,,,,,,,,,,,,,,,,,,,
2025-06-05T06:59:27.029+00:00Z,DATA_FRAME_RECV_FULL,70,DATA_FRAME,38,37,-93,,,,,,,,,,,,,,,,,,
2025-06-05T06:59:27.041+00:00Z,DATA_ACK_SENT_OK,,,,,,70,0xaa,,,,,,,,,,,,,,,,
2025-06-05T06:59:27.042+00:00Z,DECODE_SUCCESS,70,,,37,,,,True,1042,Msg #43,1749106766.0,0.89,-0.326,0.36,0.0,0.0,0.0,-42.0,-61.2,0.0,35.14748001098633,129.026611328125,107.5
2025-06-05T06:59:28.493+00:00Z,CTRL_PKT_RECV,71,0x50,,,,,,,,,,,,,,,,,,,,,
2025-06-05T06:59:28.505+00:00Z,SEND_PERMIT_ACK_SENT_OK,,,,,,71,0x55,,,,,,,,,,,,,,,,
2025-06-05T06:59:29.135+00:00Z,DATA_LEN_BYTE_RECV,,LEN_0x26,38,,,,,,,,,,,,,,,,,,,,
2025-06-05T06:59:29.164+00:00Z,DATA_FRAME_RECV_FULL,71,DATA_FRAME,38,37,-94,,,,,,,,,,,,,,,,,,
2025-06-05T06:59:29.173+00:00Z,DATA_ACK_SENT_OK,,,,,,71,0xaa,,,,,,,,,,,,,,,,
2025-06-05T06:59:29.174+00:00Z,DECODE_SUCCESS,71,,,37,,,,True,1174,Msg #44,1749106768.0,0.889,-0.325,0.364,0.0,0.0,0.0,-42.0,-61.2,0.0,35.14748001098633,129.026611328125,107.2
2025-06-05T06:59:30.632+00:00Z,CTRL_PKT_RECV,72,0x50,,,,,,,,,,,,,,,,,,,,,
2025-06-05T06:59:30.641+00:00Z,SEND_PERMIT_ACK_SENT_OK,,,,,,72,0x55,,,,,,,,,,,,,,,,
2025-06-05T06:59:31.274+00:00Z,DATA_LEN_BYTE_RECV,,LEN_0x26,38,,,,,,,,,,,,,,,,,,,,
2025-06-05T06:59:31.303+00:00Z,DATA_FRAME_RECV_FULL,72,DATA_FRAME,38,37,-93,,,,,,,,,,,,,,,,,,
2025-06-05T06:59:31.313+00:00Z,DATA_ACK_SENT_OK,,,,,,72,0xaa,,,,,,,,,,,,,,,,
2025-06-05T06:59:31.314+00:00Z,DECODE_SUCCESS,72,,,37,,,,True,1314,Msg #45,1749106770.0,0.891,-0.327,0.363,0.0,0.0,0.0,-42.0,-61.2,0.0,35.14748001098633,129.026611328125,106.4
2025-06-05T06:59:32.764+00:00Z,CTRL_PKT_RECV,73,0x50,,,,,,,,,,,,,,,,,,,,,
2025-06-05T06:59:32.773+00:00Z,SEND_PERMIT_ACK_SENT_OK,,,,,,73,0x55,,,,,,,,,,,,,,,,
2025-06-05T06:59:33.407+00:00Z,DATA_LEN_BYTE_RECV,,LEN_0x26,38,,,,,,,,,,,,,,,,,,,,
2025-06-05T06:59:33.436+00:00Z,DATA_FRAME_RECV_FULL,73,DATA_FRAME,38,37,-93,,,,,,,,,,,,,,,,,,
2025-06-05T06:59:33.445+00:00Z,DATA_ACK_SENT_OK,,,,,,73,0xaa,,,,,,,,,,,,,,,,
2025-06-05T06:59:33.446+00:00Z,DECODE_SUCCESS,73,,,37,,,,True,1446,Msg #46,1749106772.0,0.891,-0.327,0.362,0.0,0.0,0.0,-42.0,-61.2,0.0,35.14748001098633,129.02659606933594,106.0
2025-06-05T06:59:34.903+00:00Z,CTRL_PKT_RECV,74,0x50,,,,,,,,,,,,,,,,,,,,,
2025-06-05T06:59:34.913+00:00Z,SEND_PERMIT_ACK_SENT_OK,,,,,,74,0x55,,,,,,,,,,,,,,,,
2025-06-05T06:59:35.546+00:00Z,DATA_LEN_BYTE_RECV,,LEN_0x26,38,,,,,,,,,,,,,,,,,,,,
2025-06-05T06:59:35.575+00:00Z,DATA_FRAME_RECV_FULL,74,DATA_FRAME,38,37,-93,,,,,,,,,,,,,,,,,,
2025-06-05T06:59:35.585+00:00Z,DATA_ACK_SENT_OK,,,,,,74,0xaa,,,,,,,,,,,,,,,,
2025-06-05T06:59:35.586+00:00Z,DECODE_SUCCESS,74,,,37,,,,True,1586,Msg #47,1749106774.0,0.889,-0.326,0.361,0.0,0.0,0.0,-42.0,-61.2,0.0,35.14748001098633,129.02659606933594,105.8
2025-06-05T06:59:37.042+00:00Z,CTRL_PKT_RECV,75,0x50,,,,,,,,,,,,,,,,,,,,,
2025-06-05T06:59:37.053+00:00Z,SEND_PERMIT_ACK_SENT_OK,,,,,,75,0x55,,,,,,,,,,,,,,,,
2025-06-05T06:59:37.685+00:00Z,DATA_LEN_BYTE_RECV,,LEN_0x26,38,,,,,,,,,,,,,,,,,,,,
2025-06-05T06:59:37.714+00:00Z,DATA_FRAME_RECV_FULL,75,DATA_FRAME,38,37,-93,,,,,,,,,,,,,,,,,,
2025-06-05T06:59:37.725+00:00Z,DATA_ACK_SENT_OK,,,,,,75,0xaa,,,,,,,,,,,,,,,,
2025-06-05T06:59:37.726+00:00Z,DECODE_SUCCESS,75,,,37,,,,True,1726,Msg #48,1749106776.0,0.891,-0.328,0.362,0.0,0.0,0.0,-42.0,-61.2,0.0,35.147483825683594,129.02659606933594,104.6
2025-06-05T06:59:39.180+00:00Z,CTRL_PKT_RECV,76,0x50,,,,,,,,,,,,,,,,,,,,,
2025-06-05T06:59:39.193+00:00Z,SEND_PERMIT_ACK_SENT_OK,,,,,,76,0x55,,,,,,,,,,,,,,,,
2025-06-05T06:59:39.823+00:00Z,DATA_LEN_BYTE_RECV,,LEN_0x26,38,,,,,,,,,,,,,,,,,,,,
2025-06-05T06:59:39.852+00:00Z,DATA_FRAME_RECV_FULL,76,DATA_FRAME,38,37,-93,,,,,,,,,,,,,,,,,,
2025-06-05T06:59:39.861+00:00Z,DATA_ACK_SENT_OK,,,,,,76,0xaa,,,,,,,,,,,,,,,,
2025-06-05T06:59:39.862+00:00Z,DECODE_SUCCESS,76,,,37,,,,True,1862,Msg #49,1749106778.0,0.89,-0.326,0.36,0.0,0.0,0.0,-42.0,-61.2,0.0,35.14748764038086,129.02659606933594,104.0
2025-06-05T06:59:41.311+00:00Z,CTRL_PKT_RECV,77,0x50,,,,,,,,,,,,,,,,,,,,,
2025-06-05T06:59:41.321+00:00Z,SEND_PERMIT_ACK_SENT_OK,,,,,,77,0x55,,,,,,,,,,,,,,,,
2025-06-05T06:59:41.953+00:00Z,DATA_LEN_BYTE_RECV,,LEN_0x26,38,,,,,,,,,,,,,,,,,,,,
2025-06-05T06:59:41.982+00:00Z,DATA_FRAME_RECV_FULL,77,DATA_FRAME,38,37,-94,,,,,,,,,,,,,,,,,,
2025-06-05T06:59:41.993+00:00Z,DATA_ACK_SENT_OK,,,,,,77,0xaa,,,,,,,,,,,,,,,,
2025-06-05T06:59:41.994+00:00Z,DECODE_SUCCESS,77,,,37,,,,True,994,Msg #50,1749106781.0,0.89,-0.325,0.362,0.0,0.0,0.0,-42.0,-61.2,0.0,35.14748764038086,129.02659606933594,102.6
2025-06-05T06:59:43.450+00:00Z,CTRL_PKT_RECV,78,0x50,,,,,,,,,,,,,,,,,,,,,
2025-06-05T06:59:43.461+00:00Z,SEND_PERMIT_ACK_SENT_OK,,,,,,78,0x55,,,,,,,,,,,,,,,,
2025-06-05T06:59:44.092+00:00Z,DATA_LEN_BYTE_RECV,,LEN_0x26,38,,,,,,,,,,,,,,,,,,,,
2025-06-05T06:59:44.121+00:00Z,DATA_FRAME_RECV_FULL,78,DATA_FRAME,38,37,-93,,,,,,,,,,,,,,,,,,
2025-06-05T06:59:44.133+00:00Z,DATA_ACK_SENT_OK,,,,,,78,0xaa,,,,,,,,,,,,,,,,
2025-06-05T06:59:44.134+00:00Z,DECODE_SUCCESS,78,,,37,,,,True,1134,Msg #51,1749106783.0,0.89,-0.324,0.363,0.0,0.0,0.0,-42.0,-61.2,0.0,35.147491455078125,129.02659606933594,102.3
2025-06-05T06:59:45.592+00:00Z,CTRL_PKT_RECV,79,0x50,,,,,,,,,,,,,,,,,,,,,
2025-06-05T06:59:45.601+00:00Z,SEND_PERMIT_ACK_SENT_OK,,,,,,79,0x55,,,,,,,,,,,,,,,,
2025-06-05T06:59:46.236+00:00Z,DATA_LEN_BYTE_RECV,,LEN_0x26,38,,,,,,,,,,,,,,,,,,,,
2025-06-05T06:59:46.265+00:00Z,DATA_FRAME_RECV_FULL,79,DATA_FRAME,38,37,-94,,,,,,,,,,,,,,,,,,
2025-06-05T06:59:46.277+00:00Z,DATA_ACK_SENT_OK,,,,,,79,0xaa,,,,,,,,,,,,,,,,
2025-06-05T06:59:46.278+00:00Z,DECODE_SUCCESS,79,,,37,,,,True,1278,Msg #52,1749106785.0,0.89,-0.325,0.362,0.0,0.0,0.0,-42.0,-61.2,0.0,35.14748764038086,129.02659606933594,103.5
2025-06-05T06:59:47.724+00:00Z,CTRL_PKT_RECV,80,0x50,,,,,,,,,,,,,,,,,,,,,
2025-06-05T06:59:47.733+00:00Z,SEND_PERMIT_ACK_SENT_OK,,,,,,80,0x55,,,,,,,,,,,,,,,,
2025-06-05T06:59:48.367+00:00Z,DATA_LEN_BYTE_RECV,,LEN_0x26,38,,,,,,,,,,,,,,,,,,,,
2025-06-05T06:59:48.395+00:00Z,DATA_FRAME_RECV_FULL,80,DATA_FRAME,38,37,-94,,,,,,,,,,,,,,,,,,
2025-06-05T06:59:48.405+00:00Z,DATA_ACK_SENT_OK,,,,,,80,0xaa,,,,,,,,,,,,,,,,
2025-06-05T06:59:48.406+00:00Z,DECODE_SUCCESS,80,,,37,,,,True,1406,Msg #53,1749106787.0,0.89,-0.327,0.361,0.0,0.0,0.0,-42.0,-61.2,0.0,35.14748764038086,129.02659606933594,103.1
2025-06-05T06:59:49.859+00:00Z,CTRL_PKT_RECV,81,0x50,,,,,,,,,,,,,,,,,,,,,
2025-06-05T06:59:49.869+00:00Z,SEND_PERMIT_ACK_SENT_OK,,,,,,81,0x55,,,,,,,,,,,,,,,,
2025-06-05T06:59:50.502+00:00Z,DATA_LEN_BYTE_RECV,,LEN_0x26,38,,,,,,,,,,,,,,,,,,,,
2025-06-05T06:59:50.531+00:00Z,DATA_FRAME_RECV_FULL,81,DATA_FRAME,38,37,-94,,,,,,,,,,,,,,,,,,
2025-06-05T06:59:50.541+00:00Z,DATA_ACK_SENT_OK,,,,,,81,0xaa,,,,,,,,,,,,,,,,
2025-06-05T06:59:50.542+00:00Z,DECODE_SUCCESS,81,,,37,,,,True,1542,Msg #54,1749106789.0,0.889,-0.326,0.361,0.0,0.0,0.0,-42.0,-61.2,0.0,35.14749526977539,129.02659606933594,102.9
2025-06-05T06:59:52.006+00:00Z,CTRL_PKT_RECV,82,0x50,,,,,,,,,,,,,,,,,,,,,
2025-06-05T06:59:52.017+00:00Z,SEND_PERMIT_ACK_SENT_OK,,,,,,82,0x55,,,,,,,,,,,,,,,,
2025-06-05T06:59:52.648+00:00Z,DATA_LEN_BYTE_RECV,,LEN_0x26,38,,,,,,,,,,,,,,,,,,,,
2025-06-05T06:59:52.677+00:00Z,DATA_FRAME_RECV_FULL,82,DATA_FRAME,38,37,-94,,,,,,,,,,,,,,,,,,
2025-06-05T06:59:52.689+00:00Z,DATA_ACK_SENT_OK,,,,,,82,0xaa,,,,,,,,,,,,,,,,
2025-06-05T06:59:52.690+00:00Z,DECODE_SUCCESS,82,,,37,,,,True,1690,Msg #55,1749106791.0,0.891,-0.328,0.362,0.0,0.0,0.0,-42.0,-61.2,0.0,35.147499084472656,129.02659606933594,103.7
2025-06-05T06:59:54.153+00:00Z,CTRL_PKT_RECV,83,0x50,,,,,,,,,,,,,,,,,,,,,
2025-06-05T06:59:54.165+00:00Z,SEND_PERMIT_ACK_SENT_OK,,,,,,83,0x55,,,,,,,,,,,,,,,,
2025-06-05T06:59:54.795+00:00Z,DATA_LEN_BYTE_RECV,,LEN_0x26,38,,,,,,,,,,,,,,,,,,,,
2025-06-05T06:59:54.824+00:00Z,DATA_FRAME_RECV_FULL,83,DATA_FRAME,38,37,-94,,,,,,,,,,,,,,,,,,
2025-06-05T06:59:54.833+00:00Z,DATA_ACK_SENT_OK,,,,,,83,0xaa,,,,,,,,,,,,,,,,
2025-06-05T06:59:54.834+00:00Z,DECODE_SUCCESS,83,,,37,,,,True,1834,Msg #56,1749106793.0,0.891,-0.328,0.362,0.0,0.0,0.0,-42.0,-61.2,0.0,35.14750289916992,129.02659606933594,103.9
2025-06-05T06:59:56.279+00:00Z,CTRL_PKT_RECV,84,0x50,,,,,,,,,,,,,,,,,,,,,
2025-06-05T06:59:56.289+00:00Z,SEND_PERMIT_ACK_SENT_OK,,,,,,84,0x55,,,,,,,,,,,,,,,,
2025-06-05T06:59:56.921+00:00Z,DATA_LEN_BYTE_RECV,,LEN_0x26,38,,,,,,,,,,,,,,,,,,,,
2025-06-05T06:59:56.950+00:00Z,DATA_FRAME_RECV_FULL,84,DATA_FRAME,38,37,-93,,,,,,,,,,,,,,,,,,
2025-06-05T06:59:56.961+00:00Z,DATA_ACK_SENT_OK,,,,,,84,0xaa,,,,,,,,,,,,,,,,
2025-06-05T06:59:56.962+00:00Z,DECODE_SUCCESS,84,,,37,,,,True,962,Msg #57,1749106796.0,0.89,-0.326,0.365,0.0,0.0,0.0,-42.0,-61.2,0.0,35.14750671386719,129.026611328125,104.9
2025-06-05T06:59:58.414+00:00Z,CTRL_PKT_RECV,85,0x50,,,,,,,,,,,,,,,,,,,,,
2025-06-05T06:59:58.425+00:00Z,SEND_PERMIT_ACK_SENT_OK,,,,,,85,0x55,,,,,,,,,,,,,,,,
2025-06-05T06:59:59.057+00:00Z,DATA_LEN_BYTE_RECV,,LEN_0x26,38,,,,,,,,,,,,,,,,,,,,
2025-06-05T06:59:59.086+00:00Z,DATA_FRAME_RECV_FULL,85,DATA_FRAME,38,37,-93,,,,,,,,,,,,,,,,,,
2025-06-05T06:59:59.097+00:00Z,DATA_ACK_SENT_OK,,,,,,85,0xaa,,,,,,,,,,,,,,,,
2025-06-05T06:59:59.098+00:00Z,DECODE_SUCCESS,85,,,37,,,,True,1098,Msg #58,1749106798.0,0.892,-0.327,0.366,0.0,0.0,0.0,-42.0,-61.2,0.0,35.14751052856445,129.026611328125,105.9
2025-06-05T07:00:00.553+00:00Z,CTRL_PKT_RECV,86,0x50,,,,,,,,,,,,,,,,,,,,,
2025-06-05T07:00:00.565+00:00Z,SEND_PERMIT_ACK_SENT_OK,,,,,,86,0x55,,,,,,,,,,,,,,,,
2025-06-05T07:00:01.196+00:00Z,DATA_LEN_BYTE_RECV,,LEN_0x26,38,,,,,,,,,,,,,,,,,,,,
2025-06-05T07:00:01.225+00:00Z,DATA_FRAME_RECV_FULL,86,DATA_FRAME,38,37,-94,,,,,,,,,,,,,,,,,,
2025-06-05T07:00:01.237+00:00Z,DATA_ACK_SENT_OK,,,,,,86,0xaa,,,,,,,,,,,,,,,,
2025-06-05T07:00:01.238+00:00Z,DECODE_SUCCESS,86,,,37,,,,True,1238,Msg #59,1749106800.0,0.89,-0.326,0.364,0.0,0.0,0.0,-42.0,-61.2,0.0,35.14751434326172,129.02662658691406,107.0
2025-06-05T07:00:02.683+00:00Z,CTRL_PKT_RECV,87,0x50,,,,,,,,,,,,,,,,,,,,,
2025-06-05T07:00:02.693+00:00Z,SEND_PERMIT_ACK_SENT_OK,,,,,,87,0x55,,,,,,,,,,,,,,,,
2025-06-05T07:00:03.325+00:00Z,DATA_LEN_BYTE_RECV,,LEN_0x26,38,,,,,,,,,,,,,,,,,,,,
2025-06-05T07:00:03.354+00:00Z,DATA_FRAME_RECV_FULL,87,DATA_FRAME,38,37,-94,,,,,,,,,,,,,,,,,,
2025-06-05T07:00:03.365+00:00Z,DATA_ACK_SENT_OK,,,,,,87,0xaa,,,,,,,,,,,,,,,,
2025-06-05T07:00:03.366+00:00Z,DECODE_SUCCESS,87,,,37,,,,True,1366,Msg #60,1749106802.0,0.889,-0.327,0.362,0.0,0.0,0.0,-42.0,-61.2,0.0,35.147518157958984,129.02662658691406,107.9
2025-06-05T07:00:04.817+00:00Z,CTRL_PKT_RECV,88,0x50,,,,,,,,,,,,,,,,,,,,,
2025-06-05T07:00:04.829+00:00Z,SEND_PERMIT_ACK_SENT_OK,,,,,,88,0x55,,,,,,,,,,,,,,,,
2025-06-05T07:00:05.460+00:00Z,DATA_LEN_BYTE_RECV,,LEN_0x26,38,,,,,,,,,,,,,,,,,,,,
2025-06-05T07:00:05.489+00:00Z,DATA_FRAME_RECV_FULL,88,DATA_FRAME,38,37,-94,,,,,,,,,,,,,,,,,,
2025-06-05T07:00:05.501+00:00Z,DATA_ACK_SENT_OK,,,,,,88,0xaa,,,,,,,,,,,,,,,,
2025-06-05T07:00:05.502+00:00Z,DECODE_SUCCESS,88,,,37,,,,True,1502,Msg #61,1749106804.0,0.89,-0.327,0.361,0.0,0.0,0.0,-42.0,-61.2,0.0,35.14752197265625,129.02662658691406,108.3
2025-06-05T07:00:06.959+00:00Z,CTRL_PKT_RECV,89,0x50,,,,,,,,,,,,,,,,,,,,,
2025-06-05T07:00:06.969+00:00Z,SEND_PERMIT_ACK_SENT_OK,,,,,,89,0x55,,,,,,,,,,,,,,,,
2025-06-05T07:00:07.602+00:00Z,DATA_LEN_BYTE_RECV,,LEN_0x26,38,,,,,,,,,,,,,,,,,,,,
2025-06-05T07:00:07.631+00:00Z,DATA_FRAME_RECV_FULL,89,DATA_FRAME,38,37,-94,,,,,,,,,,,,,,,,,,
2025-06-05T07:00:07.641+00:00Z,DATA_ACK_SENT_OK,,,,,,89,0xaa,,,,,,,,,,,,,,,,
2025-06-05T07:00:07.642+00:00Z,DECODE_SUCCESS,89,,,37,,,,True,1642,Msg #62,1749106806.0,0.891,-0.326,0.357,0.0,0.0,0.0,-42.0,-61.2,0.0,35.147525787353516,129.02662658691406,108.4
2025-06-05T07:00:09.092+00:00Z,CTRL_PKT_RECV,90,0x50,,,,,,,,,,,,,,,,,,,,,
2025-06-05T07:00:09.101+00:00Z,SEND_PERMIT_ACK_SENT_OK,,,,,,90,0x55,,,,,,,,,,,,,,,,
2025-06-05T07:00:09.735+00:00Z,DATA_LEN_BYTE_RECV,,LEN_0x26,38,,,,,,,,,,,,,,,,,,,,
2025-06-05T07:00:09.764+00:00Z,DATA_FRAME_RECV_FULL,90,DATA_FRAME,38,37,-94,,,,,,,,,,,,,,,,,,
2025-06-05T07:00:09.773+00:00Z,DATA_ACK_SENT_OK,,,,,,90,0xaa,,,,,,,,,,,,,,,,
2025-06-05T07:00:09.774+00:00Z,DECODE_SUCCESS,90,,,37,,,,True,1774,Msg #63,1749106808.0,0.889,-0.328,0.359,0.0,0.0,0.0,-42.0,-61.2,0.0,35.14752960205078,129.02664184570312,108.3
2025-06-05T07:00:11.236+00:00Z,CTRL_PKT_RECV,91,0x50,,,,,,,,,,,,,,,,,,,,,
2025-06-05T07:00:11.245+00:00Z,SEND_PERMIT_ACK_SENT_OK,,,,,,91,0x55,,,,,,,,,,,,,,,,
2025-06-05T07:00:11.879+00:00Z,DATA_LEN_BYTE_RECV,,LEN_0x26,38,,,,,,,,,,,,,,,,,,,,
2025-06-05T07:00:11.908+00:00Z,DATA_FRAME_RECV_FULL,91,DATA_FRAME,38,37,-93,,,,,,,,,,,,,,,,,,
2025-06-05T07:00:11.917+00:00Z,DATA_ACK_SENT_OK,,,,,,91,0xaa,,,,,,,,,,,,,,,,
2025-06-05T07:00:11.918+00:00Z,DECODE_SUCCESS,91,,,37,,,,True,1918,Msg #64,1749106810.0,0.889,-0.327,0.363,0.0,0.0,0.0,-42.0,-61.2,0.0,35.14753341674805,129.02664184570312,110.0
2025-06-05T07:00:13.385+00:00Z,CTRL_PKT_RECV,92,0x50,,,,,,,,,,,,,,,,,,,,,
2025-06-05T07:00:13.397+00:00Z,SEND_PERMIT_ACK_SENT_OK,,,,,,92,0x55,,,,,,,,,,,,,,,,
2025-06-05T07:00:14.028+00:00Z,DATA_LEN_BYTE_RECV,,LEN_0x26,38,,,,,,,,,,,,,,,,,,,,
2025-06-05T07:00:14.057+00:00Z,DATA_FRAME_RECV_FULL,92,DATA_FRAME,38,37,-93,,,,,,,,,,,,,,,,,,
2025-06-05T07:00:14.069+00:00Z,DATA_ACK_SENT_OK,,,,,,92,0xaa,,,,,,,,,,,,,,,,
2025-06-05T07:00:14.071+00:00Z,DECODE_SUCCESS,92,,,37,,,,True,1071,Msg #65,1749106813.0,0.893,-0.326,0.362,0.0,0.0,0.0,-42.0,-61.2,0.0,35.14753723144531,129.0266571044922,110.6
2025-06-05T07:00:15.522+00:00Z,CTRL_PKT_RECV,93,0x50,,,,,,,,,,,,,,,,,,,,,
2025-06-05T07:00:15.533+00:00Z,SEND_PERMIT_ACK_SENT_OK,,,,,,93,0x55,,,,,,,,,,,,,,,,
2025-06-05T07:00:16.164+00:00Z,DATA_LEN_BYTE_RECV,,LEN_0x26,38,,,,,,,,,,,,,,,,,,,,
2025-06-05T07:00:16.193+00:00Z,DATA_FRAME_RECV_FULL,93,DATA_FRAME,38,37,-94,,,,,,,,,,,,,,,,,,
2025-06-05T07:00:16.205+00:00Z,DATA_ACK_SENT_OK,,,,,,93,0xaa,,,,,,,,,,,,,,,,
2025-06-05T07:00:16.206+00:00Z,DECODE_SUCCESS,93,,,37,,,,True,1206,Msg #66,1749106815.0,0.89,-0.326,0.363,0.0,0.0,0.0,-42.0,-61.2,0.0,35.14754104614258,129.0266571044922,111.9
2025-06-05T07:00:17.665+00:00Z,CTRL_PKT_RECV,94,0x50,,,,,,,,,,,,,,,,,,,,,
2025-06-05T07:00:17.677+00:00Z,SEND_PERMIT_ACK_SENT_OK,,,,,,94,0x55,,,,,,,,,,,,,,,,
2025-06-05T07:00:18.308+00:00Z,DATA_LEN_BYTE_RECV,,LEN_0x26,38,,,,,,,,,,,,,,,,,,,,
2025-06-05T07:00:18.337+00:00Z,DATA_FRAME_RECV_FULL,94,DATA_FRAME,38,37,-94,,,,,,,,,,,,,,,,,,
2025-06-05T07:00:18.349+00:00Z,DATA_ACK_SENT_OK,,,,,,94,0xaa,,,,,,,,,,,,,,,,
2025-06-05T07:00:18.350+00:00Z,DECODE_SUCCESS,94,,,37,,,,True,1350,Msg #67,1749106817.0,0.891,-0.326,0.362,0.0,0.0,0.0,-42.0,-61.2,0.0,35.14754104614258,129.02667236328125,112.9
2025-06-05T07:00:19.790+00:00Z,CTRL_PKT_RECV,95,0x50,,,,,,,,,,,,,,,,,,,,,
2025-06-05T07:00:19.801+00:00Z,SEND_PERMIT_ACK_SENT_OK,,,,,,95,0x55,,,,,,,,,,,,,,,,
2025-06-05T07:00:20.433+00:00Z,DATA_LEN_BYTE_RECV,,LEN_0x26,38,,,,,,,,,,,,,,,,,,,,
2025-06-05T07:00:20.462+00:00Z,DATA_FRAME_RECV_FULL,95,DATA_FRAME,38,37,-94,,,,,,,,,,,,,,,,,,
2025-06-05T07:00:20.473+00:00Z,DATA_ACK_SENT_OK,,,,,,95,0xaa,,,,,,,,,,,,,,,,
2025-06-05T07:00:20.474+00:00Z,DECODE_SUCCESS,95,,,37,,,,True,1474,Msg #68,1749106819.0,0.89,-0.326,0.363,0.0,0.0,0.0,-42.0,-61.2,0.0,35.14754104614258,129.0266876220703,114.0
2025-06-05T07:00:21.934+00:00Z,CTRL_PKT_RECV,96,0x50,,,,,,,,,,,,,,,,,,,,,
2025-06-05T07:00:21.945+00:00Z,SEND_PERMIT_ACK_SENT_OK,,,,,,96,0x55,,,,,,,,,,,,,,,,
2025-06-05T07:00:22.577+00:00Z,DATA_LEN_BYTE_RECV,,LEN_0x26,38,,,,,,,,,,,,,,,,,,,,
2025-06-05T07:00:22.606+00:00Z,DATA_FRAME_RECV_FULL,96,DATA_FRAME,38,37,-94,,,,,,,,,,,,,,,,,,
2025-06-05T07:00:22.617+00:00Z,DATA_ACK_SENT_OK,,,,,,96,0xaa,,,,,,,,,,,,,,,,
2025-06-05T07:00:22.618+00:00Z,DECODE_SUCCESS,96,,,37,,,,True,1618,Msg #69,1749106821.0,0.891,-0.326,0.364,0.0,0.0,0.0,-42.0,-61.2,0.0,35.147544860839844,129.0266876220703,115.5
2025-06-05T07:00:24.068+00:00Z,CTRL_PKT_RECV,97,0x50,,,,,,,,,,,,,,,,,,,,,
2025-06-05T07:00:24.077+00:00Z,SEND_PERMIT_ACK_SENT_OK,,,,,,97,0x55,,,,,,,,,,,,,,,,
2025-06-05T07:00:24.710+00:00Z,DATA_LEN_BYTE_RECV,,LEN_0x26,38,,,,,,,,,,,,,,,,,,,,
2025-06-05T07:00:24.739+00:00Z,DATA_FRAME_RECV_FULL,97,DATA_FRAME,38,37,-94,,,,,,,,,,,,,,,,,,
2025-06-05T07:00:24.749+00:00Z,DATA_ACK_SENT_OK,,,,,,97,0xaa,,,,,,,,,,,,,,,,
2025-06-05T07:00:24.750+00:00Z,DECODE_SUCCESS,97,,,37,,,,True,1750,Msg #70,1749106823.0,0.891,-0.325,0.363,0.0,0.0,0.0,-42.0,-61.2,0.0,35.147544860839844,129.0266876220703,116.5
2025-06-05T07:00:26.201+00:00Z,CTRL_PKT_RECV,98,0x50,,,,,,,,,,,,,,,,,,,,,
2025-06-05T07:00:26.213+00:00Z,SEND_PERMIT_ACK_SENT_OK,,,,,,98,0x55,,,,,,,,,,,,,,,,
2025-06-05T07:00:26.843+00:00Z,DATA_LEN_BYTE_RECV,,LEN_0x26,38,,,,,,,,,,,,,,,,,,,,
2025-06-05T07:00:26.872+00:00Z,DATA_FRAME_RECV_FULL,98,DATA_FRAME,38,37,-94,,,,,,,,,,,,,,,,,,
2025-06-05T07:00:26.881+00:00Z,DATA_ACK_SENT_OK,,,,,,98,0xaa,,,,,,,,,,,,,,,,
2025-06-05T07:00:26.882+00:00Z,DECODE_SUCCESS,98,,,37,,,,True,1882,Msg #71,1749106825.0,0.89,-0.325,0.36,0.0,0.0,0.0,-42.0,-61.2,0.0,35.147544860839844,129.02670288085938,118.1
2025-06-05T07:00:28.347+00:00Z,CTRL_PKT_RECV,99,0x50,,,,,,,,,,,,,,,,,,,,,
2025-06-05T07:00:28.357+00:00Z,SEND_PERMIT_ACK_SENT_OK,,,,,,99,0x55,,,,,,,,,,,,,,,,
2025-06-05T07:00:37.401+00:00Z,CTRL_PKT_RECV,100,0x50,,,,,,,,,,,,,,,,,,,,,
2025-06-05T07:00:37.413+00:00Z,SEND_PERMIT_ACK_SENT_OK,,,,,,100,0x55,,,,,,,,,,,,,,,,
2025-06-05T07:00:38.044+00:00Z,DATA_LEN_BYTE_RECV,,LEN_0x26,38,,,,,,,,,,,,,,,,,,,,
2025-06-05T07:00:38.073+00:00Z,DATA_FRAME_RECV_FULL,100,DATA_FRAME,38,37,-94,,,,,,,,,,,,,,,,,,
2025-06-05T07:00:38.085+00:00Z,DATA_ACK_SENT_OK,,,,,,100,0xaa,,,,,,,,,,,,,,,,
2025-06-05T07:00:38.086+00:00Z,DECODE_SUCCESS,100,,,37,,,,True,1086,Msg #72,1749106837.0,0.89,-0.327,0.362,0.0,0.0,0.0,-42.0,-61.2,0.0,35.14754867553711,129.0266876220703,118.8
2025-06-05T07:00:39.531+00:00Z,CTRL_PKT_RECV,101,0x50,,,,,,,,,,,,,,,,,,,,,
2025-06-05T07:00:39.541+00:00Z,SEND_PERMIT_ACK_SENT_OK,,,,,,101,0x55,,,,,,,,,,,,,,,,
2025-06-05T07:00:40.174+00:00Z,DATA_LEN_BYTE_RECV,,LEN_0x26,38,,,,,,,,,,,,,,,,,,,,
2025-06-05T07:00:40.203+00:00Z,DATA_FRAME_RECV_FULL,101,DATA_FRAME,38,37,-94,,,,,,,,,,,,,,,,,,
2025-06-05T07:00:40.213+00:00Z,DATA_ACK_SENT_OK,,,,,,101,0xaa,,,,,,,,,,,,,,,,
2025-06-05T07:00:40.214+00:00Z,DECODE_SUCCESS,101,,,37,,,,True,1214,Msg #73,1749106839.0,0.891,-0.327,0.364,0.0,0.0,0.0,-42.0,-61.2,0.0,35.14754867553711,129.0266876220703,118.6
2025-06-05T07:00:41.663+00:00Z,CTRL_PKT_RECV,102,0x50,,,,,,,,,,,,,,,,,,,,,
2025-06-05T07:00:41.674+00:00Z,SEND_PERMIT_ACK_SENT_OK,,,,,,102,0x55,,,,,,,,,,,,,,,,
2025-06-05T07:00:42.306+00:00Z,DATA_LEN_BYTE_RECV,,LEN_0x26,38,,,,,,,,,,,,,,,,,,,,
2025-06-05T07:00:42.335+00:00Z,DATA_FRAME_RECV_FULL,102,DATA_FRAME,38,37,-94,,,,,,,,,,,,,,,,,,
2025-06-05T07:00:42.345+00:00Z,DATA_ACK_SENT_OK,,,,,,102,0xaa,,,,,,,,,,,,,,,,
2025-06-05T07:00:42.346+00:00Z,DECODE_SUCCESS,102,,,37,,,,True,1346,Msg #74,1749106841.0,0.889,-0.328,0.362,0.0,0.0,0.0,-42.0,-61.2,0.0,35.14754867553711,129.0266876220703,119.1
2025-06-05T07:00:43.803+00:00Z,CTRL_PKT_RECV,103,0x50,,,,,,,,,,,,,,,,,,,,,
2025-06-05T07:00:43.813+00:00Z,SEND_PERMIT_ACK_SENT_OK,,,,,,103,0x55,,,,,,,,,,,,,,,,
2025-06-05T07:00:44.446+00:00Z,DATA_LEN_BYTE_RECV,,LEN_0x26,38,,,,,,,,,,,,,,,,,,,,
2025-06-05T07:00:44.475+00:00Z,DATA_FRAME_RECV_FULL,103,DATA_FRAME,38,37,-94,,,,,,,,,,,,,,,,,,
2025-06-05T07:00:44.485+00:00Z,DATA_ACK_SENT_OK,,,,,,103,0xaa,,,,,,,,,,,,,,,,
2025-06-05T07:00:44.486+00:00Z,DECODE_SUCCESS,103,,,37,,,,True,1486,Msg #75,1749106843.0,0.888,-0.327,0.36,0.0,0.0,0.0,-42.0,-61.2,0.0,35.14754867553711,129.0266876220703,119.5
2025-06-05T07:00:45.940+00:00Z,CTRL_PKT_RECV,104,0x50,,,,,,,,,,,,,,,,,,,,,
2025-06-05T07:00:45.953+00:00Z,SEND_PERMIT_ACK_SENT_OK,,,,,,104,0x55,,,,,,,,,,,,,,,,
2025-06-05T07:00:46.583+00:00Z,DATA_LEN_BYTE_RECV,,LEN_0x26,38,,,,,,,,,,,,,,,,,,,,
2025-06-05T07:00:46.612+00:00Z,DATA_FRAME_RECV_FULL,104,DATA_FRAME,38,37,-94,,,,,,,,,,,,,,,,,,
2025-06-05T07:00:46.621+00:00Z,DATA_ACK_SENT_OK,,,,,,104,0xaa,,,,,,,,,,,,,,,,
2025-06-05T07:00:46.622+00:00Z,DECODE_SUCCESS,104,,,37,,,,True,1622,Msg #76,1749106845.0,0.891,-0.326,0.365,0.0,0.0,0.0,-42.0,-61.2,0.0,35.14754867553711,129.0266876220703,119.7
2025-06-05T07:00:48.071+00:00Z,CTRL_PKT_RECV,105,0x50,,,,,,,,,,,,,,,,,,,,,
2025-06-05T07:00:48.081+00:00Z,SEND_PERMIT_ACK_SENT_OK,,,,,,105,0x55,,,,,,,,,,,,,,,,
2025-06-05T07:00:48.714+00:00Z,DATA_LEN_BYTE_RECV,,LEN_0x26,38,,,,,,,,,,,,,,,,,,,,
2025-06-05T07:00:48.743+00:00Z,DATA_FRAME_RECV_FULL,105,DATA_FRAME,38,37,-94,,,,,,,,,,,,,,,,,,
2025-06-05T07:00:48.753+00:00Z,DATA_ACK_SENT_OK,,,,,,105,0xaa,,,,,,,,,,,,,,,,
2025-06-05T07:00:48.754+00:00Z,DECODE_SUCCESS,105,,,37,,,,True,1754,Msg #77,1749106847.0,0.89,-0.325,0.365,0.0,0.0,0.0,-42.0,-61.2,0.0,35.147544860839844,129.02670288085938,120.1
2025-06-05T07:00:50.196+00:00Z,CTRL_PKT_RECV,106,0x50,,,,,,,,,,,,,,,,,,,,,
2025-06-05T07:00:50.213+00:00Z,SEND_PERMIT_ACK_SENT_OK,,,,,,106,0x55,,,,,,,,,,,,,,,,
2025-06-05T07:01:35.495+00:00Z,CTRL_PKT_RECV,111,0x50,,,,,,,,,,,,,,,,,,,,,
2025-06-05T07:01:35.505+00:00Z,SEND_PERMIT_ACK_SENT_OK,,,,,,111,0x55,,,,,,,,,,,,,,,,
2025-06-05T07:01:44.550+00:00Z,CTRL_PKT_RECV,112,0x50,,,,,,,,,,,,,,,,,,,,,
2025-06-05T07:01:44.561+00:00Z,SEND_PERMIT_ACK_SENT_OK,,,,,,112,0x55,,,,,,,,,,,,,,,,
2025-06-05T07:01:53.588+00:00Z,CTRL_PKT_RECV,113,0x50,,,,,,,,,,,,,,,,,,,,,
2025-06-05T07:01:53.597+00:00Z,SEND_PERMIT_ACK_SENT_OK,,,,,,113,0x55,,,,,,,,,,,,,,,,
2025-06-05T07:02:02.642+00:00Z,CTRL_PKT_RECV,114,0x50,,,,,,,,,,,,,,,,,,,,,
2025-06-05T07:02:02.653+00:00Z,SEND_PERMIT_ACK_SENT_OK,,,,,,114,0x55,,,,,,,,,,,,,,,,
2025-06-05T07:02:20.737+00:00Z,CTRL_PKT_RECV,116,0x50,,,,,,,,,,,,,,,,,,,,,
2025-06-05T07:02:20.749+00:00Z,SEND_PERMIT_ACK_SENT_OK,,,,,,116,0x55,,,,,,,,,,,,,,,,
2025-06-05T07:02:29.789+00:00Z,CTRL_PKT_RECV,117,0x50,,,,,,,,,,,,,,,,,,,,,
2025-06-05T07:02:29.801+00:00Z,SEND_PERMIT_ACK_SENT_OK,,,,,,117,0x55,,,,,,,,,,,,,,,,
2025-06-05T07:02:30.433+00:00Z,DATA_LEN_BYTE_RECV,,LEN_0x26,38,,,,,,,,,,,,,,,,,,,,
2025-06-05T07:02:30.462+00:00Z,DATA_FRAME_RECV_FULL,117,DATA_FRAME,38,37,-94,,,,,,,,,,,,,,,,,,
2025-06-05T07:02:30.473+00:00Z,DATA_ACK_SENT_OK,,,,,,117,0xaa,,,,,,,,,,,,,,,,
2025-06-05T07:02:30.474+00:00Z,DECODE_SUCCESS,117,,,37,,,,True,1474,Msg #78,1749106949.0,0.892,-0.326,0.361,0.0,0.0,0.0,-42.0,-61.2,0.0,35.14753341674805,129.02674865722656,126.4
2025-06-05T07:02:31.936+00:00Z,CTRL_PKT_RECV,118,0x50,,,,,,,,,,,,,,,,,,,,,
2025-06-05T07:02:31.945+00:00Z,SEND_PERMIT_ACK_SENT_OK,,,,,,118,0x55,,,,,,,,,,,,,,,,
2025-06-05T07:02:32.579+00:00Z,DATA_LEN_BYTE_RECV,,LEN_0x26,38,,,,,,,,,,,,,,,,,,,,
2025-06-05T07:02:32.608+00:00Z,DATA_FRAME_RECV_FULL,118,DATA_FRAME,38,37,-94,,,,,,,,,,,,,,,,,,
2025-06-05T07:02:32.617+00:00Z,DATA_ACK_SENT_OK,,,,,,118,0xaa,,,,,,,,,,,,,,,,
2025-06-05T07:02:32.618+00:00Z,DECODE_SUCCESS,118,,,37,,,,True,1618,Msg #79,1749106951.0,0.893,-0.325,0.362,0.0,0.0,0.0,-42.0,-61.2,0.0,35.147544860839844,129.0267791748047,127.7
2025-06-05T07:02:34.077+00:00Z,CTRL_PKT_RECV,119,0x50,,,,,,,,,,,,,,,,,,,,,
2025-06-05T07:02:34.090+00:00Z,SEND_PERMIT_ACK_SENT_OK,,,,,,119,0x55,,,,,,,,,,,,,,,,
2025-06-05T07:02:34.720+00:00Z,DATA_LEN_BYTE_RECV,,LEN_0x26,38,,,,,,,,,,,,,,,,,,,,
2025-06-05T07:02:34.749+00:00Z,DATA_FRAME_RECV_FULL,119,DATA_FRAME,38,37,-94,,,,,,,,,,,,,,,,,,
2025-06-05T07:02:34.762+00:00Z,DATA_ACK_SENT_OK,,,,,,119,0xaa,,,,,,,,,,,,,,,,
2025-06-05T07:02:34.763+00:00Z,DECODE_SUCCESS,119,,,37,,,,True,1762,Msg #80,1749106953.0,0.892,-0.324,0.362,0.0,0.0,0.0,-42.0,-61.2,0.0,35.147544860839844,129.0267791748047,129.2
2025-06-05T07:02:36.211+00:00Z,CTRL_PKT_RECV,120,0x50,,,,,,,,,,,,,,,,,,,,,
2025-06-05T07:02:36.221+00:00Z,SEND_PERMIT_ACK_SENT_OK,,,,,,120,0x55,,,,,,,,,,,,,,,,
2025-06-05T07:02:36.853+00:00Z,DATA_LEN_BYTE_RECV,,LEN_0x26,38,,,,,,,,,,,,,,,,,,,,
2025-06-05T07:02:36.882+00:00Z,DATA_FRAME_RECV_FULL,120,DATA_FRAME,38,37,-94,,,,,,,,,,,,,,,,,,
2025-06-05T07:02:36.893+00:00Z,DATA_ACK_SENT_OK,,,,,,120,0xaa,,,,,,,,,,,,,,,,
2025-06-05T07:02:36.894+00:00Z,DECODE_SUCCESS,120,,,37,,,,True,1894,Msg #81,1749106955.0,0.892,-0.327,0.361,0.0,0.0,0.0,-42.0,-61.2,0.0,35.147544860839844,129.0267791748047,130.0
2025-06-05T07:02:38.348+00:00Z,CTRL_PKT_RECV,121,0x50,,,,,,,,,,,,,,,,,,,,,
2025-06-05T07:02:38.357+00:00Z,SEND_PERMIT_ACK_SENT_OK,,,,,,121,0x55,,,,,,,,,,,,,,,,
2025-06-05T07:02:38.991+00:00Z,DATA_LEN_BYTE_RECV,,LEN_0x26,38,,,,,,,,,,,,,,,,,,,,
2025-06-05T07:02:39.020+00:00Z,DATA_FRAME_RECV_FULL,121,DATA_FRAME,38,37,-94,,,,,,,,,,,,,,,,,,
2025-06-05T07:02:39.029+00:00Z,DATA_ACK_SENT_OK,,,,,,121,0xaa,,,,,,,,,,,,,,,,
2025-06-05T07:02:39.030+00:00Z,DECODE_SUCCESS,121,,,37,,,,True,1030,Msg #82,1749106958.0,0.892,-0.327,0.363,0.0,0.0,0.0,-42.0,-61.2,0.0,35.14754104614258,129.02679443359375,131.2
2025-06-05T07:02:40.493+00:00Z,CTRL_PKT_RECV,122,0x50,,,,,,,,,,,,,,,,,,,,,
2025-06-05T07:02:40.505+00:00Z,SEND_PERMIT_ACK_SENT_OK,,,,,,122,0x55,,,,,,,,,,,,,,,,
2025-06-05T07:02:41.136+00:00Z,DATA_LEN_BYTE_RECV,,LEN_0x26,38,,,,,,,,,,,,,,,,,,,,
2025-06-05T07:02:41.165+00:00Z,DATA_FRAME_RECV_FULL,122,DATA_FRAME,38,37,-93,,,,,,,,,,,,,,,,,,
2025-06-05T07:02:41.177+00:00Z,DATA_ACK_SENT_OK,,,,,,122,0xaa,,,,,,,,,,,,,,,,
2025-06-05T07:02:41.178+00:00Z,DECODE_SUCCESS,122,,,37,,,,True,1178,Msg #83,1749106960.0,0.891,-0.327,0.365,0.0,0.0,0.0,-42.0,-61.2,0.0,35.14754104614258,129.02679443359375,131.7
2025-06-05T07:02:42.626+00:00Z,CTRL_PKT_RECV,123,0x50,,,,,,,,,,,,,,,,,,,,,
2025-06-05T07:02:42.637+00:00Z,SEND_PERMIT_ACK_SENT_OK,,,,,,123,0x55,,,,,,,,,,,,,,,,
2025-06-05T07:02:43.269+00:00Z,DATA_LEN_BYTE_RECV,,LEN_0x26,38,,,,,,,,,,,,,,,,,,,,
2025-06-05T07:02:43.298+00:00Z,DATA_FRAME_RECV_FULL,123,DATA_FRAME,38,37,-93,,,,,,,,,,,,,,,,,,
2025-06-05T07:02:43.309+00:00Z,DATA_ACK_SENT_OK,,,,,,123,0xaa,,,,,,,,,,,,,,,,
2025-06-05T07:02:43.310+00:00Z,DECODE_SUCCESS,123,,,37,,,,True,1310,Msg #84,1749106962.0,0.892,-0.324,0.363,0.0,0.0,0.0,-42.0,-61.2,0.0,35.14753723144531,129.02679443359375,132.1
2025-06-05T07:02:44.766+00:00Z,CTRL_PKT_RECV,124,0x50,,,,,,,,,,,,,,,,,,,,,
2025-06-05T07:02:44.777+00:00Z,SEND_PERMIT_ACK_SENT_OK,,,,,,124,0x55,,,,,,,,,,,,,,,,
2025-06-05T07:02:45.408+00:00Z,DATA_LEN_BYTE_RECV,,LEN_0x26,38,,,,,,,,,,,,,,,,,,,,
2025-06-05T07:02:45.437+00:00Z,DATA_FRAME_RECV_FULL,124,DATA_FRAME,38,37,-94,,,,,,,,,,,,,,,,,,
2025-06-05T07:02:45.449+00:00Z,DATA_ACK_SENT_OK,,,,,,124,0xaa,,,,,,,,,,,,,,,,
2025-06-05T07:02:45.450+00:00Z,DECODE_SUCCESS,124,,,37,,,,True,1450,Msg #85,1749106964.0,0.891,-0.328,0.36,0.0,0.0,0.0,-42.0,-61.2,0.0,35.14753723144531,129.02679443359375,133.0
2025-06-05T07:02:46.893+00:00Z,CTRL_PKT_RECV,125,0x50,,,,,,,,,,,,,,,,,,,,,
2025-06-05T07:02:46.905+00:00Z,SEND_PERMIT_ACK_SENT_OK,,,,,,125,0x55,,,,,,,,,,,,,,,,
2025-06-05T07:02:47.535+00:00Z,DATA_LEN_BYTE_RECV,,LEN_0x26,38,,,,,,,,,,,,,,,,,,,,
2025-06-05T07:02:47.564+00:00Z,DATA_FRAME_RECV_FULL,125,DATA_FRAME,38,37,-94,,,,,,,,,,,,,,,,,,
2025-06-05T07:02:47.573+00:00Z,DATA_ACK_SENT_OK,,,,,,125,0xaa,,,,,,,,,,,,,,,,
2025-06-05T07:02:47.574+00:00Z,DECODE_SUCCESS,125,,,37,,,,True,1574,Msg #86,1749106966.0,0.89,-0.327,0.361,0.0,0.0,0.0,-42.0,-61.2,0.0,35.14753341674805,129.02679443359375,133.4
2025-06-05T07:02:49.035+00:00Z,CTRL_PKT_RECV,126,0x50,,,,,,,,,,,,,,,,,,,,,
2025-06-05T07:02:49.045+00:00Z,SEND_PERMIT_ACK_SENT_OK,,,,,,126,0x55,,,,,,,,,,,,,,,,
2025-06-05T07:02:49.678+00:00Z,DATA_LEN_BYTE_RECV,,LEN_0x26,38,,,,,,,,,,,,,,,,,,,,
2025-06-05T07:02:49.707+00:00Z,DATA_FRAME_RECV_FULL,126,DATA_FRAME,38,37,-94,,,,,,,,,,,,,,,,,,
2025-06-05T07:02:49.717+00:00Z,DATA_ACK_SENT_OK,,,,,,126,0xaa,,,,,,,,,,,,,,,,
2025-06-05T07:02:49.718+00:00Z,DECODE_SUCCESS,126,,,37,,,,True,1718,Msg #87,1749106968.0,0.89,-0.326,0.362,0.0,0.0,0.0,-42.0,-61.2,0.0,35.14753341674805,129.02679443359375,134.2
2025-06-05T07:02:51.173+00:00Z,CTRL_PKT_RECV,127,0x50,,,,,,,,,,,,,,,,,,,,,
2025-06-05T07:02:51.185+00:00Z,SEND_PERMIT_ACK_SENT_OK,,,,,,127,0x55,,,,,,,,,,,,,,,,
2025-06-05T07:02:51.816+00:00Z,DATA_LEN_BYTE_RECV,,LEN_0x26,38,,,,,,,,,,,,,,,,,,,,
2025-06-05T07:02:51.844+00:00Z,DATA_FRAME_RECV_FULL,127,DATA_FRAME,38,37,-94,,,,,,,,,,,,,,,,,,
2025-06-05T07:02:51.857+00:00Z,DATA_ACK_SENT_OK,,,,,,127,0xaa,,,,,,,,,,,,,,,,
2025-06-05T07:02:51.858+00:00Z,DECODE_SUCCESS,127,,,37,,,,True,1858,Msg #88,1749106970.0,0.89,-0.325,0.364,0.0,0.0,0.0,-42.0,-61.2,0.0,35.14752960205078,129.02679443359375,134.4
2025-06-05T07:02:53.315+00:00Z,CTRL_PKT_RECV,128,0x50,,,,,,,,,,,,,,,,,,,,,
2025-06-05T07:02:53.325+00:00Z,SEND_PERMIT_ACK_SENT_OK,,,,,,128,0x55,,,,,,,,,,,,,,,,
2025-06-05T07:02:53.957+00:00Z,DATA_LEN_BYTE_RECV,,LEN_0x26,38,,,,,,,,,,,,,,,,,,,,
2025-06-05T07:02:53.986+00:00Z,DATA_FRAME_RECV_FULL,128,DATA_FRAME,38,37,-93,,,,,,,,,,,,,,,,,,
2025-06-05T07:02:53.997+00:00Z,DATA_ACK_SENT_OK,,,,,,128,0xaa,,,,,,,,,,,,,,,,
2025-06-05T07:02:53.999+00:00Z,DECODE_SUCCESS,128,,,37,,,,True,998,Msg #89,1749106973.0,0.891,-0.327,0.36,0.0,0.0,0.0,-42.0,-61.2,0.0,35.14752960205078,129.02679443359375,135.0
2025-06-05T07:02:55.451+00:00Z,CTRL_PKT_RECV,129,0x50,,,,,,,,,,,,,,,,,,,,,
2025-06-05T07:02:55.461+00:00Z,SEND_PERMIT_ACK_SENT_OK,,,,,,129,0x55,,,,,,,,,,,,,,,,
2025-06-05T07:02:56.094+00:00Z,DATA_LEN_BYTE_RECV,,LEN_0x26,38,,,,,,,,,,,,,,,,,,,,
2025-06-05T07:02:56.123+00:00Z,DATA_FRAME_RECV_FULL,129,DATA_FRAME,38,37,-94,,,,,,,,,,,,,,,,,,
2025-06-05T07:02:56.133+00:00Z,DATA_ACK_SENT_OK,,,,,,129,0xaa,,,,,,,,,,,,,,,,
2025-06-05T07:02:56.134+00:00Z,DECODE_SUCCESS,129,,,37,,,,True,1134,Msg #90,1749106975.0,0.891,-0.326,0.36,0.0,0.0,0.0,-42.0,-61.2,0.0,35.14752960205078,129.02679443359375,135.0
2025-06-05T07:02:57.589+00:00Z,CTRL_PKT_RECV,130,0x50,,,,,,,,,,,,,,,,,,,,,
2025-06-05T07:02:57.601+00:00Z,SEND_PERMIT_ACK_SENT_OK,,,,,,130,0x55,,,,,,,,,,,,,,,,
2025-06-05T07:02:58.231+00:00Z,DATA_LEN_BYTE_RECV,,LEN_0x26,38,,,,,,,,,,,,,,,,,,,,
2025-06-05T07:02:58.260+00:00Z,DATA_FRAME_RECV_FULL,130,DATA_FRAME,38,37,-94,,,,,,,,,,,,,,,,,,
2025-06-05T07:02:58.273+00:00Z,DATA_ACK_SENT_OK,,,,,,130,0xaa,,,,,,,,,,,,,,,,
2025-06-05T07:02:58.274+00:00Z,DECODE_SUCCESS,130,,,37,,,,True,1274,Msg #91,1749106977.0,0.89,-0.327,0.359,0.0,0.0,0.0,-42.0,-61.2,0.0,35.147525787353516,129.02679443359375,135.5
2025-06-05T07:03:07.091+00:00Z,CTRL_PKT_RECV,131,0x50,,,,,,,,,,,,,,,,,,,,,
2025-06-05T07:03:07.101+00:00Z,SEND_PERMIT_ACK_SENT_OK,,,,,,131,0x55,,,,,,,,,,,,,,,,
2025-06-05T07:03:25.195+00:00Z,CTRL_PKT_RECV,133,0x50,,,,,,,,,,,,,,,,,,,,,
2025-06-05T07:03:25.205+00:00Z,SEND_PERMIT_ACK_SENT_OK,,,,,,133,0x55,,,,,,,,,,,,,,,,
2025-06-05T07:03:25.838+00:00Z,DATA_LEN_BYTE_RECV,,LEN_0x26,38,,,,,,,,,,,,,,,,,,,,
2025-06-05T07:03:25.867+00:00Z,DATA_FRAME_RECV_FULL,133,DATA_FRAME,38,37,-94,,,,,,,,,,,,,,,,,,
2025-06-05T07:03:25.877+00:00Z,DATA_ACK_SENT_OK,,,,,,133,0xaa,,,,,,,,,,,,,,,,
2025-06-05T07:03:25.878+00:00Z,DECODE_SUCCESS,133,,,37,,,,True,1878,Msg #92,1749107004.0,0.889,-0.324,0.36,0.0,0.0,0.0,-42.0,-61.2,0.0,35.147518157958984,129.02679443359375,136.8
2025-06-05T07:03:27.334+00:00Z,CTRL_PKT_RECV,134,0x50,,,,,,,,,,,,,,,,,,,,,
2025-06-05T07:03:27.349+00:00Z,SEND_PERMIT_ACK_SENT_OK,,,,,,134,0x55,,,,,,,,,,,,,,,,
2025-06-05T07:03:27.978+00:00Z,DATA_LEN_BYTE_RECV,,LEN_0x26,38,,,,,,,,,,,,,,,,,,,,
2025-06-05T07:03:28.007+00:00Z,DATA_FRAME_RECV_FULL,134,DATA_FRAME,38,37,-94,,,,,,,,,,,,,,,,,,
2025-06-05T07:03:28.017+00:00Z,DATA_ACK_SENT_OK,,,,,,134,0xaa,,,,,,,,,,,,,,,,
2025-06-05T07:03:28.018+00:00Z,DECODE_SUCCESS,134,,,37,,,,True,1018,Msg #93,1749107007.0,0.889,-0.327,0.363,0.0,0.0,0.0,-42.0,-61.2,0.0,35.147518157958984,129.02679443359375,136.8
2025-06-05T07:03:29.475+00:00Z,CTRL_PKT_RECV,135,0x50,,,,,,,,,,,,,,,,,,,,,
2025-06-05T07:03:29.485+00:00Z,SEND_PERMIT_ACK_SENT_OK,,,,,,135,0x55,,,,,,,,,,,,,,,,
2025-06-05T07:03:38.523+00:00Z,CTRL_PKT_RECV,136,0x50,,,,,,,,,,,,,,,,,,,,,
2025-06-05T07:03:38.533+00:00Z,SEND_PERMIT_ACK_SENT_OK,,,,,,136,0x55,,,,,,,,,,,,,,,,
2025-06-05T07:03:39.165+00:00Z,DATA_LEN_BYTE_RECV,,LEN_0x26,38,,,,,,,,,,,,,,,,,,,,
2025-06-05T07:03:39.194+00:00Z,DATA_FRAME_RECV_FULL,136,DATA_FRAME,38,37,-93,,,,,,,,,,,,,,,,,,
2025-06-05T07:03:39.205+00:00Z,DATA_ACK_SENT_OK,,,,,,136,0xaa,,,,,,,,,,,,,,,,
2025-06-05T07:03:39.206+00:00Z,DECODE_SUCCESS,136,,,37,,,,True,1206,Msg #94,1749107018.0,0.891,-0.327,0.362,0.0,0.0,0.0,-42.0,-61.2,0.0,35.14752197265625,129.02679443359375,136.4
2025-06-05T07:03:40.655+00:00Z,CTRL_PKT_RECV,137,0x50,,,,,,,,,,,,,,,,,,,,,
2025-06-05T07:03:40.665+00:00Z,SEND_PERMIT_ACK_SENT_OK,,,,,,137,0x55,,,,,,,,,,,,,,,,
2025-06-05T07:03:41.297+00:00Z,DATA_LEN_BYTE_RECV,,LEN_0x26,38,,,,,,,,,,,,,,,,,,,,
2025-06-05T07:03:41.326+00:00Z,DATA_FRAME_RECV_FULL,137,DATA_FRAME,38,37,-93,,,,,,,,,,,,,,,,,,
2025-06-05T07:03:41.337+00:00Z,DATA_ACK_SENT_OK,,,,,,137,0xaa,,,,,,,,,,,,,,,,
2025-06-05T07:03:41.338+00:00Z,DECODE_SUCCESS,137,,,37,,,,True,1338,Msg #95,1749107020.0,0.891,-0.326,0.358,0.0,0.0,0.0,-42.0,-61.2,0.0,35.14752197265625,129.02679443359375,136.6
2025-06-05T07:03:42.794+00:00Z,CTRL_PKT_RECV,138,0x50,,,,,,,,,,,,,,,,,,,,,
2025-06-05T07:03:42.805+00:00Z,SEND_PERMIT_ACK_SENT_OK,,,,,,138,0x55,,,,,,,,,,,,,,,,
2025-06-05T07:03:43.436+00:00Z,DATA_LEN_BYTE_RECV,,LEN_0x26,38,,,,,,,,,,,,,,,,,,,,
2025-06-05T07:03:43.465+00:00Z,DATA_FRAME_RECV_FULL,138,DATA_FRAME,38,37,-93,,,,,,,,,,,,,,,,,,
2025-06-05T07:03:43.477+00:00Z,DATA_ACK_SENT_OK,,,,,,138,0xaa,,,,,,,,,,,,,,,,
2025-06-05T07:03:43.478+00:00Z,DECODE_SUCCESS,138,,,37,,,,True,1478,Msg #96,1749107022.0,0.891,-0.326,0.361,0.0,0.0,0.0,-42.0,-61.2,0.0,35.14752197265625,129.02679443359375,136.6
2025-06-05T07:03:44.936+00:00Z,CTRL_PKT_RECV,139,0x50,,,,,,,,,,,,,,,,,,,,,
