decoded_ts,decoded_accel_ax,decoded_accel_ay,decoded_accel_az,decoded_gyro_gx,decoded_gyro_gy,decoded_gyro_gz,decoded_angle_roll,decoded_angle_pitch,decoded_angle_yaw,decoded_gps_lat,decoded_gps_lon,decoded_gps_altitude
1749536149.0,0.369,-0.555,0.782,0.0,-0.1,-0.1,-35.3,-21.1,0.0,35.14735794067383,129.0233917236328,112.8
1749536156.0,0.369,-0.555,0.781,0.0,0.0,-0.1,-35.3,-21.1,0.0,35.14737319946289,129.02333068847656,111.8
1749536163.0,0.369,-0.556,0.779,0.0,0.0,0.0,-35.3,-21.1,0.0,35.14738082885742,129.0233154296875,108.3
1749536170.0,0.371,-0.554,0.778,-0.1,0.0,0.0,-35.4,-21.1,0.0,35.14738845825195,129.02330017089844,106.3
1749536178.0,0.37,-0.555,0.78,-0.1,0.0,0.0,-35.4,-21.1,0.0,35.14738845825195,129.02328491210938,104.8
1749536185.0,0.37,-0.553,0.781,0.0,-0.1,0.0,-35.4,-21.1,0.0,35.147430419921875,129.0231475830078,105.9
1749536192.0,0.37,-0.555,0.78,0.0,-0.1,0.0,-35.4,-21.1,0.0,35.14743423461914,129.02313232421875,106.0
1749536199.0,0.368,-0.556,0.78,0.0,0.0,0.0,-35.4,-21.1,0.0,35.147438049316406,129.0231170654297,106.2
1749536206.0,0.369,-0.556,0.781,0.0,0.0,0.0,-35.4,-21.1,0.0,35.14744186401367,129.0231170654297,106.5
1749536213.0,0.37,-0.553,0.779,0.0,0.0,0.1,-35.4,-21.1,0.0,35.14744567871094,129.02310180664062,106.5
1749536220.0,0.37,-0.552,0.78,0.0,-0.1,0.0,-35.4,-21.1,0.0,35.14744567871094,129.02310180664062,106.1
1749536533.0,0.375,-0.55,0.781,0.0,0.0,0.0,-35.1,-21.4,0.6,35.14763641357422,129.02362060546875,143.2
1749536572.0,0.372,-0.275,0.912,-3.9,0.3,2.0,-25.3,-22.8,-91.9,35.14741134643555,129.02317810058594,100.1
1749536579.0,0.37,-0.293,0.935,-3.7,0.1,-1.7,-25.3,-22.8,-91.9,35.14742660522461,129.02317810058594,100.8
1749536587.0,0.38,-0.329,0.922,-3.4,3.4,-8.4,-25.2,-22.8,-92.0,35.14744186401367,129.02317810058594,101.7
1749536594.0,0.418,-0.352,0.889,-5.0,5.9,-9.7,-25.2,-22.8,-92.2,35.1474494934082,129.023193359375,102.9
1749536601.0,0.419,-0.411,0.874,-5.7,6.8,-12.9,-25.2,-22.8,-92.3,35.1474494934082,129.023193359375,103.8
1749536608.0,0.42,-0.439,0.854,-6.9,6.5,-11.0,-25.2,-22.8,-92.5,35.1474494934082,129.023193359375,104.8
1749536616.0,0.428,-0.431,0.83,-7.6,5.6,-5.5,-25.3,-22.8,-92.5,35.14745330810547,129.02320861816406,106.5
1749536623.0,0.44,-0.428,0.808,-6.7,3.6,-0.8,-25.4,-22.8,-92.6,35.1474494934082,129.02320861816406,106.9
1749536630.0,0.445,-0.444,0.794,-3.9,1.1,-0.9,-25.4,-22.8,-92.6,35.1474494934082,129.02320861816406,107.4
1749536638.0,0.424,-0.462,0.816,-2.5,-2.1,2.8,-25.5,-22.8,-92.5,35.1474494934082,129.02320861816406,107.6
1749536645.0,0.414,-0.501,0.812,-0.5,-2.9,3.2,-25.6,-22.8,-92.5,35.14745330810547,129.02320861816406,108.3
1749536652.0,0.409,-0.5,0.81,-0.6,-4.0,6.7,-25.7,-22.8,-92.4,35.14745330810547,129.02320861816406,108.7
1749536659.0,0.396,-0.496,0.814,-0.9,-4.6,9.8,-25.8,-22.8,-92.3,35.14745330810547,129.02320861816406,108.2
1749536667.0,0.392,-0.496,0.805,-0.3,-4.0,8.9,-25.9,-22.8,-92.2,35.147457122802734,129.02320861816406,108.6
1749536674.0,0.341,-0.5,0.848,0.5,-5.6,10.3,-26.0,-22.8,-92.1,35.147457122802734,129.02320861816406,108.4
1749536681.0,0.302,-0.537,0.845,1.5,-3.1,7.0,-26.1,-22.7,-92.0,35.1474609375,129.02320861816406,107.9
1749536689.0,0.342,-0.462,0.807,-1.4,-0.3,8.7,-26.2,-22.7,-91.9,35.147464752197266,129.02320861816406,108.2
1749536696.0,0.365,-0.413,0.807,-2.8,-0.1,5.3,-26.2,-22.6,-91.8,35.1474609375,129.02320861816406,108.7
1749536703.0,0.339,-0.437,0.847,-0.8,0.4,-5.6,-26.2,-22.6,-91.9,35.147464752197266,129.02320861816406,108.1
1749536710.0,0.363,-0.444,0.837,0.6,2.5,-9.8,-26.2,-22.6,-92.0,35.14746856689453,129.02320861816406,107.6
1749536718.0,0.411,-0.437,0.832,0.9,2.8,-9.3,-26.2,-22.7,-92.1,35.147464752197266,129.023193359375,106.4
1749536725.0,0.421,-0.458,0.843,1.4,2.3,-11.5,-26.1,-22.7,-92.2,35.14745330810547,129.023193359375,105.7
1749536732.0,0.43,-0.456,0.852,0.4,2.2,-9.8,-26.1,-22.7,-92.3,35.1474494934082,129.023193359375,104.8
1749536740.0,0.416,-0.462,0.857,0.6,2.5,-7.0,-26.1,-22.7,-92.4,35.1474494934082,129.02317810058594,104.3
1749536747.0,0.417,-0.44,0.84,1.3,2.6,-2.4,-26.1,-22.7,-92.4,35.147457122802734,129.02317810058594,102.9
1749536754.0,0.443,-0.388,0.817,2.1,0.3,5.0,-26.1,-22.8,-92.4,35.1474609375,129.0231475830078,101.9
1749536761.0,0.44,-0.373,0.841,4.0,-3.6,7.3,-26.0,-22.8,-92.3,35.147457122802734,129.0231475830078,100.4
1749536769.0,0.392,-0.399,0.899,5.4,-6.1,5.9,-26.0,-22.8,-92.2,35.1474609375,129.02313232421875,99.2
1749536776.0,0.372,-0.42,0.913,4.3,-4.1,5.7,-26.0,-22.8,-92.1,35.1474609375,129.0231170654297,97.4
1749536783.0,0.374,-0.405,0.889,0.9,-1.1,6.5,-26.0,-22.8,-92.1,35.147464752197266,129.02313232421875,97.0
1749536791.0,0.379,-0.379,0.859,-2.0,0.7,5.3,-26.0,-22.7,-92.0,35.147464752197266,129.0231170654297,96.3
1749536798.0,0.381,-0.378,0.838,-2.2,1.2,1.1,-26.0,-22.7,-92.0,35.147464752197266,129.0231170654297,95.4
1749536805.0,0.375,-0.399,0.841,-0.6,0.4,-3.2,-26.0,-22.7,-92.1,35.147464752197266,129.0231170654297,94.7
1749536812.0,0.375,-0.415,0.856,1.4,0.0,-4.7,-25.9,-22.7,-92.1,35.1474609375,129.0231170654297,95.0
1749536820.0,0.391,-0.426,0.86,2.8,0.0,-3.9,-25.9,-22.7,-92.1,35.147464752197266,129.0231170654297,94.2
1749536827.0,0.416,-0.437,0.857,2.3,0.5,-3.2,-25.9,-22.7,-92.2,35.147464752197266,129.0231170654297,94.8
1749536834.0,0.422,-0.446,0.847,0.8,0.7,-3.2,-25.9,-22.7,-92.2,35.14745330810547,129.0231170654297,94.7
1749536842.0,0.422,-0.437,0.851,-1.0,0.4,-1.0,-25.9,-22.8,-92.2,35.14745330810547,129.0231170654297,94.8
1749536849.0,0.411,-0.395,0.867,-1.4,0.6,1.0,-25.9,-22.8,-92.2,35.14745330810547,129.02310180664062,95.4
1749536856.0,0.394,-0.377,0.875,-0.1,2.1,1.7,-25.9,-22.7,-92.2,35.1474494934082,129.02310180664062,95.8
1749536863.0,0.38,-0.369,0.867,0.9,3.8,-1.2,-25.8,-22.7,-92.2,35.14744567871094,129.02310180664062,96.3
1749536871.0,0.383,-0.326,0.86,0.5,2.9,-1.7,-25.8,-22.7,-92.3,35.1474494934082,129.02310180664062,97.0
1749536878.0,0.375,-0.281,0.902,0.8,-0.6,-1.2,-25.7,-22.7,-92.3,35.14746856689453,129.0230712890625,98.1
1749536885.0,0.379,-0.275,0.944,2.1,-2.3,-2.9,-25.5,-22.7,-92.3,35.147483825683594,129.02305603027344,99.6
1749536893.0,0.415,-0.312,0.952,1.8,-1.0,-6.0,-25.4,-22.7,-92.4,35.147483825683594,129.0230712890625,101.1
1749536900.0,0.458,-0.348,0.913,-1.4,1.5,-8.7,-25.4,-22.8,-92.4,35.14747619628906,129.02305603027344,102.8
1749536907.0,0.476,-0.405,0.882,-5.0,1.5,-5.6,-25.4,-22.8,-92.5,35.1474723815918,129.0230712890625,106.2
1749536914.0,0.432,-0.572,0.849,-5.2,1.6,-8.8,-25.5,-22.8,-92.6,35.14746856689453,129.0230712890625,107.2
1749536922.0,0.38,-0.631,0.829,-9.7,1.8,-1.5,-25.7,-22.8,-92.6,35.147464752197266,129.0230712890625,108.0
1749536929.0,0.395,-0.54,0.737,-14.5,5.0,8.4,-25.9,-22.7,-92.6,35.1474609375,129.02305603027344,109.6
1749536936.0,0.38,-0.492,0.704,-11.7,4.2,8.9,-26.2,-22.7,-92.5,35.1474609375,129.02305603027344,108.3
1749536944.0,0.336,-0.511,0.737,-2.9,1.7,0.9,-26.3,-22.6,-92.5,35.1474609375,129.02304077148438,108.6
1749536951.0,0.335,-0.496,0.774,4.0,-1.5,1.5,-26.3,-22.6,-92.5,35.1474609375,129.02304077148438,108.9
1749536958.0,0.377,-0.429,0.806,7.7,-4.2,5.1,-26.3,-22.6,-92.4,35.147457122802734,129.0230255126953,109.1
1749536965.0,0.382,-0.416,0.839,10.4,-6.2,3.0,-26.2,-22.6,-92.4,35.147464752197266,129.0230255126953,109.3
1749536973.0,0.382,-0.444,0.898,10.8,-6.5,-2.0,-26.1,-22.7,-92.3,35.14746856689453,129.02301025390625,109.4
1749536980.0,0.407,-0.466,0.926,6.9,-3.9,-4.4,-26.0,-22.7,-92.4,35.14744567871094,129.0230255126953,109.2
1749536988.0,0.418,-0.436,0.908,0.1,0.7,-2.3,-26.0,-22.7,-92.4,35.14742660522461,129.02305603027344,109.1
1749537002.0,0.408,-0.378,0.829,-3.7,6.6,-2.1,-26.0,-22.7,-92.5,35.14741897583008,129.0230712890625,108.9
1749537009.0,0.406,-0.392,0.809,-0.6,4.5,-2.8,-26.0,-22.7,-92.5,35.14741897583008,129.0230712890625,108.8
1749537016.0,0.406,-0.393,0.822,2.1,0.0,-0.7,-26.0,-22.7,-92.5,35.14741134643555,129.02308654785156,108.8
1749537038.0,0.406,-0.424,0.898,3.4,-2.9,0.9,-25.9,-22.8,-92.4,35.147430419921875,129.02305603027344,108.7
1749537059.0,0.403,-0.383,0.833,-1.5,2.2,3.5,-25.9,-22.7,-92.4,35.14744186401367,129.02305603027344,108.7
1749537072.0,0.389,-0.395,0.855,1.3,-1.4,0.3,-25.9,-22.7,-92.4,35.14744567871094,129.02305603027344,108.6
1749537079.0,0.389,-0.406,0.869,2.0,-1.9,-0.1,-25.8,-22.7,-92.3,35.14745330810547,129.02304077148438,108.4
1749537100.0,0.396,-0.435,0.846,-1.1,1.1,-1.5,-25.8,-22.7,-92.4,35.147464752197266,129.02304077148438,108.3
1749537108.0,0.39,-0.421,0.862,-2.5,0.3,-0.3,-25.9,-22.7,-92.4,35.147464752197266,129.02304077148438,108.2
1749537166.0,0.384,-0.408,0.845,-0.1,0.3,2.8,-25.9,-22.7,-92.3,35.147544860839844,129.02304077148438,107.4
1749539968.0,0.291,-0.556,0.816,0.0,0.0,0.0,-34.2,-16.4,18.6,35.14400100708008,129.01318359375,144.2
1749539975.0,0.289,-0.556,0.815,0.0,0.0,0.0,-34.2,-16.4,18.6,35.14404296875,129.01318359375,144.5
1749539982.0,0.291,-0.554,0.816,0.0,0.0,0.0,-34.2,-16.4,18.6,35.14405822753906,129.01316833496094,144.8
1749539989.0,0.291,-0.556,0.816,0.0,0.0,0.0,-34.2,-16.4,18.6,35.14408493041992,129.01316833496094,144.7
1749539996.0,0.292,-0.557,0.817,0.0,0.0,0.0,-34.2,-16.4,18.6,35.144100189208984,129.01318359375,144.9
1749540004.0,0.293,-0.558,0.814,0.0,0.0,0.0,-34.2,-16.4,18.6,35.144107818603516,129.01315307617188,145.1
1749540011.0,0.293,-0.556,0.814,0.0,0.0,0.0,-34.2,-16.4,18.6,35.144126892089844,129.01315307617188,145.8
1749540018.0,0.292,-0.556,0.819,0.0,0.0,0.0,-34.2,-16.4,18.6,35.14413070678711,129.01316833496094,146.1
1749540025.0,0.291,-0.555,0.818,0.0,0.0,0.0,-34.2,-16.4,18.6,35.14413070678711,129.01315307617188,145.8
1749540032.0,0.292,-0.556,0.816,0.0,0.0,0.0,-34.2,-16.4,18.6,0.0,0.0,0.0
1749540039.0,0.29,-0.556,0.815,0.0,0.0,0.0,-34.2,-16.4,18.6,0.0,0.0,0.0
1749540045.0,0.29,-0.557,0.816,0.0,0.0,0.0,-34.2,-16.4,18.6,35.14414978027344,129.01315307617188,145.7
1749540053.0,0.291,-0.557,0.813,0.0,0.0,0.0,-34.2,-16.4,18.6,35.14414978027344,129.0131378173828,145.4
1749540060.0,0.291,-0.556,0.814,0.0,0.0,0.0,-34.2,-16.4,18.6,35.144161224365234,129.01312255859375,145.2
1749540067.0,0.292,-0.557,0.816,0.0,0.0,0.0,-34.2,-16.4,18.6,35.1441764831543,129.01312255859375,144.5
1749540074.0,0.291,-0.557,0.815,0.0,0.0,0.0,-34.2,-16.4,18.6,35.144161224365234,129.01312255859375,144.2
1749540081.0,0.291,-0.558,0.816,0.0,0.0,0.0,-34.2,-16.4,18.6,35.14417266845703,129.0131378173828,143.8
1749540088.0,0.292,-0.557,0.813,0.0,0.0,0.0,-34.2,-16.4,18.6,35.14420700073242,129.0131072998047,143.8
1749540095.0,0.292,-0.556,0.815,0.0,0.0,0.0,-34.2,-16.4,18.6,35.144256591796875,129.0131072998047,145.1
1749540102.0,0.29,-0.557,0.815,0.1,0.0,0.0,-34.2,-16.4,18.6,35.14424514770508,129.0131072998047,145.4
1749540110.0,0.291,-0.556,0.814,0.0,0.0,0.0,-34.2,-16.4,18.6,35.144283294677734,129.01312255859375,146.7
1749540117.0,0.29,-0.558,0.818,0.0,0.0,0.0,-34.2,-16.4,18.6,35.14434814453125,129.01312255859375,148.9
1749540124.0,0.29,-0.556,0.819,0.0,0.0,0.0,-34.2,-16.4,18.6,35.144344329833984,129.0131072998047,151.3
1749540138.0,0.291,-0.554,0.816,0.0,0.0,0.0,-34.2,-16.4,18.6,35.14432144165039,129.01307678222656,153.1
1749540145.0,0.291,-0.556,0.815,0.0,0.0,0.0,-34.2,-16.4,18.6,35.14430618286133,129.01303100585938,153.9
1749540152.0,0.291,-0.556,0.815,0.0,0.0,0.0,-34.2,-16.4,18.6,35.14430618286133,129.0130157470703,155.4
1749540160.0,0.291,-0.557,0.813,0.0,0.0,0.0,-34.2,-16.4,18.6,35.144287109375,129.0129852294922,156.4
1749540175.0,0.292,-0.559,0.819,0.0,0.0,0.0,-34.2,-16.4,18.6,35.144187927246094,129.0128936767578,158.1
1749540182.0,0.292,-0.558,0.815,0.0,0.0,0.0,-34.2,-16.4,18.6,35.14418029785156,129.0128631591797,156.6
1749540189.0,0.291,-0.557,0.816,0.0,0.0,0.0,-34.2,-16.4,18.6,35.1441764831543,129.0128173828125,156.9
1749540196.0,0.291,-0.556,0.815,0.0,0.0,0.0,-34.2,-16.4,18.6,35.1441650390625,129.0128173828125,157.1
1749540210.0,0.291,-0.557,0.815,0.0,0.0,0.0,-34.2,-16.4,18.6,35.14405059814453,129.0128936767578,157.9
1749540217.0,0.294,-0.555,0.814,0.0,0.0,0.0,-34.2,-16.4,18.6,35.144004821777344,129.0128936767578,158.2
1749540224.0,0.292,-0.557,0.818,0.0,0.0,0.0,-34.2,-16.4,18.6,35.14397048950195,129.0128936767578,158.6
1749540231.0,0.292,-0.557,0.816,0.0,0.0,0.0,-34.2,-16.4,18.6,35.14393615722656,129.01290893554688,159.2
1749540238.0,0.292,-0.557,0.816,0.0,0.0,0.0,-34.2,-16.4,18.6,35.143917083740234,129.01292419433594,160.1
1749540245.0,0.292,-0.557,0.816,0.0,0.0,0.0,-34.2,-16.4,18.6,35.14390563964844,129.01290893554688,160.5
1749540252.0,0.293,-0.556,0.816,0.0,0.0,0.0,-34.2,-16.4,18.6,35.14390182495117,129.01290893554688,161.0
1749540259.0,0.293,-0.557,0.815,0.0,0.0,0.0,-34.2,-16.4,18.6,35.14391326904297,129.01290893554688,161.5
1749540267.0,0.291,-0.558,0.815,0.0,0.0,0.0,-34.2,-16.4,18.6,35.143924713134766,129.01290893554688,162.4
1749540274.0,0.293,-0.559,0.816,0.0,0.0,0.0,-34.2,-16.4,18.6,35.1439323425293,129.01290893554688,162.7
1749540281.0,0.293,-0.557,0.814,0.0,0.0,0.0,-34.2,-16.4,18.6,35.14396667480469,129.01290893554688,163.0
1749540288.0,0.293,-0.555,0.815,0.0,0.0,0.0,-34.2,-16.4,18.6,35.14378356933594,129.01295471191406,163.3
1749540295.0,0.292,-0.555,0.815,0.0,0.0,0.0,-34.2,-16.4,18.6,35.14380645751953,129.01296997070312,161.6
1749540302.0,0.291,-0.558,0.817,0.0,0.0,0.0,-34.2,-16.4,18.6,35.143821716308594,129.01296997070312,162.0
1749540539.0,0.268,-0.609,0.786,0.0,0.0,0.0,-37.7,-15.1,-75.2,35.14505386352539,129.0133819580078,179.2
1749540542.0,0.268,-0.608,0.784,0.0,0.0,0.0,-37.7,-15.1,-75.2,35.145042419433594,129.01341247558594,0.0
1749540545.0,0.269,-0.607,0.783,0.0,0.0,0.0,-37.7,-15.1,-75.2,0.0,0.0,0.0
1749540548.0,0.268,-0.607,0.786,0.0,0.0,0.0,-37.7,-15.1,-75.2,0.0,0.0,0.0
1749540551.0,0.268,-0.607,0.785,0.0,0.0,0.0,-37.7,-15.1,-75.2,0.0,0.0,0.0
1749540554.0,0.267,-0.608,0.786,0.0,0.0,0.0,-37.7,-15.1,-75.2,35.145362854003906,129.0135498046875,179.5
1749540557.0,0.267,-0.606,0.786,0.0,0.0,0.0,-37.7,-15.1,-75.2,35.1453742980957,129.0135498046875,179.4
1749540560.0,0.265,-0.607,0.784,0.0,0.0,0.0,-37.7,-15.1,-75.2,35.14537811279297,129.01356506347656,179.3
1749540562.0,0.267,-0.608,0.782,0.0,0.0,0.0,-37.7,-15.1,-75.2,35.145381927490234,129.01358032226562,179.3
1749540565.0,0.267,-0.607,0.782,0.0,0.0,0.0,-37.7,-15.1,-75.2,0.0,0.0,0.0
1749540568.0,0.268,-0.607,0.785,0.0,0.0,0.0,-37.7,-15.1,-75.2,0.0,0.0,0.0
1749540571.0,0.268,-0.606,0.783,0.0,0.0,0.0,-37.7,-15.1,-75.2,0.0,0.0,0.0
1749540574.0,0.266,-0.609,0.784,0.0,0.0,0.0,-37.7,-15.1,-75.2,35.14561080932617,129.01364135742188,179.3
1749540577.0,0.268,-0.608,0.786,0.0,0.0,0.0,-37.7,-15.1,-75.2,0.0,0.0,179.3
1749540580.0,0.269,-0.607,0.784,0.0,0.0,0.0,-37.7,-15.1,-75.2,35.14588165283203,129.0137176513672,179.2
1749540583.0,0.266,-0.607,0.783,0.0,0.0,0.0,-37.7,-15.1,-75.2,35.145965576171875,129.01373291015625,179.2
1749540586.0,0.27,-0.607,0.787,0.0,0.0,0.0,-37.7,-15.1,-75.2,35.14609146118164,129.01373291015625,179.2
1749540589.0,0.268,-0.606,0.786,0.0,0.0,0.0,-37.7,-15.1,-75.2,35.14631271362305,129.0137939453125,179.2
1749540592.0,0.267,-0.606,0.786,0.0,0.0,0.0,-37.7,-15.1,-75.2,0.0,0.0,0.0
1749540594.0,0.268,-0.606,0.786,0.0,0.0,0.0,-37.7,-15.1,-75.2,0.0,0.0,0.0
1749540597.0,0.267,-0.608,0.784,0.0,0.0,0.0,-37.7,-15.1,-75.2,0.0,0.0,0.0
1749540600.0,0.268,-0.609,0.784,0.0,0.0,0.0,-37.7,-15.1,-75.2,0.0,0.0,0.0
1749540603.0,0.269,-0.609,0.788,0.0,0.0,0.0,-37.7,-15.1,-75.2,35.14628982543945,129.0137481689453,179.1
1749540606.0,0.268,-0.608,0.79,0.0,0.0,0.0,-37.7,-15.1,-75.2,35.14616394042969,129.01365661621094,179.0
1749540609.0,0.268,-0.607,0.787,0.0,0.0,0.0,-37.7,-15.1,-75.2,35.14608383178711,129.01356506347656,178.9
1749540618.0,0.268,-0.608,0.787,0.0,0.0,0.0,-37.7,-15.1,-75.2,35.14596176147461,129.01348876953125,178.7
1749540621.0,0.266,-0.608,0.782,0.0,0.0,0.0,-37.7,-15.1,-75.2,35.14594650268555,129.0134735107422,178.6
1749540630.0,0.267,-0.607,0.791,0.0,0.0,0.0,-37.7,-15.1,-75.2,35.14592361450195,129.01344299316406,178.4
1749540633.0,0.266,-0.607,0.788,0.0,0.0,0.0,-37.7,-15.1,-75.2,35.14591979980469,129.01341247558594,178.2
1749540636.0,0.268,-0.607,0.784,0.0,0.0,0.0,-37.7,-15.1,-75.2,35.14600372314453,129.01339721679688,178.0
1749540639.0,0.267,-0.607,0.785,0.0,0.0,0.0,-37.7,-15.1,-75.2,35.14610290527344,129.0133819580078,177.9
1749540642.0,0.267,-0.608,0.784,0.0,0.0,0.0,-37.7,-15.1,-75.2,35.14570999145508,129.01356506347656,178.0
1749540645.0,0.266,-0.608,0.782,0.0,0.0,0.0,-37.7,-15.1,-75.2,35.14548110961914,129.01365661621094,177.7
1749540648.0,0.268,-0.606,0.784,0.0,0.0,0.0,-37.7,-15.1,-75.2,35.145355224609375,129.01370239257812,177.5
1749540651.0,0.268,-0.606,0.785,0.0,0.0,0.0,-37.7,-15.1,-75.2,35.1452522277832,129.0137176513672,177.4
1749540654.0,0.268,-0.607,0.784,0.0,0.0,0.0,-37.7,-15.1,-75.2,35.145111083984375,129.01376342773438,177.2
1749540657.0,0.267,-0.607,0.787,0.0,0.0,0.0,-37.7,-15.1,-75.2,35.14506912231445,129.0137939453125,177.0
1749540660.0,0.267,-0.607,0.785,0.0,0.0,0.0,-37.7,-15.1,-75.2,35.14503479003906,129.0138397216797,176.8
1749540663.0,0.266,-0.608,0.782,0.0,0.0,0.0,-37.7,-15.1,-75.2,35.14501953125,129.0138397216797,176.7
1749540666.0,0.269,-0.607,0.785,0.0,0.0,0.0,-37.7,-15.1,-75.2,0.0,0.0,177.3
1749540668.0,0.27,-0.607,0.784,0.0,0.0,0.0,-37.7,-15.1,-75.2,35.144935607910156,129.0138702392578,177.1
1749540671.0,0.268,-0.61,0.786,0.0,0.0,0.0,-37.7,-15.1,-75.2,35.14488220214844,129.0138397216797,177.1
1749540674.0,0.268,-0.608,0.788,0.0,0.0,0.0,-37.7,-15.1,-75.2,0.0,0.0,0.0
1749540677.0,0.268,-0.608,0.786,0.0,0.0,0.0,-37.7,-15.1,-75.2,35.14484786987305,129.0138397216797,0.0
1749540764.0,0.267,-0.607,0.784,0.0,0.0,0.0,-37.7,-15.1,-75.2,35.14454650878906,129.0132598876953,176.9
1749540979.0,0.268,-0.609,0.785,0.0,0.0,0.0,-37.7,-15.0,-75.0,35.14430618286133,129.01307678222656,149.2
1749540982.0,0.269,-0.609,0.786,0.0,0.0,0.0,-37.7,-15.0,-75.0,35.14430618286133,129.01307678222656,149.2
1749540985.0,0.268,-0.606,0.786,0.0,0.0,0.0,-37.7,-15.0,-75.0,35.14430618286133,129.0130615234375,149.2
1749540988.0,0.267,-0.607,0.787,0.0,0.0,0.0,-37.7,-15.0,-75.0,35.144309997558594,129.01307678222656,149.2
1749540991.0,0.268,-0.606,0.787,0.0,0.0,0.0,-37.7,-15.0,-75.0,35.14431381225586,129.01307678222656,149.2
1749540994.0,0.267,-0.607,0.784,0.0,0.0,0.0,-37.7,-15.0,-75.0,35.14430236816406,129.01307678222656,149.2
1749540997.0,0.267,-0.608,0.788,0.0,0.0,0.0,-37.7,-15.0,-75.0,35.144290924072266,129.0130615234375,149.2
1749541000.0,0.266,-0.607,0.787,0.0,0.0,0.0,-37.7,-15.0,-75.0,35.14429473876953,129.0130615234375,149.3
1749541003.0,0.267,-0.606,0.784,0.0,0.0,0.0,-37.7,-15.0,-75.0,35.1442985534668,129.0130615234375,149.3
1749541139.0,0.268,-0.605,0.783,0.0,0.0,0.0,-37.7,-15.1,-75.0,35.14418411254883,129.0131072998047,113.0
1749541141.0,0.267,-0.606,0.785,0.0,0.0,0.0,-37.7,-15.1,-75.0,35.144187927246094,129.01309204101562,112.7
1749541143.0,0.267,-0.607,0.786,0.0,0.0,0.0,-37.7,-15.1,-75.0,35.144203186035156,129.0131072998047,111.6
1749541146.0,0.269,-0.606,0.786,0.0,0.0,0.0,-37.7,-15.1,-75.0,35.144222259521484,129.01312255859375,111.0
1749541148.0,0.268,-0.606,0.785,0.0,0.0,0.0,-37.7,-15.1,-75.0,35.14423370361328,129.0131378173828,110.6
1749541150.0,0.269,-0.606,0.786,0.0,0.0,0.0,-37.7,-15.1,-75.0,35.14424514770508,129.01315307617188,110.1
1749541152.0,0.269,-0.609,0.785,0.0,0.0,0.0,-37.7,-15.1,-75.0,35.144256591796875,129.01316833496094,109.1
1749541154.0,0.268,-0.607,0.784,0.0,0.0,0.0,-37.7,-15.1,-75.0,35.144256591796875,129.01318359375,108.3
1749541156.0,0.267,-0.607,0.785,0.0,0.0,0.0,-37.7,-15.1,-75.0,35.14426803588867,129.01318359375,107.7
1749541158.0,0.267,-0.606,0.785,-0.1,0.0,0.0,-37.7,-15.1,-75.0,35.14427947998047,129.01319885253906,106.9
1749541160.0,0.268,-0.606,0.785,0.0,0.0,0.0,-37.7,-15.1,-75.0,35.144287109375,129.01321411132812,106.2
1749541163.0,0.266,-0.608,0.784,0.0,0.0,0.0,-37.7,-15.1,-75.0,35.1442985534668,129.01324462890625,106.1
1749541165.0,0.267,-0.606,0.788,0.0,0.0,0.0,-37.7,-15.1,-75.0,35.144325256347656,129.01324462890625,114.8
1749541171.0,0.267,-0.607,0.782,0.0,0.0,0.0,-37.7,-15.1,-75.0,35.144325256347656,129.01324462890625,114.6
1749541173.0,0.267,-0.606,0.784,0.0,0.0,0.0,-37.7,-15.1,-75.0,35.14432907104492,129.0132598876953,114.3
1749541186.0,0.269,-0.607,0.785,0.0,0.0,0.0,-37.7,-15.1,-75.0,35.14432907104492,129.0132598876953,114.0
1749541193.0,0.266,-0.606,0.783,0.0,0.0,0.0,-37.7,-15.1,-75.0,35.144317626953125,129.01324462890625,113.7
1749541195.0,0.265,-0.606,0.783,0.0,0.0,0.0,-37.7,-15.1,-75.0,35.144317626953125,129.0132598876953,113.3
1749541197.0,0.269,-0.604,0.782,0.0,0.0,0.0,-37.7,-15.1,-75.0,35.14432144165039,129.0132598876953,113.1
1749541199.0,0.267,-0.607,0.785,0.0,0.0,0.0,-37.7,-15.1,-75.0,35.14431381225586,129.01324462890625,112.9
1749541207.0,0.266,-0.606,0.783,0.0,0.0,0.0,-37.7,-15.1,-75.0,35.144287109375,129.01319885253906,113.0
1749541215.0,0.268,-0.605,0.784,0.0,0.0,0.0,-37.7,-15.1,-75.0,35.14427947998047,129.01319885253906,113.9
1749541260.0,0.267,-0.609,0.787,0.0,0.0,0.0,-37.7,-15.1,-75.0,35.14414596557617,129.01303100585938,113.8
1749541502.0,0.428,-0.628,0.687,-0.7,1.8,-1.1,-42.3,-22.3,-6.0,35.14471435546875,129.01284790039062,161.9
1749541505.0,0.426,-0.641,0.689,-0.3,2.8,-2.1,-42.3,-22.3,-6.0,35.144752502441406,129.01283264160156,165.3
1749541514.0,0.417,-0.655,0.68,-0.7,4.4,-1.5,-42.3,-22.3,-6.1,35.14472961425781,129.01280212402344,167.8
1749541521.0,0.413,-0.655,0.675,-1.0,4.3,-0.1,-42.3,-22.3,-6.1,35.14472579956055,129.01278686523438,168.0
1749541524.0,0.41,-0.658,0.666,-0.7,4.0,0.1,-42.4,-22.2,-6.2,35.14470291137695,129.0127716064453,168.0
1749541585.0,0.406,-0.64,0.696,1.3,5.2,2.7,-42.2,-22.1,-6.2,35.14431381225586,129.0126953125,144.7
1749541588.0,0.395,-0.642,0.69,0.6,5.7,2.9,-42.2,-22.0,-6.2,35.14430236816406,129.0126953125,148.3
1749541688.0,0.366,-0.649,0.702,0.0,0.0,0.0,-42.6,-20.9,126.5,0.0,0.0,2.0
1749541695.0,0.364,-0.648,0.702,0.0,0.0,0.0,-42.6,-20.9,126.5,0.0,0.0,0.0
1749541702.0,0.365,-0.649,0.704,0.0,0.0,0.0,-42.6,-20.9,126.5,0.0,0.0,0.0
1749541709.0,0.363,-0.648,0.702,0.0,0.0,0.0,-42.6,-20.9,126.5,0.0,0.0,1.0
1749541716.0,0.365,-0.648,0.704,0.0,0.0,0.0,-42.6,-20.9,126.5,0.0,0.0,0.0
1749541722.0,0.365,-0.648,0.706,0.0,0.0,0.0,-42.6,-20.9,126.5,0.0,0.0,0.0
1749541729.0,0.366,-0.648,0.701,0.0,0.0,0.0,-42.6,-20.9,126.5,0.0,0.0,1.0
1749541736.0,0.365,-0.647,0.703,0.0,0.0,0.0,-42.6,-20.9,126.5,0.0,0.0,0.0
1749541743.0,0.366,-0.649,0.7,0.0,0.0,0.0,-42.6,-20.9,126.5,0.0,0.0,2.0
1749541762.0,0.364,-0.646,0.701,0.0,0.0,0.0,-42.6,-20.9,126.5,0.0,0.0,2.0
1749541769.0,0.366,-0.646,0.703,0.0,0.0,0.0,-42.6,-20.9,126.5,0.0,0.0,0.0
1749541777.0,0.364,-0.647,0.703,0.0,0.0,0.0,-42.6,-20.9,126.5,0.0,0.0,0.0
1749541784.0,0.363,-0.648,0.705,0.0,0.0,0.0,-42.6,-20.9,126.5,0.0,0.0,0.0
1749541791.0,0.367,-0.65,0.705,0.0,0.0,0.0,-42.6,-20.9,126.5,0.0,0.0,0.0
1749541798.0,0.366,-0.649,0.701,0.0,0.0,0.0,-42.6,-20.9,126.5,0.0,0.0,0.0
1749541804.0,0.367,-0.651,0.702,0.0,0.0,0.0,-42.6,-20.9,126.5,0.0,0.0,0.0
1749541823.0,0.365,-0.648,0.703,0.0,0.0,0.0,-42.6,-20.9,126.5,0.0,0.0,0.0
1749541830.0,0.365,-0.648,0.702,0.0,0.0,0.0,-42.6,-20.9,126.5,0.0,0.0,0.0
1749541837.0,0.365,-0.647,0.702,0.0,0.0,0.0,-42.6,-20.9,126.5,0.0,0.0,0.0
1749541843.0,0.365,-0.647,0.702,0.0,0.0,0.0,-42.6,-20.9,126.5,0.0,0.0,0.0
1749541850.0,0.366,-0.649,0.702,0.0,0.0,0.0,-42.6,-20.9,126.5,0.0,0.0,0.0
1749541857.0,0.363,-0.649,0.701,0.0,0.0,0.0,-42.6,-20.9,126.5,0.0,0.0,0.0
1749541864.0,0.365,-0.648,0.705,0.0,0.0,0.0,-42.6,-20.9,126.5,0.0,0.0,0.0
1749541895.0,0.366,-0.647,0.705,0.0,0.0,0.0,-42.6,-20.9,126.5,0.0,0.0,0.0
1749541902.0,0.365,-0.649,0.704,0.0,0.0,0.0,-42.6,-20.9,126.5,0.0,0.0,0.0
1749541908.0,0.365,-0.647,0.706,0.0,0.0,0.0,-42.6,-20.9,126.5,0.0,0.0,0.0
1749541915.0,0.366,-0.646,0.705,0.0,0.0,0.0,-42.6,-20.9,126.5,0.0,0.0,2.0
1749541922.0,0.367,-0.648,0.703,0.0,0.0,0.0,-42.6,-20.9,126.5,0.0,0.0,0.0
1749541929.0,0.366,-0.645,0.704,0.0,0.0,0.0,-42.6,-20.9,126.5,0.0,0.0,1.0
1749541942.0,0.365,-0.647,0.703,0.0,0.0,0.0,-42.6,-20.9,126.5,0.0,0.0,0.0
1749541950.0,0.366,-0.649,0.702,0.0,0.0,0.0,-42.6,-20.9,126.5,0.0,0.0,0.0
1749541965.0,0.362,-0.647,0.701,0.0,0.0,0.0,-42.6,-20.9,126.5,0.0,0.0,0.0
1749541971.0,0.365,-0.647,0.702,0.0,0.0,0.0,-42.6,-20.9,126.5,0.0,0.0,1.0
1749541978.0,0.366,-0.647,0.703,0.0,0.0,0.0,-42.6,-20.9,126.5,0.0,0.0,0.0
1749541985.0,0.365,-0.646,0.702,0.0,0.0,0.0,-42.6,-20.9,126.5,0.0,0.0,0.0
1749541992.0,0.366,-0.646,0.702,0.0,0.0,0.0,-42.6,-20.9,126.5,0.0,0.0,0.0
1749541999.0,0.364,-0.649,0.705,0.0,0.0,0.0,-42.6,-20.9,126.5,0.0,0.0,0.0
1749542005.0,0.367,-0.647,0.702,0.0,0.0,0.0,-42.6,-20.9,126.5,0.0,0.0,1.0
1749542020.0,0.366,-0.645,0.702,0.0,0.0,0.0,-42.6,-20.9,126.5,0.0,0.0,0.0
1749542300.0,0.308,-0.608,0.767,0.0,0.0,-0.1,-38.2,-17.5,-130.5,35.14488983154297,129.01251220703125,172.5
1749542307.0,0.307,-0.607,0.769,0.0,0.0,0.0,-38.2,-17.5,-130.5,0.0,0.0,172.4
1749542314.0,0.31,-0.604,0.77,0.0,0.0,0.1,-38.2,-17.5,-130.5,0.0,0.0,0.0
1749542321.0,0.309,-0.606,0.769,0.0,0.0,0.0,-38.2,-17.5,-130.5,0.0,0.0,0.0
1749542328.0,0.308,-0.607,0.767,0.0,0.0,0.0,-38.2,-17.5,-130.5,0.0,0.0,0.0
1749542335.0,0.31,-0.605,0.77,0.0,0.0,0.0,-38.2,-17.5,-130.5,35.14507293701172,129.01266479492188,0.0
1749542342.0,0.311,-0.605,0.767,0.0,0.0,0.0,-38.2,-17.5,-130.5,0.0,0.0,0.0
1749542348.0,0.307,-0.606,0.768,0.0,0.0,0.0,-38.2,-17.5,-130.5,0.0,0.0,0.0
1749542355.0,0.31,-0.605,0.768,0.0,0.0,0.0,-38.2,-17.5,-130.5,35.145145416259766,129.01271057128906,172.3
1749542362.0,0.311,-0.605,0.767,0.0,0.0,0.0,-38.2,-17.5,-130.5,35.14510726928711,129.0127716064453,172.4
1749542369.0,0.309,-0.607,0.768,0.0,0.0,0.0,-38.2,-17.5,-130.5,35.1451301574707,129.01280212402344,172.6
1749542377.0,0.31,-0.605,0.768,0.0,0.0,0.0,-38.2,-17.5,-130.5,35.1451416015625,129.01280212402344,172.7
1749542384.0,0.309,-0.604,0.766,0.0,0.0,0.1,-38.2,-17.5,-130.5,35.145164489746094,129.0127410888672,172.7
1749542391.0,0.309,-0.606,0.769,0.0,0.0,0.0,-38.2,-17.5,-130.5,0.0,0.0,0.0
1749542398.0,0.31,-0.607,0.772,0.0,0.0,-0.1,-38.2,-17.5,-130.5,35.1449089050293,129.01327514648438,172.7
1749542405.0,0.308,-0.605,0.769,0.0,0.0,0.0,-38.2,-17.5,-130.5,35.144718170166016,129.0135498046875,172.9
1749542412.0,0.31,-0.606,0.769,0.0,0.0,0.0,-38.2,-17.5,-130.5,0.0,0.0,0.0
1749542419.0,0.308,-0.608,0.768,0.0,0.0,-0.1,-38.2,-17.5,-130.5,35.14478302001953,129.01353454589844,173.2
1749542426.0,0.31,-0.607,0.77,0.0,0.0,0.0,-38.2,-17.5,-130.5,35.14481735229492,129.01351928710938,173.4
1749542433.0,0.312,-0.606,0.77,0.0,0.0,0.0,-38.2,-17.5,-130.5,35.14485168457031,129.0134735107422,173.4
1749542440.0,0.311,-0.605,0.768,0.0,0.0,0.0,-38.2,-17.5,-130.5,0.0,0.0,0.0
1749542447.0,0.309,-0.605,0.77,0.0,0.0,0.0,-38.2,-17.5,-130.5,0.0,0.0,0.0
1749542453.0,0.308,-0.605,0.767,0.0,0.0,0.0,-38.2,-17.5,-130.5,0.0,0.0,0.0
1749542460.0,0.308,-0.607,0.766,0.0,0.0,0.0,-38.2,-17.5,-130.5,0.0,0.0,0.0
1749542467.0,0.309,-0.607,0.769,0.0,0.0,0.0,-38.2,-17.5,-130.5,35.14495086669922,129.01356506347656,173.6
1749542474.0,0.311,-0.605,0.77,0.0,0.0,0.0,-38.2,-17.5,-130.5,35.144962310791016,129.01344299316406,173.6
1749542481.0,0.31,-0.606,0.768,0.0,0.0,0.0,-38.2,-17.5,-130.5,35.14494705200195,129.01341247558594,173.5
1749542488.0,0.31,-0.607,0.768,0.0,0.0,0.0,-38.2,-17.5,-130.5,35.144920349121094,129.0133514404297,173.5
1749542495.0,0.309,-0.607,0.769,0.0,0.0,0.0,-38.2,-17.5,-130.5,35.145076751708984,129.0130157470703,181.4
1749542503.0,0.311,-0.606,0.77,0.0,0.0,0.0,-38.2,-17.5,-130.5,0.0,0.0,179.0
1749542509.0,0.308,-0.605,0.769,0.0,0.0,0.0,-38.2,-17.5,-130.5,0.0,0.0,0.0
1749542516.0,0.309,-0.607,0.769,0.0,0.0,-0.1,-38.2,-17.5,-130.5,0.0,0.0,0.0
1749542523.0,0.31,-0.604,0.768,0.0,0.0,0.0,-38.2,-17.5,-130.5,0.0,0.0,0.0
1749542530.0,0.309,-0.605,0.767,0.0,0.0,0.0,-38.2,-17.5,-130.5,35.145137786865234,129.01280212402344,0.0
1749542537.0,0.308,-0.605,0.769,0.0,0.0,0.0,-38.2,-17.5,-130.5,35.1452522277832,129.01275634765625,178.1
1749542544.0,0.309,-0.606,0.769,0.0,0.0,0.0,-38.2,-17.5,-130.5,35.145389556884766,129.01272583007812,175.0
1749542551.0,0.311,-0.604,0.769,0.0,0.0,0.0,-38.2,-17.5,-130.5,35.1455192565918,129.01271057128906,170.8
1749542558.0,0.31,-0.607,0.767,0.0,0.0,-0.1,-38.2,-17.5,-130.5,0.0,0.0,168.3
1749542565.0,0.309,-0.607,0.77,0.0,0.0,0.0,-38.2,-17.5,-130.5,35.14564514160156,129.0126190185547,168.0
1749542572.0,0.309,-0.605,0.77,0.0,0.0,0.0,-38.2,-17.5,-130.5,35.14566421508789,129.01260375976562,167.2
1749542580.0,0.308,-0.607,0.769,0.0,0.0,0.0,-38.2,-17.5,-130.5,35.14557647705078,129.0125732421875,168.4
1749542587.0,0.31,-0.605,0.772,0.0,0.0,0.0,-38.2,-17.5,-130.5,35.14541244506836,129.0124969482422,169.5
1749542594.0,0.311,-0.606,0.771,0.0,0.0,0.0,-38.2,-17.5,-130.5,35.145362854003906,129.01246643066406,171.2
1749542601.0,0.31,-0.608,0.77,0.0,0.0,0.0,-38.2,-17.5,-130.5,35.145355224609375,129.01248168945312,171.9
1749542608.0,0.31,-0.605,0.769,0.0,0.0,0.0,-38.2,-17.5,-130.5,35.14536666870117,129.01251220703125,172.4
1749542615.0,0.312,-0.605,0.768,-0.1,0.0,0.0,-38.2,-17.5,-130.5,35.14537811279297,129.01255798339844,172.7
1749542622.0,0.31,-0.606,0.766,0.0,0.0,0.0,-38.2,-17.5,-130.5,35.14539337158203,129.0125732421875,173.0
1749542629.0,0.31,-0.608,0.769,0.0,0.0,-0.1,-38.2,-17.5,-130.5,35.145389556884766,129.0125732421875,172.7
1749542637.0,0.31,-0.606,0.77,0.0,0.0,0.0,-38.2,-17.5,-130.5,35.145416259765625,129.0125732421875,172.4
1749542644.0,0.309,-0.606,0.769,0.0,0.0,0.0,-38.2,-17.5,-130.5,35.14543151855469,129.01255798339844,171.9
1749542651.0,0.308,-0.607,0.769,0.0,0.0,0.0,-38.2,-17.5,-130.5,35.145294189453125,129.01243591308594,178.4
1749542658.0,0.308,-0.607,0.768,0.0,0.0,0.0,-38.2,-17.5,-130.5,35.14520263671875,129.0124053955078,181.1
1749542665.0,0.309,-0.604,0.771,0.0,0.0,0.0,-38.2,-17.5,-130.5,35.14511489868164,129.0123748779297,182.0
1749542672.0,0.308,-0.605,0.771,0.0,0.0,0.0,-38.2,-17.5,-130.5,35.14499282836914,129.01235961914062,183.6
1749542679.0,0.306,-0.606,0.77,0.0,0.0,-0.1,-38.2,-17.5,-130.5,35.144954681396484,129.01235961914062,180.1
1749542686.0,0.307,-0.603,0.768,0.0,0.0,0.0,-38.2,-17.5,-130.5,35.144893646240234,129.01235961914062,175.8
1749542693.0,0.31,-0.605,0.77,0.0,0.0,0.0,-38.2,-17.5,-130.5,35.14485168457031,129.01235961914062,173.0
1749542701.0,0.308,-0.607,0.769,0.0,0.0,0.0,-38.2,-17.5,-130.5,35.14480209350586,129.0123748779297,174.6
1749542708.0,0.308,-0.606,0.769,0.0,0.0,0.0,-38.2,-17.5,-130.5,35.14474868774414,129.01239013671875,173.5
1749542715.0,0.309,-0.605,0.769,0.0,0.0,0.0,-38.2,-17.5,-130.5,35.14468765258789,129.01239013671875,169.6
1749542722.0,0.309,-0.607,0.767,0.0,0.0,0.0,-38.2,-17.5,-130.5,35.14467239379883,129.01239013671875,169.4
1749542729.0,0.309,-0.606,0.766,0.0,0.0,-0.1,-38.2,-17.5,-130.5,35.14457702636719,129.01242065429688,168.0
1749542736.0,0.31,-0.606,0.767,0.0,0.0,0.0,-38.2,-17.5,-130.5,35.14454650878906,129.01242065429688,165.0
1749542743.0,0.311,-0.605,0.771,0.0,0.0,0.0,-38.2,-17.5,-130.5,35.144500732421875,129.01243591308594,164.9
1749542750.0,0.311,-0.607,0.77,0.0,0.0,-0.1,-38.2,-17.5,-130.5,35.144466400146484,129.01243591308594,162.4
1749542757.0,0.31,-0.607,0.771,0.0,0.0,0.0,-38.2,-17.5,-130.5,35.144405364990234,129.012451171875,162.6
1749542765.0,0.31,-0.606,0.771,0.0,0.0,0.0,-38.2,-17.5,-130.5,35.14438247680664,129.012451171875,158.5
1749542772.0,0.309,-0.606,0.768,0.0,0.0,-0.1,-38.2,-17.5,-130.5,35.14442443847656,129.012451171875,160.5
1749542779.0,0.311,-0.605,0.768,0.0,0.0,0.0,-38.2,-17.5,-130.5,35.14441680908203,129.012451171875,159.0
1749542786.0,0.308,-0.606,0.768,0.0,0.0,0.0,-38.2,-17.5,-130.5,35.144493103027344,129.01248168945312,159.0
1749542793.0,0.308,-0.605,0.767,0.0,0.0,0.0,-38.2,-17.5,-130.5,35.144527435302734,129.01248168945312,160.5
1749542800.0,0.308,-0.606,0.768,0.0,0.0,0.0,-38.2,-17.5,-130.5,35.14455032348633,129.0124969482422,161.1
1749542807.0,0.308,-0.605,0.77,0.0,0.0,0.0,-38.2,-17.5,-130.5,35.14457321166992,129.01248168945312,161.4
1749542814.0,0.308,-0.604,0.77,0.0,0.0,0.0,-38.2,-17.5,-130.5,35.144508361816406,129.01248168945312,155.7
1749542821.0,0.308,-0.607,0.769,0.0,0.0,0.0,-38.2,-17.5,-130.5,35.14451599121094,129.01248168945312,159.3
1749542829.0,0.308,-0.606,0.769,0.0,0.0,0.0,-38.2,-17.5,-130.5,35.14453125,129.01246643066406,158.8
1749542836.0,0.309,-0.605,0.767,0.0,0.0,0.0,-38.2,-17.5,-130.5,35.14453125,129.01248168945312,158.5
1749542844.0,0.311,-0.605,0.769,0.0,0.0,0.0,-38.2,-17.5,-130.5,35.144561767578125,129.01246643066406,158.3
1749542851.0,0.309,-0.604,0.769,0.0,0.0,0.0,-38.2,-17.5,-130.5,35.14453887939453,129.01246643066406,157.3
1749542858.0,0.31,-0.604,0.768,0.0,0.0,0.0,-38.2,-17.5,-130.5,35.14451217651367,129.012451171875,156.6
1749542867.0,0.309,-0.607,0.769,0.0,0.0,0.0,-38.2,-17.5,-130.5,35.14448547363281,129.01243591308594,156.0
1749543054.0,0.317,-0.64,0.73,0.0,0.0,0.0,-41.1,-18.1,173.8,35.144287109375,129.00796508789062,153.1
1749543068.0,0.318,-0.639,0.73,0.0,0.0,0.0,-41.1,-18.1,173.8,35.144290924072266,129.00796508789062,152.9
1749543082.0,0.318,-0.641,0.735,0.0,0.0,0.0,-41.1,-18.1,173.8,35.14429473876953,129.00796508789062,152.5
1749543096.0,0.316,-0.641,0.734,0.0,0.0,0.0,-41.1,-18.1,173.8,35.144287109375,129.00796508789062,151.3
1749543110.0,0.315,-0.64,0.732,0.0,0.0,0.0,-41.1,-18.1,173.8,35.144290924072266,129.00796508789062,151.7
1749543125.0,0.317,-0.642,0.731,0.0,0.0,0.0,-41.1,-18.1,173.8,35.1442985534668,129.00796508789062,153.1
1749543139.0,0.317,-0.642,0.733,0.0,0.0,0.0,-41.1,-18.1,173.8,35.144283294677734,129.00796508789062,152.7
1749543153.0,0.316,-0.641,0.731,0.0,0.0,0.0,-41.1,-18.1,173.8,35.144287109375,129.00796508789062,152.9
1749543167.0,0.318,-0.643,0.732,0.0,0.0,0.0,-41.1,-18.1,173.8,35.1442756652832,129.00796508789062,152.7
1749543182.0,0.317,-0.642,0.733,0.0,0.0,0.0,-41.1,-18.1,173.8,35.14426803588867,129.00796508789062,151.9
1749543196.0,0.317,-0.642,0.732,0.0,0.0,0.0,-41.2,-18.1,173.8,35.14426040649414,129.00796508789062,151.2
1749543210.0,0.316,-0.64,0.734,0.0,0.0,0.0,-41.2,-18.1,173.8,35.144256591796875,129.00796508789062,150.3
1749543224.0,0.317,-0.642,0.734,0.0,0.0,0.0,-41.2,-18.1,173.8,35.144256591796875,129.00796508789062,150.3
1749543238.0,0.317,-0.64,0.732,0.0,0.0,0.0,-41.2,-18.1,173.8,35.14426040649414,129.00796508789062,151.1
1749543253.0,0.318,-0.641,0.732,0.0,0.0,0.0,-41.2,-18.1,173.8,35.144264221191406,129.00796508789062,151.3
1749543267.0,0.319,-0.639,0.73,0.0,0.0,0.0,-41.2,-18.1,173.8,35.14426040649414,129.00796508789062,150.3
1749543281.0,0.316,-0.642,0.73,0.0,0.0,0.0,-41.2,-18.1,173.8,35.144264221191406,129.00796508789062,149.6
1749543295.0,0.317,-0.64,0.733,0.0,0.0,0.0,-41.2,-18.1,173.8,35.14427185058594,129.00796508789062,150.3
1749543309.0,0.317,-0.642,0.733,0.0,0.0,0.0,-41.2,-18.1,173.8,35.1442756652832,129.00796508789062,150.7
1749543324.0,0.319,-0.641,0.733,0.0,0.0,0.0,-41.2,-18.1,173.8,35.1442756652832,129.00796508789062,151.0
1749543338.0,0.317,-0.641,0.73,0.0,0.0,0.0,-41.2,-18.1,173.8,35.14427947998047,129.00796508789062,150.9
1749543352.0,0.317,-0.64,0.732,0.0,0.0,0.0,-41.2,-18.1,173.8,35.144283294677734,129.00796508789062,151.1
1749543366.0,0.316,-0.641,0.731,0.0,0.0,0.0,-41.2,-18.1,173.8,35.1442756652832,129.00794982910156,150.9
1749543381.0,0.318,-0.642,0.729,0.0,0.0,0.0,-41.2,-18.1,173.8,35.14426803588867,129.00794982910156,149.4
1749543395.0,0.317,-0.641,0.735,0.0,0.0,0.0,-41.2,-18.1,173.8,35.14427185058594,129.00794982910156,149.1
1749543409.0,0.318,-0.639,0.735,0.0,0.0,0.0,-41.2,-18.1,173.8,35.1442756652832,129.00794982910156,148.8
1749543423.0,0.317,-0.642,0.733,0.0,0.0,0.0,-41.2,-18.1,173.8,35.14427185058594,129.00794982910156,148.2
1749543438.0,0.315,-0.641,0.734,0.0,0.0,0.0,-41.2,-18.1,173.8,35.1442756652832,129.00794982910156,147.8
1749543452.0,0.317,-0.642,0.73,0.0,0.0,0.0,-41.2,-18.1,173.8,35.1442756652832,129.00794982910156,147.4
1749543466.0,0.317,-0.641,0.734,0.0,0.0,0.0,-41.2,-18.1,173.8,35.14427947998047,129.00794982910156,147.3
1749543480.0,0.317,-0.641,0.732,0.0,0.0,0.0,-41.2,-18.0,173.8,35.144283294677734,129.00794982910156,147.4
1749543494.0,0.317,-0.641,0.729,0.0,0.0,0.0,-41.2,-18.0,173.8,35.1442985534668,129.00796508789062,149.7
1749543508.0,0.315,-0.641,0.735,0.0,0.0,0.0,-41.2,-18.0,173.8,35.14431381225586,129.0079803466797,152.6
1749543523.0,0.316,-0.642,0.732,0.0,0.0,0.0,-41.2,-18.0,173.8,35.14432144165039,129.0079803466797,155.2
1749543537.0,0.318,-0.64,0.732,0.0,0.0,0.0,-41.2,-18.0,173.8,35.144325256347656,129.00799560546875,156.7
1749543551.0,0.315,-0.641,0.731,0.0,0.0,0.0,-41.2,-18.0,173.8,35.144325256347656,129.00799560546875,157.7
1749543565.0,0.318,-0.638,0.735,0.0,0.0,0.0,-41.2,-18.0,173.8,35.14432144165039,129.00799560546875,158.3
1749543579.0,0.316,-0.641,0.73,0.0,0.0,0.0,-41.2,-18.0,173.8,35.14430236816406,129.0079803466797,157.8
1749543594.0,0.317,-0.642,0.732,0.0,0.0,0.0,-41.2,-18.0,173.8,35.14429473876953,129.0079803466797,158.0
1749543608.0,0.317,-0.642,0.731,0.0,0.0,0.0,-41.2,-18.0,173.8,35.14429473876953,129.0079803466797,157.7
1749543622.0,0.317,-0.642,0.731,0.0,0.0,0.0,-41.2,-18.0,173.8,35.14429473876953,129.0079803466797,158.2
1749543636.0,0.315,-0.642,0.732,0.0,0.0,0.0,-41.2,-18.0,173.8,35.1442756652832,129.00796508789062,156.6
1749543650.0,0.316,-0.641,0.734,0.0,0.0,0.0,-41.2,-18.0,173.8,35.144264221191406,129.00796508789062,155.3
1749543665.0,0.316,-0.642,0.732,0.0,0.0,0.0,-41.2,-18.0,173.8,35.144256591796875,129.00796508789062,153.8
1749543679.0,0.317,-0.641,0.731,0.0,0.0,0.0,-41.2,-18.0,173.8,35.144256591796875,129.00796508789062,153.0
1749543693.0,0.315,-0.642,0.732,0.0,0.0,0.0,-41.2,-18.0,173.8,35.144248962402344,129.00796508789062,151.6
1749543707.0,0.317,-0.641,0.733,0.0,0.0,0.0,-41.2,-18.0,173.8,35.14424514770508,129.00796508789062,151.4
1749543721.0,0.318,-0.642,0.733,0.0,0.0,0.0,-41.2,-18.0,173.8,35.144248962402344,129.00796508789062,152.2
1749543736.0,0.32,-0.642,0.731,0.0,0.0,0.0,-41.2,-18.0,173.8,35.14424514770508,129.00796508789062,152.2
1749543750.0,0.315,-0.641,0.734,0.0,0.0,0.0,-41.2,-18.0,173.8,35.14424133300781,129.00796508789062,152.4
1749543764.0,0.316,-0.642,0.729,0.0,0.0,0.0,-41.2,-18.0,173.8,35.14424133300781,129.00796508789062,152.1
1749543778.0,0.317,-0.641,0.732,0.0,0.0,0.0,-41.2,-18.0,173.8,35.14423751831055,129.00796508789062,152.0
1749543792.0,0.316,-0.643,0.73,0.0,0.0,0.0,-41.2,-18.0,173.8,35.144229888916016,129.00794982910156,151.0
1749543806.0,0.317,-0.643,0.729,0.0,0.0,0.0,-41.2,-18.0,173.8,35.144222259521484,129.00794982910156,149.5
1749543821.0,0.317,-0.642,0.733,0.0,0.0,0.0,-41.2,-18.0,173.8,35.14423370361328,129.00794982910156,149.4
1749543835.0,0.317,-0.64,0.735,0.0,0.0,0.0,-41.2,-18.0,173.8,35.14424514770508,129.00794982910156,150.0
1749543849.0,0.317,-0.64,0.731,0.0,0.0,0.0,-41.2,-18.0,173.8,35.14426040649414,129.00796508789062,150.7
1749543863.0,0.319,-0.642,0.733,0.0,0.0,0.0,-41.2,-18.0,173.8,35.144264221191406,129.00796508789062,150.5
1749543877.0,0.317,-0.64,0.733,0.0,0.0,0.0,-41.2,-18.0,173.8,35.14426803588867,129.00796508789062,150.2
1749543892.0,0.319,-0.641,0.732,0.0,0.0,0.0,-41.2,-18.0,173.8,35.144264221191406,129.00796508789062,149.5
1749543906.0,0.315,-0.641,0.736,0.0,0.0,0.0,-41.2,-18.0,173.8,35.1442756652832,129.00796508789062,150.5
1749543920.0,0.316,-0.641,0.732,0.0,0.0,0.0,-41.2,-18.0,173.8,35.144283294677734,129.00796508789062,151.4
1749543934.0,0.318,-0.642,0.732,0.0,0.0,0.0,-41.2,-18.0,173.8,35.144283294677734,129.00796508789062,150.3
1749543948.0,0.318,-0.641,0.73,0.0,0.0,0.0,-41.2,-18.0,173.8,35.144287109375,129.00796508789062,149.8
1749543963.0,0.318,-0.643,0.734,0.0,0.0,0.0,-41.2,-18.0,173.8,35.144287109375,129.00796508789062,148.5
1749543977.0,0.316,-0.641,0.732,0.0,0.0,0.0,-41.2,-18.0,173.8,35.14429473876953,129.00796508789062,147.7
1749545902.0,0.321,-0.633,0.74,0.0,0.0,0.0,-40.4,-18.2,173.9,35.1442756652832,129.00796508789062,153.6
1749545916.0,0.321,-0.631,0.743,0.0,0.0,0.0,-40.4,-18.2,173.9,35.1442756652832,129.00796508789062,153.1
1749545930.0,0.322,-0.631,0.74,0.0,0.0,0.0,-40.4,-18.2,173.9,35.14427947998047,129.0079803466797,151.9
1749545944.0,0.319,-0.632,0.741,0.0,0.0,0.0,-40.4,-18.2,173.9,35.1442756652832,129.00796508789062,151.8
1749545958.0,0.323,-0.632,0.74,0.0,0.0,0.0,-40.4,-18.2,173.9,35.14427185058594,129.00796508789062,150.2
1749545973.0,0.322,-0.632,0.739,0.0,0.0,0.0,-40.4,-18.2,173.9,35.14427185058594,129.00796508789062,149.7
1749545987.0,0.322,-0.633,0.741,0.0,0.0,0.0,-40.4,-18.2,173.9,35.14427185058594,129.00796508789062,150.2
1749546001.0,0.324,-0.635,0.74,0.0,0.0,0.0,-40.4,-18.2,173.9,35.14427185058594,129.00796508789062,149.8
1749546015.0,0.321,-0.633,0.743,0.0,0.0,0.0,-40.4,-18.2,173.9,35.14427185058594,129.00794982910156,149.6
1749546030.0,0.321,-0.631,0.738,0.0,0.0,0.0,-40.4,-18.2,173.9,35.1442756652832,129.00794982910156,149.8
1749546044.0,0.322,-0.633,0.742,0.0,0.0,0.0,-40.4,-18.2,173.9,35.1442756652832,129.00794982910156,150.9
1749546058.0,0.323,-0.632,0.744,0.0,0.0,0.0,-40.4,-18.2,173.9,35.1442756652832,129.00796508789062,151.0
1749546072.0,0.321,-0.632,0.742,0.0,0.0,0.0,-40.4,-18.2,173.9,35.1442756652832,129.00796508789062,151.2
1749546086.0,0.321,-0.633,0.735,0.0,0.0,0.0,-40.4,-18.2,173.9,35.14427947998047,129.00796508789062,151.4
1749546101.0,0.321,-0.632,0.738,0.0,0.0,0.0,-40.4,-18.2,173.9,35.14427947998047,129.00796508789062,151.7
1749546115.0,0.321,-0.633,0.739,0.0,0.0,0.0,-40.4,-18.2,173.9,35.144283294677734,129.00796508789062,151.7
1749546129.0,0.322,-0.634,0.74,0.0,0.0,0.0,-40.4,-18.2,173.9,35.144283294677734,129.00796508789062,151.6
1749546143.0,0.321,-0.629,0.737,0.0,0.0,0.0,-40.4,-18.2,173.9,35.144283294677734,129.00796508789062,151.3
1749546158.0,0.321,-0.633,0.742,0.0,0.0,0.0,-40.4,-18.2,173.9,35.144287109375,129.00796508789062,150.7
1749546172.0,0.32,-0.632,0.741,0.0,0.0,0.0,-40.4,-18.2,173.9,35.144287109375,129.0079803466797,149.9
1749546186.0,0.32,-0.631,0.738,0.0,0.0,0.0,-40.4,-18.2,173.9,35.144283294677734,129.0079803466797,148.9
1749546200.0,0.323,-0.634,0.739,0.0,0.0,0.0,-40.4,-18.2,173.9,35.144283294677734,129.0079803466797,148.5
1749546214.0,0.322,-0.631,0.742,0.0,0.0,0.0,-40.4,-18.2,173.9,35.14427947998047,129.0079803466797,148.7
1749546229.0,0.32,-0.633,0.741,0.0,0.0,0.0,-40.4,-18.2,173.9,35.14427947998047,129.00799560546875,148.9
1749546243.0,0.322,-0.632,0.739,0.0,0.0,0.0,-40.4,-18.2,173.9,35.14427947998047,129.00799560546875,148.4
1749546257.0,0.321,-0.632,0.741,0.0,0.0,0.0,-40.4,-18.2,173.9,35.14427947998047,129.00799560546875,147.2
1749546271.0,0.321,-0.632,0.739,0.0,0.0,0.0,-40.4,-18.2,173.9,35.14427947998047,129.00799560546875,146.8
1749546286.0,0.321,-0.631,0.737,0.0,0.0,0.0,-40.4,-18.2,173.9,35.14427947998047,129.00799560546875,146.8
1749546300.0,0.322,-0.634,0.738,0.0,0.0,0.0,-40.4,-18.2,173.9,35.14427947998047,129.00799560546875,146.9
1749546314.0,0.323,-0.633,0.744,0.0,0.0,0.0,-40.4,-18.2,173.9,35.14427947998047,129.0079803466797,147.2
1749546328.0,0.321,-0.632,0.74,0.0,0.0,0.0,-40.4,-18.2,173.9,35.14427947998047,129.0079803466797,147.8
1749546342.0,0.322,-0.63,0.743,0.0,0.0,0.0,-40.4,-18.2,173.9,35.144283294677734,129.0079803466797,148.2
1749546357.0,0.322,-0.631,0.741,0.0,0.0,0.0,-40.4,-18.2,173.9,35.144283294677734,129.0079803466797,148.6
1749546371.0,0.321,-0.634,0.739,0.0,0.0,0.0,-40.4,-18.2,173.9,35.144283294677734,129.00796508789062,149.2
1749546385.0,0.322,-0.634,0.739,0.0,0.0,0.0,-40.4,-18.2,173.9,35.14427947998047,129.00796508789062,148.7
1749546399.0,0.322,-0.631,0.74,0.0,0.0,0.0,-40.4,-18.2,173.9,35.144283294677734,129.00796508789062,149.3
1749546413.0,0.323,-0.634,0.74,0.0,0.0,0.0,-40.4,-18.2,173.9,35.144283294677734,129.00796508789062,149.9
1749546428.0,0.32,-0.633,0.738,0.0,0.0,0.0,-40.4,-18.2,173.9,35.144283294677734,129.00796508789062,151.1
1749546442.0,0.321,-0.631,0.74,0.0,0.0,0.0,-40.4,-18.2,173.9,35.14427947998047,129.00796508789062,150.8
1749546456.0,0.324,-0.632,0.74,0.0,0.0,0.0,-40.4,-18.2,173.9,35.1442756652832,129.00796508789062,151.3
1749546470.0,0.322,-0.632,0.738,0.0,0.0,0.0,-40.4,-18.2,173.9,35.1442756652832,129.00796508789062,152.3
1749546484.0,0.321,-0.632,0.74,0.0,0.0,0.0,-40.4,-18.2,173.9,35.14427947998047,129.00796508789062,153.8
1749546498.0,0.321,-0.632,0.738,0.0,0.0,0.0,-40.4,-18.2,173.9,35.14427947998047,129.0079803466797,153.5
1749546513.0,0.321,-0.631,0.74,0.0,0.0,0.0,-40.4,-18.2,173.9,35.14427947998047,129.00799560546875,154.8
1749546527.0,0.321,-0.632,0.736,0.0,0.0,0.0,-40.4,-18.2,173.9,35.144290924072266,129.0079803466797,157.3
1749546541.0,0.322,-0.632,0.739,0.0,0.0,0.0,-40.4,-18.2,173.9,35.144290924072266,129.0079803466797,158.4
1749546555.0,0.322,-0.634,0.742,0.0,0.0,0.0,-40.4,-18.2,173.9,35.144287109375,129.00799560546875,159.2
1749546569.0,0.32,-0.632,0.741,0.0,0.0,0.0,-40.4,-18.2,173.9,35.144287109375,129.0079803466797,159.1
1749546584.0,0.323,-0.632,0.741,0.0,0.0,0.0,-40.4,-18.2,173.9,35.144283294677734,129.0079803466797,158.3
1749546598.0,0.321,-0.633,0.74,0.0,0.0,0.0,-40.4,-18.2,173.9,35.14427947998047,129.00796508789062,158.3
1749546612.0,0.32,-0.632,0.739,0.0,0.0,0.0,-40.4,-18.2,173.9,35.14427947998047,129.00796508789062,157.7
1749546626.0,0.32,-0.631,0.74,0.0,0.0,0.0,-40.4,-18.2,173.9,35.14427947998047,129.00796508789062,157.5
1749546640.0,0.322,-0.63,0.739,0.0,0.0,0.0,-40.4,-18.2,173.9,35.14427947998047,129.00796508789062,157.7
1749546655.0,0.32,-0.63,0.738,0.0,0.0,0.0,-40.4,-18.2,173.9,35.14427947998047,129.00796508789062,157.8
1749546669.0,0.324,-0.633,0.742,0.0,0.0,0.0,-40.4,-18.2,173.9,35.14427947998047,129.00796508789062,158.1
1749546683.0,0.322,-0.633,0.741,0.0,0.0,0.0,-40.4,-18.2,173.9,35.14427947998047,129.00796508789062,158.2
1749546697.0,0.321,-0.631,0.741,0.0,0.0,0.0,-40.4,-18.2,173.9,35.1442756652832,129.00796508789062,158.0
1749546711.0,0.32,-0.633,0.741,0.0,0.0,0.0,-40.4,-18.2,173.9,35.1442756652832,129.00796508789062,158.1
1749546726.0,0.322,-0.633,0.741,0.0,0.0,0.0,-40.4,-18.2,173.9,35.14427947998047,129.00796508789062,159.2
1749546740.0,0.323,-0.634,0.74,0.0,0.0,0.0,-40.4,-18.2,173.9,35.144283294677734,129.00794982910156,159.3
1749546754.0,0.324,-0.631,0.738,0.0,0.0,0.0,-40.4,-18.2,173.9,35.144283294677734,129.0079345703125,159.2
1749546768.0,0.321,-0.632,0.738,0.0,0.0,0.0,-40.4,-18.2,173.9,35.144283294677734,129.0079345703125,158.9
1749546782.0,0.321,-0.633,0.738,0.0,0.0,0.0,-40.4,-18.2,173.9,35.144287109375,129.0079345703125,158.8
1749546796.0,0.322,-0.632,0.74,0.0,0.0,0.0,-40.4,-18.2,173.9,35.144283294677734,129.00794982910156,157.5
1749546811.0,0.323,-0.63,0.739,0.0,0.0,0.0,-40.4,-18.2,173.9,35.144287109375,129.00794982910156,157.5
1749546825.0,0.323,-0.632,0.739,0.0,0.0,0.0,-40.4,-18.2,173.9,35.144287109375,129.00794982910156,157.4
